T,D,PDOP,acc_x,acc_y,acc_z,acc_z_,altitude,amp_pitch,amp_roll,cadence,d_stroke,gpsTimeAccuracyNs,gpstimeUs,gyro_x,gyro_y,gyro_z,heading,latitude,longitude,motif_id,nSat,pic_acc,pic_down,pitch,roll,speed,speed_gps,speed_i,t_acc,t_down,yaw,time
1523.170898,2685.13944,0.889999986,0.530336916,1.67474139,8.94279861,-0.867201746,3.94449067,1.05217406,5.93506212,74.1060384,1.05515794,21,1771148104531698,-3.30751732,0.0248430634,-12.3872761,82.7273865,49.1841087,-0.344095533,1173,31,9.40306473,-2.25793386,0.198650143,-3.62114117,5.71027636,4.41321278,7.83951914,0.496773875,0.131613063,-1.51953416,2026-02-15T09:35:04.531Z
1523.180908,2685.14896,0.889999986,0.199963257,1.15056598,8.82293701,-0.987063825,3.94360447,1.06978463,5.99067476,74.4571603,1.05668338,21,1771148104542773,-15.8838239,-0.89829298,-11.330257,82.6884308,49.1841087,-0.344095335,1173,31,9.39275169,-2.31184936,0.203017621,-3.5252169,5.73702771,4.50331497,7.83732101,0.496128835,0.131935582,-1.63800099,2026-02-15T09:35:04.542Z
1523.190918,2685.15847,0.889999986,-0.563935935,-0.362850785,8.77879715,-1.03120339,3.94271851,1.08739521,6.0462874,74.8082822,1.05820882,21,1771148104553847,-21.6194067,-1.1130073,-10.7157965,82.6494751,49.1841087,-0.344095137,1173,31,9.38243866,-2.36576486,0.213065318,-3.33785626,5.76383211,4.59341621,7.82353028,0.495483796,0.132258102,-1.74812076,2026-02-15T09:35:04.553Z
1523.200806,2685.16799,0.889999986,-1.24146044,-1.50210488,9.3629303,-0.447069973,3.94183254,1.10500578,6.10190004,75.1594041,1.05973426,21,1771148104564921,-23.6116437,-1.05823532,-10.210172,82.6105118,49.1841087,-0.344094939,1173,31,9.37212563,-2.4196806,0.224043364,-3.10915723,5.7906892,4.68351746,7.78203373,0.494838756,0.132580622,-1.85392341,2026-02-15T09:35:04.564Z
1523.210815,2685.1775,0.889999986,-1.23190737,-1.9086355,8.77132797,-1.03867257,3.94094658,1.12261635,6.15751269,75.510526,1.0612597,21,1771148104575996,-22.4202055,-0.793519853,-9.65459748,82.5715561,49.1841087,-0.344094741,1173,31,9.36181259,-2.4735961,0.233294376,-2.87921682,5.817599,4.77361965,7.71748939,0.494193717,0.132903141,-1.95315304,2026-02-15T09:35:04.575Z
1523.220825,2685.18702,0.889999986,-1.97143257,-1.28259838,9.8775444,0.0675435141,3.94006085,1.14022693,6.21312533,75.8616479,1.06278514,21,1771148104587069,-20.3186998,-0.321598004,-9.09205025,82.532608,49.1841087,-0.344094543,1173,31,9.3514986,-2.5275116,0.238866821,-2.66572053,5.84456113,4.86367989,7.65422871,0.493548678,0.133225661,-2.04679754,2026-02-15T09:35:04.587Z
1523.230835,2685.19654,0.889999986,-1.98746848,-0.886513889,10.7123814,0.902380824,3.93917298,1.1578375,6.26873797,76.2127698,1.06431058,21,1771148104597829,-20.2396396,-0.146472871,-8.34039618,82.4960938,49.1841087,-0.344094349,1173,31,9.34118557,-2.58142734,0.24120575,-2.46312624,5.8715756,4.94288731,7.56524683,0.492903638,0.133548181,-2.13387838,2026-02-15T09:35:04.597Z
1523.240845,2685.20609,0.889999986,-1.70809042,-0.86441052,11.1964655,1.38646495,3.93827653,1.17544807,6.32435061,76.5638917,1.06583602,21,1771148104607566,-22.144211,-0.256432646,-7.56917368,82.4676666,49.1841087,-0.344094168,1173,31,9.33087254,-2.63534284,0.243217779,-2.25142297,5.8987397,4.98566628,7.47683668,0.492258599,0.133870701,-2.21335237,2026-02-15T09:35:04.607Z
1523.250854,2685.21568,0.889999986,-1.1438483,-0.494364768,10.8995638,1.08956361,3.93737125,1.19305865,6.37996325,76.9150136,1.06736146,21,1771148104616616,-25.2437711,-0.455530326,-6.73503982,82.4447937,49.1841087,-0.344093996,1173,31,9.3205595,-2.68925834,0.246773148,-2.0147293,5.92608999,5.00326061,7.39961901,0.49161356,0.13419322,-2.28480772,2026-02-15T09:35:04.616Z
1523.260864,2685.2252,0.889999986,-0.91823411,-0.281992674,11.6226597,1.81265914,3.93647385,1.21066922,6.4355759,77.2661355,1.0688869,21,1771148104625589,-29.459066,-0.283036,-5.89437389,82.4221115,49.1841087,-0.344093824,1173,31,9.31024647,-2.74317408,0.250463175,-1.74150145,5.95325893,5.02070522,7.34375123,0.49096852,0.13451574,-2.34789707,2026-02-15T09:35:04.625Z
1523.270874,2685.23471,0.889999986,-1.2449162,0.387659699,12.8688202,3.05881977,3.93557668,1.22827979,6.49118854,77.6172574,1.07041234,21,1771148104634564,-34.7280908,-0.133053342,-5.05385901,82.3994293,49.1841087,-0.344093653,1173,31,9.29993248,-2.79708958,0.252540861,-1.42085308,5.98047855,5.03815031,7.29683569,0.490323481,0.13483826,-2.40258073,2026-02-15T09:35:04.634Z
1523.280884,2685.24423,0.889999986,-0.828122377,0.744215727,11.9516125,2.14161229,3.93467903,1.24589037,6.54680118,77.9683793,1.07193778,21,1771148104643537,-41.594869,-0.364314817,-3.97398877,82.3767471,49.1841087,-0.344093482,1173,31,9.28961945,-2.85100508,0.255026405,-1.03957714,6.00774839,5.0555954,7.23891171,0.489678441,0.135160779,-2.44767067,2026-02-15T09:35:04.643Z
1523.290894,2685.25374,0.889999986,-0.859857738,-0.0837535709,12.7095652,2.89956498,3.93378186,1.26350094,6.60241382,78.3195012,1.07346322,21,1771148104652511,-48.7029443,-0.0825520276,-2.91782852,82.3540649,49.1841087,-0.344093311,1173,31,9.27930641,-2.90492082,0.25725718,-0.588494008,6.03506803,5.07304001,7.19682874,0.489033402,0.135483299,-2.48209101,2026-02-15T09:35:04.652Z
1523.300903,2685.26326,0.889999986,0.36286211,-0.766407192,13.1966009,3.38660002,3.93288445,1.28111152,6.65802647,78.6706231,1.07498866,21,1771148104661484,-52.0514446,-0.224430345,-2.17714699,82.3313828,49.1841087,-0.34409314,1173,31,9.26899338,-2.95883632,0.258791295,-0.0851974192,6.06243702,5.09048462,7.15429779,0.488388363,0.135805819,-2.50753745,2026-02-15T09:35:04.661Z
1523.310913,2685.27277,0.889999986,1.71518254,-1.32300651,12.8876743,3.07767391,3.93198705,1.29872209,6.71363911,79.021745,1.07651409,21,1771148104670459,-51.3331054,0.679673976,-1.60014485,82.3087006,49.1841087,-0.344092969,1173,31,9.25868034,-3.01275182,0.256512882,0.431217384,6.08985491,5.10792971,7.15643995,0.487743323,0.136128338,-2.5264027,2026-02-15T09:35:04.670Z
1523.320923,2685.28229,0.889999986,3.11730385,-1.35427284,12.4315042,2.62150407,3.93108964,1.31633266,6.76925175,79.3728669,1.07803953,21,1771148104679432,-39.8625511,3.39192353,-0.547423608,82.2860107,49.1841087,-0.344092797,1173,31,9.24836636,-3.06666756,0.236161569,0.886694891,6.11732123,5.12537479,7.2074706,0.487098284,0.136450858,-2.53712496,2026-02-15T09:35:04.679Z
1523.330811,2685.29181,0.889999986,3.47756672,-2.63584948,12.8744202,3.06441927,3.93019247,1.33394324,6.82486439,79.7239888,1.07956497,21,1771148104688407,-28.0799593,5.30259918,0.0233806686,82.2634888,49.1841087,-0.344092626,1173,31,9.23805332,-3.12058306,0.192205703,1.23025066,6.14483535,5.14273453,7.30999209,0.486453245,0.136773378,-2.53977579,2026-02-15T09:35:04.688Z
1523.340820,2685.30132,0.889999986,7.12772989,-1.0940063,12.1340389,2.32403874,3.92936039,1.35155381,6.88047703,80.0751107,1.08109041,21,1771148104697550,-13.78319,6.31322323,0.204803874,82.2715378,49.1841087,-0.344092457,1173,31,9.22774029,-3.17449856,0.134188129,1.4394314,6.17239704,5.14394712,7.42329514,0.485808205,0.137095897,-2.53863686,2026-02-15T09:35:04.697Z
1523.350830,2685.31084,0.889999986,9.44290447,0.234563902,11.240036,1.43003571,3.92878866,1.36916438,6.93608968,80.4262326,1.08261585,21,1771148104707372,-1.09240968,7.59459117,0.345480402,82.4028625,49.1841087,-0.344092294,1173,31,9.21742725,-3.2284143,0.0647231083,1.51379847,6.20000568,5.08005095,7.66706667,0.485163166,0.137418417,-2.53588881,2026-02-15T09:35:04.707Z
1523.360840,2685.32035,0.889999986,5.97811985,0.325153172,10.8528576,1.04285729,3.92847395,1.38677496,6.99170232,80.7773545,1.08414129,21,1771148104717865,7.02836296,8.86254589,0.485412809,82.6556396,49.1841087,-0.344092138,1173,31,9.20711422,-3.2823298,-0.0174761313,1.4841872,6.22766103,4.95200109,7.99214744,0.484518127,0.137740937,-2.53173908,2026-02-15T09:35:04.717Z
1523.370850,2685.3299,0.889999986,0.906813323,2.55754089,10.872963,1.06296265,3.92815804,1.40438553,7.04731496,81.1284764,1.08566673,21,1771148104728395,10.0822003,9.62977366,0.38007905,82.9093323,49.1841087,-0.344091981,1173,31,9.19680023,-3.3362453,-0.109843775,1.39873279,6.25546249,4.82348967,8.18970181,0.483873087,0.138063456,-2.52741533,2026-02-15T09:35:04.728Z
1523.380859,2685.3395,0.889999986,-1.0084213,4.12081385,10.5617094,0.751709104,3.92784047,1.4219961,7.1029276,81.4795983,1.08719217,21,1771148104738977,6.94067581,9.28681257,0.486724098,83.1642761,49.1841087,-0.344091823,1173,31,9.1864872,-3.39016104,-0.204336097,1.31368617,6.2834474,4.69434309,8.20305885,0.483228048,0.138385976,-2.52308606,2026-02-15T09:35:04.738Z
1523.390869,2685.34901,0.889999986,-0.418763578,5.24724102,10.2447519,0.434751213,3.92752576,1.43960668,7.15854024,81.8307202,1.08871761,21,1771148104749470,-3.34676628,7.88054728,0.872271062,83.4170532,49.1841087,-0.344091667,1173,31,9.17617416,-3.44407654,-0.290088798,1.29573675,6.31123935,4.56629467,8.14760351,0.482583008,0.138708496,-2.51629761,2026-02-15T09:35:04.749Z
1523.400879,2685.35853,0.889999986,1.25995147,3.41974163,10.7512503,0.941249788,3.92721105,1.45721725,7.21415289,82.1818421,1.09024305,21,1771148104759962,-14.701213,5.97928884,1.16909905,83.669838,49.1841087,-0.34409151,1173,31,9.16586113,-3.49799204,-0.359311102,1.38594394,6.33907569,4.43824625,8.11419699,0.481937969,0.139031015,-2.50609927,2026-02-15T09:35:04.759Z
1523.410889,2685.36804,0.889999986,4.12193584,2.71464086,9.41534519,-0.39465481,3.92689633,1.47482782,7.26976553,82.532964,1.09176849,21,1771148104770455,-21.2518919,3.65961589,0.959509555,83.9226074,49.1841087,-0.344091354,1173,31,9.1555481,-3.55190778,-0.407447319,1.56556588,6.36695589,4.31019783,8.14177701,0.48129293,0.139353535,-2.49546764,2026-02-15T09:35:04.770Z
1523.420898,2685.37756,0.889999986,6.45631266,2.03899074,10.8637676,1.05376685,3.92658162,1.4924384,7.32537817,82.8840859,1.09329393,21,1771148104780946,-23.3934774,1.89775974,0.802151314,84.1753922,49.1841087,-0.344091198,1173,31,9.14523411,-3.60582328,-0.435198549,1.78858523,6.39487942,4.18215036,8.27229079,0.48064789,0.139676055,-2.48666869,2026-02-15T09:35:04.780Z
1523.430908,2685.38708,0.889999986,8.22220802,1.29925048,9.93539619,0.125395492,3.92626691,1.51004897,7.38099081,83.2352078,1.09481937,21,1771148104791439,-24.26474,0.528399527,0.966538048,84.4281693,49.1841087,-0.344091041,1173,31,9.13492107,-3.65973878,-0.44731089,2.02664802,6.42284575,4.05410147,8.48573521,0.480002851,0.139998575,-2.47783307,2026-02-15T09:35:04.791Z
1523.440918,2685.39659,0.889999986,8.81195068,0.52681309,10.3054934,0.495492905,3.92667222,1.52765954,7.43660345,83.5863296,1.09634481,21,1771148104801418,-23.9098126,0.403288557,0.948383983,84.7238846,49.1841087,-0.344090877,1173,31,9.12460804,-3.71365452,-0.451964234,2.26728401,6.45085437,3.9975071,8.76083688,0.479357812,0.140321094,-2.46826789,2026-02-15T09:35:04.801Z
1523.450806,2685.40611,0.889999986,8.43568039,0.213488132,9.74777222,-0.0622279309,3.92884374,1.54527012,7.4922161,83.9374515,1.09787025,21,1771148104810136,-22.5203362,0.758666224,0.923279384,85.1248932,49.1841087,-0.344090693,1174,31,9.11429501,-3.76757002,-0.457839841,2.5020367,6.47890465,4.11610508,9.058175,0.478712772,0.140643614,-2.45880467,2026-02-15T09:35:04.810Z
1523.460815,2685.41562,0.889999986,7.02697754,-0.531674922,10.1184263,0.308426082,3.93131089,1.56288069,7.54782874,84.2885734,1.09939569,21,1771148104818643,-21.1434035,1.02531684,0.996104019,85.5435333,49.1841087,-0.344090505,1174,31,9.10398197,-3.82148552,-0.46674973,2.72014906,6.50699626,4.2640295,9.33584732,0.478067733,0.140966134,-2.44921745,2026-02-15T09:35:04.818Z
1523.470825,2685.42514,0.889999986,5.41202784,-0.990221024,10.1270485,0.317047864,3.93377805,1.58049126,7.60344138,84.6396953,1.10092113,21,1771148104827151,-19.7489116,0.522032597,1.31567276,85.9621658,49.1841087,-0.344090317,1174,31,9.09366894,-3.87540126,-0.474481331,2.92441789,6.53512862,4.4119544,9.5603692,0.477422693,0.141288653,-2.43767139,2026-02-15T09:35:04.827Z
1523.480835,2685.43465,0.889999986,3.81980777,-0.710987329,10.1205111,0.310510844,3.9362452,1.59810184,7.65905402,84.9908172,1.10244656,21,1771148104835657,-18.0064939,-0.888148503,1.69525794,86.3807983,49.1841087,-0.34409013,1174,31,9.08335495,-3.92931676,-0.472659368,3.11301919,6.56330153,4.55988026,9.72484633,0.476777654,0.141611173,-2.42263327,2026-02-15T09:35:04.835Z
1523.490845,2685.4442,0.889999986,2.28916597,-0.761373222,9.82694721,0.0169467181,3.93872118,1.61571241,7.71466667,85.3419391,1.103972,21,1771148104844196,-16.1510591,-2.58141053,1.9359853,86.8009491,49.1841087,-0.344089941,1174,31,9.07304192,-3.98323226,-0.455336731,3.28364937,6.5916162,4.70834112,9.83069509,0.476132615,0.141933693,-2.40449594,2026-02-15T09:35:04.844Z
1523.500854,2685.4538,0.889999986,1.26287806,-0.429620683,9.31676483,-0.493235141,3.94120955,1.63332298,7.77027931,85.693061,1.10549744,21,1771148104852776,-14.9418333,-3.96524468,2.00313653,87.2231674,49.1841087,-0.344089752,1174,31,9.06272888,-4.037148,-0.422642134,3.43896807,6.62011042,4.85753393,9.88070172,0.475487575,0.142256212,-2.38481987,2026-02-15T09:35:04.852Z
1523.510864,2685.46332,0.889999986,0.871299028,0.102905452,8.67463589,-1.13536453,3.94367671,1.65093356,7.82589195,86.0441829,1.10702288,21,1771148104861283,-16.5092073,-4.66023173,2.31644582,87.6418076,49.1841087,-0.344089565,1174,31,9.05241585,-4.0910635,-0.379560042,3.5960626,6.64840129,5.00545835,9.89356012,0.474842536,0.142578732,-2.36324448,2026-02-15T09:35:04.861Z
1523.520874,2685.47283,0.889999986,0.866349339,-0.557820737,8.26617336,-1.54382694,3.94614363,1.66854413,7.88150459,86.3953048,1.10854832,21,1771148104869791,-20.9382291,-4.93643675,3.11817735,88.0604324,49.1841087,-0.344089377,1174,31,9.04210281,-4.144979,-0.331622166,3.78313872,6.67673051,5.15338326,9.89247636,0.474197497,0.142901252,-2.33609396,2026-02-15T09:35:04.869Z
1523.530884,2685.48235,0.889999986,1.07381308,-1.04635084,8.50449944,-1.30550075,3.94861078,1.68615471,7.93711723,86.7464267,1.11007376,21,1771148104878298,-24.1890716,-5.10882756,3.85060992,88.4790649,49.1841087,-0.344089189,1174,31,9.03178883,-4.1988945,-0.281444007,4.0085709,6.70509757,5.30130768,9.89150842,0.473552457,0.143223771,-2.30128045,2026-02-15T09:35:04.878Z
1523.540894,2685.49186,0.889999986,1.4693501,-0.901745141,8.69027519,-1.11972547,3.9510777,1.70376528,7.99272988,87.0975486,1.1115992,21,1771148104886805,-25.6511129,-5.48734095,4.30392309,88.8977051,49.1841087,-0.344089002,1174,31,9.02147579,-4.25281,-0.22851301,4.25753577,6.73350202,5.44923258,9.89829494,0.472907418,0.143546291,-2.26054537,2026-02-15T09:35:04.886Z
1523.550903,2685.50138,0.889999986,2.16962123,-0.86126101,8.75273514,-1.05726528,3.95354247,1.72137585,8.04834252,87.4486705,1.11312464,21,1771148104895263,-28.2577091,-6.73634715,4.85906961,89.2955322,49.1841087,-0.344088813,1174,31,9.01116276,-4.30672598,-0.167448116,4.52682958,6.76194342,5.59746361,9.91952285,0.472262379,0.143868811,-2.21477241,2026-02-15T09:35:04.895Z
1523.560913,2685.51089,0.889999986,3.26500726,-1.51278198,7.66031599,-2.14968443,3.95598459,1.73898643,8.10395516,87.7997924,1.11465008,21,1771148104903223,-32.9807946,-9.47744723,5.72804034,89.477417,49.1841087,-0.344088616,1174,31,9.00084972,-4.36064148,-0.0864449125,4.83274632,6.79042134,5.74887323,9.96600792,0.471617339,0.14419133,-2.16188429,2026-02-15T09:35:04.903Z
1523.570923,2685.52041,0.889999986,3.91247964,-1.95371628,7.98347044,-1.82653022,3.95838571,1.756597,8.1595678,88.1509143,1.11617552,21,1771148104910288,-37.1921714,-11.6954341,6.35945667,89.2747116,49.1841087,-0.344088404,1174,31,8.99053669,-4.41455698,0.0193268999,5.18328916,6.81893536,5.90594435,10.0517084,0.4709723,0.14451385,-2.10150273,2026-02-15T09:35:04.910Z
1523.580811,2685.52992,0.889999986,3.31295156,-1.82888925,8.13283443,-1.67716551,3.96078658,1.77420757,8.21518044,88.5020362,1.11770096,21,1771148104917349,-39.5267659,-11.8144352,6.78149825,89.0701218,49.1841087,-0.344088191,1174,31,8.9802227,-4.46847248,0.13819563,5.57118221,6.84748496,6.06304359,10.1613298,0.47032726,0.14483637,-2.03506185,2026-02-15T09:35:04.917Z
1523.590820,2685.53944,0.889999986,2.29983115,-2.74118662,8.60456085,-1.20543921,3.96318722,1.79181815,8.27079309,88.8531581,1.1192264,21,1771148104924410,-41.4389151,-11.4963804,7.3376664,88.8655243,49.1841087,-0.344087979,1174,31,8.96990967,-4.52238798,0.254637533,5.9756063,6.87606994,6.22014236,10.2474096,0.469682221,0.145158889,-1.96453759,2026-02-15T09:35:04.924Z
1523.600830,2685.54895,0.889999986,1.73907626,-3.80111742,9.147542,-0.662458658,3.96558809,1.80942872,8.32640573,89.20428,1.12075184,21,1771148104931472,-40.5128218,-11.1447595,7.85937183,88.6609192,49.1841087,-0.344087766,1174,31,8.95959663,-4.57630348,0.367734487,6.38496955,6.90468985,6.37724161,10.2964621,0.469037182,0.145481409,-1.88862906,2026-02-15T09:35:04.931Z
1523.610840,2685.55847,0.889999986,1.47431171,-4.23330069,9.45278549,-0.357215047,3.96798897,1.82703929,8.38201837,89.5554019,1.12227728,21,1771148104938533,-35.0587791,-10.654527,8.34537763,88.4563217,49.1841087,-0.344087553,1174,31,8.9492836,-4.63021946,0.476626966,6.76248533,6.93334457,6.53434181,10.3251324,0.468392142,0.145803929,-1.80768672,2026-02-15T09:35:04.938Z
1523.620850,2685.56802,0.889999986,1.25114846,-3.27500939,9.77520657,-0.0347937495,3.97039866,1.84464987,8.43763101,89.9065238,1.12380272,21,1771148104945620,-26.8210141,-10.3668257,8.76292715,88.2509842,49.1841087,-0.34408734,1174,31,8.93897057,-4.68413496,0.581632591,7.07162252,6.96213719,6.69200945,10.3442788,0.467747103,0.146126449,-1.72223069,2026-02-15T09:35:04.945Z
1523.630859,2685.57762,0.889999986,1.19393325,-1.63920069,9.26670933,-0.543291211,3.97282004,1.86226044,8.49324365,90.2576457,1.12532816,21,1771148104952742,-19.4508752,-10.3979473,9.14329964,88.044632,49.1841087,-0.344087126,1174,31,8.92865658,-4.73805046,0.685355012,7.30279219,6.99110642,6.85045671,10.3554897,0.467102064,0.146448968,-1.63278875,2026-02-15T09:35:04.952Z
1523.640869,2685.58713,0.889999986,1.46322966,-0.235880613,9.20878887,-0.601211369,3.97522092,1.87987101,8.5488563,90.6087676,1.1268536,21,1771148104959803,-16.5403511,-10.260418,9.66141783,87.8400345,49.1841087,-0.344086913,1174,31,8.91834354,-4.79196596,0.788546031,7.48257202,7.01986291,7.00755596,10.3648137,0.466457024,0.146771488,-1.53885677,2026-02-15T09:35:04.959Z
1523.650879,2685.59665,0.889999986,1.93909681,0.616752744,9.15208435,-0.657916427,3.97762156,1.89748159,8.60446894,90.9598895,1.12837904,21,1771148104966865,-18.4788469,-9.80632344,10.2527097,87.635437,49.1841087,-0.344086701,1174,31,8.90803051,-4.84588146,0.888779638,7.65750665,7.04865265,7.16465473,10.3840217,0.465811985,0.147094008,-1.43938039,2026-02-15T09:35:04.966Z
1523.660889,2685.60616,0.889999986,2.26555896,0.898131251,9.10102654,-0.708973825,3.98002243,1.91509216,8.66008158,91.3110114,1.12990447,21,1771148104973926,-23.8686854,-9.3124601,10.7742097,87.4308319,49.1841087,-0.344086488,1174,31,8.89771748,-4.89979696,0.98427789,7.86906401,7.07747531,7.3217535,10.4204399,0.465166945,0.147416527,-1.33434583,2026-02-15T09:35:04.973Z
1523.670898,2685.61568,0.889999986,2.1774013,0.804518342,9.01713276,-0.792867482,3.98242331,1.93270273,8.71569422,91.6621333,1.13142991,21,1771148104980987,-31.0216814,-8.85643325,11.1920558,87.2262344,49.1841087,-0.344086276,1174,31,8.88740444,-4.95371294,1.07503152,8.14328285,7.10633063,7.47885323,10.4685234,0.464521906,0.147739047,-1.22461963,2026-02-15T09:35:04.980Z
1523.680908,2685.62519,0.889999986,2.0955286,-0.576621592,8.98427868,-0.825721323,3.98482418,1.95031331,8.77130687,92.0132552,1.13295535,21,1771148104988048,-37.7726778,-8.53308953,11.5040882,87.0216446,49.1841087,-0.344086063,1174,31,8.87709045,-5.00762844,1.16189274,8.48695175,7.13521834,7.635952,10.5132443,0.463876867,0.148061567,-1.11124811,2026-02-15T09:35:04.988Z
1523.690918,2685.63471,0.889999986,2.37681389,-2.9309721,8.91618443,-0.893815815,3.98722506,1.96792388,8.82691951,92.3643771,1.13448079,21,1771148104995110,-40.7015975,-8.42330689,11.6789596,86.8170471,49.1841087,-0.344085851,1174,31,8.86677742,-5.06154394,1.24659149,8.87895432,7.16413818,7.79305077,10.5548624,0.463231827,0.148384086,-0.995445119,2026-02-15T09:35:04.995Z
1523.700806,2685.64976,0.889999986,2.87455463,-5.24283743,8.63481236,-1.17518818,3.98883677,1.98553445,8.88253215,92.715499,1.13600623,21,1771148105004091,-35.6912225,-8.00344165,11.6430336,86.7681656,49.1841087,-0.344085577,1174,31,8.85646439,-5.11545944,1.3296466,9.26520124,7.19308983,7.91352081,10.6072035,0.462586788,0.148706606,-0.877526735,2026-02-15T09:35:05.004Z
1523.710815,2685.67802,0.889999986,2.84267306,-5.46160555,7.88940191,-1.92059839,3.98856688,2.00314503,8.93814479,93.0666209,1.13753167,21,1771148105017655,-13.6753007,-5.60282948,11.2342725,87.0906982,49.1841087,-0.344085156,1174,31,8.84615135,-5.16937494,1.39762312,9.51189919,7.22207323,7.94662285,10.6764801,0.461941749,0.149029126,-0.763249824,2026-02-15T09:35:05.017Z
1523.720825,2685.7068,0.889999986,2.18556333,-3.29816365,7.25222826,-2.5577724,3.98822331,2.0207556,8.99375743,93.4177427,1.13905711,21,1771148105031398,12.7026238,-2.10506012,10.8972815,87.4277496,49.1841087,-0.34408473,1174,31,8.83583832,-5.22329044,1.43614194,9.516886,7.25108812,7.97630787,10.7442294,0.461296709,0.149351645,-0.652698361,2026-02-15T09:35:05.031Z
1523.730835,2685.73558,0.889999986,1.4847672,-1.75237346,7.77251196,-2.0374887,3.98787975,2.03836617,9.04937008,93.7688646,1.14058255,21,1771148105045142,25.8419246,0.407587842,11.0927689,87.7648087,49.1841087,-0.344084304,1174,31,8.82552433,-5.27720642,1.44463322,9.32441513,7.2801346,8.00599289,10.7879603,0.46065167,0.149674165,-0.542856324,2026-02-15T09:35:05.045Z
1523.740845,2685.76446,0.889999986,0.404289246,-0.975913405,8.41501617,-1.3949846,3.98753476,2.05597675,9.10498272,94.1199865,1.14210799,21,1771148105058934,34.4500631,2.35652396,11.3392177,88.1030884,49.1841087,-0.344083877,1174,31,8.8152113,-5.33112192,1.43083563,9.02329119,7.30931732,8.03578663,10.8063535,0.46000663,0.149996685,-0.430807019,2026-02-15T09:35:05.058Z
1523.750854,2685.79349,0.889999986,-0.47124958,-0.19688049,8.62303352,-1.18696666,3.98718834,2.03803025,9.06077198,94.3475976,1.14442625,21,1771148105072796,39.8272081,3.60355358,11.2791371,88.4430313,49.1841087,-0.344083447,1174,31,8.78913307,-5.32188845,1.40107039,8.65229337,7.33867545,8.06572628,10.7859877,0.458232441,0.15,-0.317825287,2026-02-15T09:35:05.072Z
1523.760864,2685.82226,0.889999986,-0.836708248,0.190429822,9.25785732,-0.552142918,3.98684478,2.01971445,9.01552448,94.5739259,1.14675274,21,1771148105086539,42.766248,4.38487951,11.0271767,88.7800903,49.1841087,-0.344083021,1174,31,8.76289177,-5.31199884,1.36117081,8.23974258,7.36781491,8.09541035,10.7346115,0.456446524,0.15,-0.206401364,2026-02-15T09:35:05.086Z
1523.770874,2685.85104,0.889999986,-0.966181159,0.0598793626,9.67260551,-0.137394607,3.98650098,2.00139865,8.97027698,94.8002542,1.14907923,21,1771148105100282,44.3653753,4.82234033,10.747871,89.1171417,49.1841087,-0.344082595,1174,31,8.73664951,-5.30210972,1.31517749,7.80450169,7.3969851,8.12509537,10.6708843,0.454660608,0.15,-0.0976337075,2026-02-15T09:35:05.100Z
1523.780884,2685.87982,0.889999986,-0.972175479,-0.156069741,9.61994171,-0.1900585,3.98615766,1.98308286,8.92502948,95.0265825,1.15140572,21,1771148105114025,45.8203984,5.09931697,10.2967488,89.4542007,49.1841087,-0.344082169,1174,31,8.71040821,-5.29222059,1.26561625,7.35400567,7.42618587,8.15478039,10.6034287,0.452874691,0.15,0.00748453705,2026-02-15T09:35:05.114Z
1523.790894,2685.9086,0.889999986,-1.28573489,-0.175314799,9.84574223,0.035741467,3.98581386,1.96476706,8.87978198,95.2529108,1.15373221,21,1771148105127768,47.6931339,5.67611482,9.66849234,89.7912521,49.1841087,-0.344081743,1174,31,8.68416691,-5.28233099,1.21178885,6.88688507,7.45541712,8.18446541,10.5367231,0.451088774,0.15,0.107210295,2026-02-15T09:35:05.127Z
1523.800903,2685.93738,0.889999986,-2.05629587,0.106809683,9.71879578,-0.0912049711,3.98547053,1.94645127,8.83453449,95.4792391,1.1560587,21,1771148105141512,49.4394986,6.70857461,8.9646566,90.1283035,49.1841087,-0.344081318,1174,31,8.65792465,-5.27244186,1.14992079,6.40168726,7.48467879,8.21415043,10.4596988,0.449302857,0.15,0.200281731,2026-02-15T09:35:05.141Z
1523.810913,2685.96615,0.889999986,-2.56907272,0.375871509,9.44050503,-0.369495124,3.98512673,1.92813547,8.78928699,95.7055674,1.15838519,21,1771148105155254,50.2929079,8.06367445,8.32434962,90.4653625,49.1841087,-0.344080892,1174,31,8.63168335,-5.26255274,1.07612504,5.90350763,7.51397078,8.24383545,10.3560233,0.447516941,0.15,0.286639329,2026-02-15T09:35:05.155Z
1523.820923,2685.99493,0.889999986,-2.51860595,0.496333599,9.75157452,-0.0584262908,3.98478317,1.90981967,8.74403949,95.9318957,1.16071168,21,1771148105168998,50.4511485,9.56470333,7.72755776,90.8024216,49.1841087,-0.344080466,1174,31,8.60544109,-5.25266314,0.988061885,5.40027805,7.54329306,8.27352047,10.2352342,0.445731024,0.15,0.366817684,2026-02-15T09:35:05.168Z
1523.830811,2686.02371,0.889999986,-2.5982883,0.441881031,9.99510288,0.185102448,3.9844389,1.89150388,8.69879199,96.158224,1.16303817,21,1771148105182737,50.7440795,10.893109,7.05076243,91.1393661,49.1841087,-0.34408004,1174,31,8.57919979,-5.24277401,0.884628363,4.8886259,7.57264549,8.30322361,10.1163194,0.443945107,0.15,0.441540255,2026-02-15T09:35:05.182Z
1523.840820,2686.05249,0.889999986,-3.6756556,0.40652746,10.3284836,0.518482864,3.98395324,1.87318808,8.65354449,96.3845523,1.16536466,21,1771148105195840,50.9496506,11.2982598,5.90137371,91.4539185,49.1841087,-0.34407963,1174,31,8.55295753,-5.23288441,0.77378177,4.38065434,7.60202819,8.33623791,9.99749658,0.442159191,0.15,0.506243299,2026-02-15T09:35:05.195Z
1523.850830,2686.08127,0.889999986,-5.08702612,0.64698863,11.3433685,1.53336787,3.98293972,1.85487229,8.60829699,96.6108806,1.16769115,21,1771148105206566,50.3386272,10.7447837,4.42297815,91.6849899,49.1841087,-0.344079283,1174,31,8.52671623,-5.22299528,0.663671417,3.87470412,7.6314411,8.38161087,9.84141851,0.440373274,0.15,0.557821874,2026-02-15T09:35:05.206Z
1523.860840,2686.11004,0.889999986,-5.3304038,0.447077066,12.0979538,2.28795362,3.98146749,1.83655649,8.56304949,96.8372089,1.17001764,21,1771148105215227,48.7041614,9.62008279,3.43906006,91.8434677,49.1841087,-0.344078988,1174,31,8.50047398,-5.21310616,0.561940967,3.3799654,7.66088446,8.43773079,9.63639233,0.438587357,0.15,0.597098494,2026-02-15T09:35:05.215Z
1523.870850,2686.13893,0.889999986,-4.80191231,0.668628752,11.418684,1.60868323,3.97999001,1.81824069,8.517802,97.0635372,1.17234414,21,1771148105223918,45.9167512,8.43424703,2.59323184,92.0025253,49.1841087,-0.344078693,1174,31,8.47423267,-5.20321655,0.471751609,2.90730887,7.69046456,8.49405193,9.42492839,0.43680144,0.15,0.627234647,2026-02-15T09:35:05.223Z
1523.880859,2686.16795,0.889999986,-2.95210862,0.854087889,10.667613,0.85761261,3.97850513,1.7999249,8.4725545,97.2898655,1.17467063,21,1771148105232653,41.2948534,7.97222551,2.11749415,92.1623688,49.1841087,-0.344078396,1174,31,8.44799137,-5.19332743,0.389797021,2.47165375,7.72022147,8.5506525,9.23483339,0.435015524,0.15,0.650767616,2026-02-15T09:35:05.232Z
1523.890869,2686.19673,0.889999986,-1.11795628,1.08334029,10.8695021,1.05950189,3.9770329,1.7816091,8.427307,97.5161938,1.17699712,21,1771148105241313,35.255499,8.67912009,1.77011231,92.3208389,49.1841087,-0.344078102,1174,31,8.42174911,-5.1834383,0.306621341,2.08927693,7.74975566,8.60677147,9.11349858,0.433229607,0.15,0.670186597,2026-02-15T09:35:05.241Z
1523.900879,2686.22551,0.889999986,0.510400593,0.885430396,11.0773659,1.26736569,3.97556067,1.76329331,8.3820595,97.7425221,1.17932361,21,1771148105249974,28.6069287,10.0168427,1.56514619,92.4793167,49.1841087,-0.344077808,1174,31,8.39550781,-5.1735487,0.213226205,1.77030872,7.77932018,8.66288948,9.05966727,0.43144369,0.15,0.686845622,2026-02-15T09:35:05.249Z
1523.910889,2686.25428,0.889999986,1.49215484,0.217423141,11.1809816,1.37098157,3.97408843,1.74497751,8.336812,97.9688504,1.1816501,21,1771148105258634,22.9072447,11.2647742,1.26754605,92.6377945,49.1841087,-0.344077514,1174,31,8.36926556,-5.16365957,0.106915865,1.51301685,7.80891506,8.71900845,9.06523269,0.429657773,0.15,0.700993816,2026-02-15T09:35:05.258Z
1523.920898,2686.28306,0.889999986,2.24999452,-0.4844096,12.3364506,2.52644992,3.9726162,1.72666171,8.2915645,98.1951787,1.18397659,21,1771148105267295,19.2160745,11.4102255,1.08193074,92.7962723,49.1841087,-0.344077219,1174,31,8.34302425,-5.15377045,-0.00634920336,1.3026236,7.83854036,8.77512836,9.10634685,0.427871857,0.15,0.712728841,2026-02-15T09:35:05.267Z
1523.930908,2686.31184,0.889999986,3.77010751,-0.668416381,12.8407631,3.03076291,3.97114372,1.70834592,8.246317,98.421507,1.18630308,21,1771148105275954,18.2631207,10.4356208,0.795850075,92.9547501,49.1841087,-0.344076925,1174,31,8.316782,-5.14388084,-0.115467111,1.11541497,7.86819616,8.83124733,9.17460185,0.42608594,0.15,0.722107196,2026-02-15T09:35:05.275Z
1523.940918,2686.34062,0.889999986,5.37519217,-0.16624248,11.6559849,1.84598494,3.96967149,1.69003012,8.2010695,98.6478353,1.18862957,21,1771148105284615,18.5636162,8.86515768,0.451850555,93.1132278,49.1841087,-0.344076631,1174,31,8.2905407,-5.13399172,-0.211869234,0.931459426,7.89788255,8.88736534,9.29714176,0.424300023,0.15,0.728337947,2026-02-15T09:35:05.284Z
1523.950806,2686.3694,0.889999986,4.97172785,0.351650327,11.5472364,1.7372365,3.96819973,1.67171433,8.15582201,98.8741636,1.19095606,21,1771148105293279,17.5425538,7.25062442,-0.00976829228,93.2711105,49.1841087,-0.344076337,1174,31,8.26429844,-5.12410212,-0.293348609,0.748903672,7.92759951,8.94312096,9.47857898,0.422514107,0.15,0.730572131,2026-02-15T09:35:05.293Z
1523.960815,2686.39817,0.889999986,4.45933199,1.93853247,11.6862564,1.87625599,3.96679926,1.65339853,8.11057451,99.1004918,1.19328255,21,1771148105302528,12.8711236,6.08768846,-0.250765719,93.3262863,49.1841087,-0.344076043,1174,31,8.23805714,-5.11421299,-0.359980753,0.596961353,7.9573473,8.93619061,9.64191107,0.42072819,0.15,0.729271906,2026-02-15T09:35:05.302Z
1523.970825,2686.42695,0.889999986,3.67149997,1.26974261,9.95950508,0.149504423,3.96557903,1.63508274,8.06532701,99.3268201,1.19560904,21,1771148105313248,2.39798224,5.49170394,-0.284029637,93.123085,49.1841087,-0.344075751,1174,31,8.21181583,-5.10432386,-0.417824102,0.52063979,7.98712595,8.77156067,9.78548992,0.418942273,0.15,0.726600694,2026-02-15T09:35:05.313Z
1523.980835,2686.45573,0.889999986,3.2384584,1.56957448,10.6422338,0.832233846,3.96438026,1.61676694,8.02007951,99.5531484,1.19793553,21,1771148105324145,-12.6629537,4.55232828,-0.457262589,92.8887939,49.1841087,-0.344075458,1174,31,8.18557358,-5.09443426,-0.467999807,0.571841202,8.01693588,8.58795738,9.89958496,0.417156356,0.15,0.722898693,2026-02-15T09:35:05.324Z
1523.990845,2686.48461,0.889999986,3.82115984,-0.272283852,11.2051468,1.39514649,3.9631772,1.59845114,7.97483201,99.7794767,1.20026202,21,1771148105335083,-16.0122069,3.01276733,-0.491516418,92.653656,49.1841087,-0.344075165,1174,31,8.15933228,-5.08454514,-0.505795872,0.715060719,8.04688478,8.40369129,9.9972278,0.41537044,0.15,0.718159581,2026-02-15T09:35:05.335Z
1524.000854,2686.51364,0.889999986,3.92017579,-2.51363182,10.3933249,0.58332473,3.96196842,1.58013535,7.92958451,100.005805,1.20258851,21,1771148105346073,-12.2993179,1.98260852,-1.12141804,92.417366,49.1841087,-0.34407487,1174,31,8.13309002,-5.07465601,-0.530753408,0.856498262,8.0770131,8.2185173,10.1151683,0.413584523,0.15,0.710105843,2026-02-15T09:35:05.346Z
1524.010864,2686.54241,0.889999986,3.67468262,-2.33545375,11.0242262,1.21422601,3.96076965,1.56181955,7.88433701,100.232133,1.20491501,21,1771148105356970,-2.86006915,1.87607607,-1.84787028,92.1830826,49.1841087,-0.344074578,1174,31,8.10684872,-5.06476641,-0.550028501,0.932264911,8.10691671,8.03491688,10.2358046,0.411798606,0.15,0.695277246,2026-02-15T09:35:05.356Z
1524.020874,2686.57119,0.889999986,3.9964571,-3.38525534,9.98922729,0.179227173,3.95957088,1.54350376,7.83908952,100.458462,1.2072415,21,1771148105367868,9.26742703,1.54901503,-1.81889018,91.9487991,49.1841087,-0.344074285,1174,31,8.08060646,-5.05487728,-0.567135653,0.900200221,8.13685179,7.85131502,10.346696,0.41001269,0.15,0.676961471,2026-02-15T09:35:05.367Z
1524.030884,2686.59997,0.889999986,4.47672176,-2.94621253,9.22831059,-0.581689894,3.95837235,1.52518796,7.79384202,100.68479,1.20956799,21,1771148105378765,24.063777,1.9255497,-1.84833545,91.7145157,49.1841087,-0.344073993,1174,31,8.05436516,-5.04498768,-0.584493368,0.733634733,8.16681843,7.6677146,10.4683512,0.408226773,0.15,0.658643088,2026-02-15T09:35:05.378Z
1524.040894,2686.62875,0.889999986,4.33660221,-0.726999521,10.3693666,0.559365988,3.95717359,1.50687216,7.74859452,100.911118,1.21189448,21,1771148105389663,40.1050462,3.46053245,-2.39759211,91.4802322,49.1841087,-0.344073701,1174,31,8.0281229,-5.03509855,-0.611404986,0.413025671,8.19681676,7.48411417,10.606363,0.406440856,0.15,0.637431484,2026-02-15T09:35:05.389Z
1524.050903,2686.65753,0.889999986,4.30940771,1.41833115,10.6482859,0.838285208,3.95657158,1.48855637,7.70334702,101.137447,1.21422097,21,1771148105400564,52.0617986,4.37074699,-2.98091862,91.3124161,49.1841087,-0.344073396,1174,31,8.0018816,-5.02520943,-0.650527577,-0.0474168221,8.22684689,7.36324024,10.7382564,0.404654939,0.15,0.610562337,2026-02-15T09:35:05.400Z
1524.060913,2686.6863,0.889999986,4.09987164,3.32160401,10.1852303,0.375229955,3.95756245,1.47024057,7.65809952,101.363775,1.21654746,21,1771148105411473,55.5777623,4.3923398,-3.18277668,91.3220215,49.1841087,-0.344073056,1175,31,7.97563982,-5.01531982,-0.694300335,-0.585106248,8.25690896,7.4097743,10.8681542,0.402869023,0.15,0.579772965,2026-02-15T09:35:05.411Z
1524.070923,2686.71508,0.889999986,4.06352901,2.92165613,11.0819407,1.27194059,3.95908761,1.45192478,7.61285202,101.590103,1.21887395,21,1771148105422385,52.6232061,3.5079198,-3.33118287,91.391098,49.1841087,-0.344072705,1175,31,7.94939804,-5.0054307,-0.73375878,-1.1255687,8.28700306,7.51242304,10.9895186,0.401083106,0.15,0.547234228,2026-02-15T09:35:05.422Z
1524.080811,2686.74386,0.889999986,4.61914015,3.25490355,10.6344891,0.824488819,3.9606154,1.43360898,7.56760452,101.816431,1.22120044,21,1771148105433297,48.926668,2.25823642,-3.53488459,91.4604721,49.1841087,-0.344072354,1175,31,7.92315626,-4.99554157,-0.762916363,-1.63902409,8.31712923,7.615345,11.1102201,0.399297189,0.15,0.51251933,2026-02-15T09:35:05.433Z
1524.090820,2686.77264,0.889999986,5.04187107,2.32520151,9.78691196,-0.0230882857,3.96214318,1.41529318,7.52235703,102.04276,1.22352693,21,1771148105444209,47.5342792,1.28394983,-3.92791826,91.5298309,49.1841087,-0.344072002,1175,31,7.89691448,-4.98565197,-0.780614756,-2.1208651,8.34728773,7.71826696,11.2484294,0.397511273,0.15,0.475243617,2026-02-15T09:35:05.444Z
1524.100830,2686.80142,0.889999986,4.62466431,2.57562733,9.05529118,-0.754709542,3.96367073,1.39697739,7.47710953,102.269088,1.22585342,21,1771148105455121,47.9876883,0.98874807,-4.40784114,91.5991974,49.1841087,-0.344071651,1175,31,7.8706727,-4.97576284,-0.791968591,-2.59800674,8.3774786,7.82118893,11.4007922,0.395725356,0.15,0.433607812,2026-02-15T09:35:05.455Z
1524.110840,2686.83019,0.889999986,3.37254643,2.88655353,9.91733837,0.107337795,3.96519852,1.37866159,7.43186203,102.495416,1.22817991,21,1771148105466033,47.2747548,0.746686833,-4.73219461,91.6685638,49.1841087,-0.3440713,1175,31,7.84443092,-4.96587372,-0.800638465,-3.07385768,8.4077022,7.92411184,11.536959,0.393939439,0.15,0.387953796,2026-02-15T09:35:05.466Z
1524.120850,2686.85908,0.889999986,2.07820964,1.98120296,9.62266254,-0.187337905,3.96673155,1.3603458,7.38661453,102.721745,1.2305064,21,1771148105476984,45.0769033,0.0862168653,-4.94769633,91.7381821,49.1841087,-0.344070948,1175,31,7.81818962,-4.95598412,-0.804802127,-3.53517616,8.43806771,8.02740669,11.6270362,0.392153522,0.15,0.339602602,2026-02-15T09:35:05.476Z
1524.130859,2686.8881,0.889999986,1.66147172,2.22753048,10.5882244,0.778223813,3.96827245,1.34203,7.34136703,102.948073,1.23283289,21,1771148105487991,42.2495934,-1.00974179,-5.67520619,91.8081284,49.1841087,-0.344070593,1175,31,7.79194784,-4.94609499,-0.800194346,-3.97139643,8.46861636,8.13122463,11.6699349,0.390367606,0.15,0.286543456,2026-02-15T09:35:05.487Z
1524.140869,2686.91688,0.889999986,2.15584612,3.00702429,9.4796896,-0.330310881,3.96982241,1.3237142,7.29611953,103.174401,1.23515938,21,1771148105498925,37.948825,-2.61107482,-5.98251208,91.853241,49.1841087,-0.344070225,1175,31,7.76570606,-4.93620539,-0.782107521,-4.37199623,8.49893799,8.2635355,11.6976994,0.388581689,0.15,0.228311653,2026-02-15T09:35:05.498Z
1524.150879,2686.94566,0.889999986,2.29652143,2.43165588,9.80704784,-0.0029522425,3.97144008,1.30539841,7.25087203,103.400729,1.23748588,21,1771148105509929,30.0903933,-4.51634915,-6.13145434,91.8244171,49.1841087,-0.344069804,1175,31,7.73946428,-4.92631626,-0.746495884,-4.71182211,8.52929239,8.48543644,11.7432777,0.386795772,0.15,0.167800189,2026-02-15T09:35:05.509Z
1524.160889,2686.97443,0.889999986,2.51920748,1.07983601,9.87626839,0.06626793,3.97309661,1.28708261,7.20562454,103.627058,1.23981237,21,1771148105520973,23.7518683,-5.8665272,-6.36469351,91.7530289,49.1841087,-0.344069353,1175,31,7.7132225,-4.91642714,-0.694625591,-4.98073996,8.55967959,8.75891113,11.7937633,0.385009855,0.15,0.105379271,2026-02-15T09:35:05.520Z
1524.170898,2687.00321,0.889999986,2.40652752,1.10453618,9.25908661,-0.550913393,3.97475314,1.26876682,7.16037704,103.853386,1.24213886,21,1771148105532019,22.039334,-6.34939677,-6.87915667,91.6815872,49.1841087,-0.344068902,1175,31,7.68698072,-4.90653753,-0.633603238,-5.2094644,8.59009961,9.03246307,11.852057,0.383223939,0.15,0.0392221202,2026-02-15T09:35:05.532Z
1524.180908,2687.03199,0.889999986,2.12993693,0.27841258,9.45119858,-0.35880214,3.97640991,1.25045102,7.11512954,104.079714,1.24446535,21,1771148105543063,21.2200804,-5.81461276,-7.48063879,91.6101379,49.1841087,-0.344068451,1175,31,7.66073895,-4.89664841,-0.572845152,-5.42554651,8.62055247,9.30601501,11.9060197,0.381438022,0.15,-0.0325097261,2026-02-15T09:35:05.543Z
1524.190918,2687.06077,0.889999986,1.86710632,0.376386225,9.55717754,-0.252823293,3.97806668,1.23213522,7.06988204,104.306043,1.24679184,21,1771148105554107,21.7873997,-4.93938594,-8.18825938,91.5386963,49.1841087,-0.344068,1175,31,7.63449717,-4.88675928,-0.519131864,-5.64037693,8.65103815,9.57956505,11.9498001,0.379652105,0.15,-0.110781209,2026-02-15T09:35:05.554Z
1524.200806,2687.08955,0.889999986,1.4400723,1.63029468,9.37053871,-0.439461946,3.97972345,1.21381943,7.02463454,104.532371,1.24911833,21,1771148105565152,23.516608,-4.22865589,-8.87089674,91.4672394,49.1841087,-0.34406755,1175,31,7.60825539,-4.87686968,-0.472779076,-5.86944231,8.68155654,9.85311604,11.9843223,0.377866189,0.15,-0.197035478,2026-02-15T09:35:05.565Z
1524.210815,2687.11832,0.889999986,1.34931755,2.55533481,9.77088833,-0.0391117223,3.98137999,1.19550363,6.97938704,104.758699,1.25144482,21,1771148105576196,23.6411187,-3.98868653,-9.4208995,91.3957977,49.1841087,-0.344067099,1175,31,7.58201361,-4.86698055,-0.431731247,-6.10500013,8.71210774,10.126668,12.003122,0.376080272,0.15,-0.288402569,2026-02-15T09:35:05.576Z
1524.220825,2687.1471,0.889999986,1.42449546,3.36715031,9.61286259,-0.197137952,3.9830358,1.17718784,6.93413954,104.985028,1.25377131,21,1771148105587242,20.2385,-4.63799855,-9.85257711,91.3242493,49.1841087,-0.344066648,1175,31,7.5557723,-4.85709095,-0.388643036,-6.32420053,8.74269164,10.4000597,12.0187692,0.374294355,0.15,-0.38467384,2026-02-15T09:35:05.587Z
1524.230835,2687.17588,0.889999986,1.2892127,3.31876087,8.88672161,-0.923279226,3.98442006,1.15887204,6.88889205,105.211356,1.2560978,21,1771148105598388,13.7133904,-5.54058071,-10.1401434,91.2272797,49.1841087,-0.344066192,1175,31,7.52953053,-4.84720182,-0.337804178,-6.49382599,8.77330845,10.6320658,12.0372768,0.372508438,0.15,-0.484538528,2026-02-15T09:35:05.598Z
1524.240845,2687.20476,0.889999986,1.07237875,3.03853989,8.5064373,-1.30356324,3.98490405,1.14055625,6.84364455,105.437684,1.25842429,21,1771148105609913,6.44664282,-6.1183131,-10.6389192,91.0451279,49.1841087,-0.344065719,1175,31,7.50328875,-4.8373127,-0.279569391,-6.59456312,8.80406854,10.7268152,12.0510427,0.370722522,0.15,-0.588330055,2026-02-15T09:35:05.609Z
1524.250854,2687.23379,0.889999986,0.666464567,3.11079907,8.68143082,-1.12856972,3.98478603,1.12224045,6.79839705,105.664012,1.26075078,21,1771148105621722,-1.12972233,-6.55204524,-11.0888926,90.8054199,49.1841087,-0.344065233,1175,31,7.47704697,-4.8274231,-0.216281518,-6.62115866,8.83501321,10.7297907,12.0571867,0.368936605,0.15,-0.696860933,2026-02-15T09:35:05.621Z
1524.260864,2687.26256,0.889999986,0.479150236,2.29650474,8.7644558,-1.04554486,3.98466897,1.10392465,6.75314955,105.890341,1.26307727,21,1771148105633430,-9.75584652,-6.99078348,-11.3783092,90.567749,49.1841087,-0.344064752,1175,31,7.45080519,-4.81753397,-0.148635466,-6.56682382,8.86572708,10.7327414,12.0489717,0.367150688,0.15,-0.809086007,2026-02-15T09:35:05.633Z
1524.270874,2687.29134,0.889999986,-0.0735959858,0.429264426,8.87831497,-0.93168509,3.98455167,1.08560886,6.70790205,106.116669,1.26540376,21,1771148105645139,-18.3375657,-7.06057953,-11.7467077,90.3300781,49.1841087,-0.34406427,1175,31,7.42456341,-4.80764484,-0.0784468542,-6.42645194,8.89647295,10.735692,12.0344029,0.365364772,0.15,-0.924600083,2026-02-15T09:35:05.645Z
1524.280884,2687.32012,0.889999986,-1.17687273,-0.754738867,9.0187664,-0.791234434,3.98443484,1.06729306,6.66265455,106.342997,1.26773025,21,1771148105656846,-24.8268535,-6.4350846,-12.3349144,90.0924072,49.1841087,-0.344063789,1175,31,7.39832163,-4.79775524,-0.011037418,-6.21080883,8.92725058,10.7386427,12.0004074,0.363578855,0.15,-1.04489359,2026-02-15T09:35:05.656Z
1524.290894,2687.3489,0.889999986,-1.71229827,-0.58190608,8.78734684,-1.02265322,3.98431754,1.04897727,6.61740705,106.569326,1.27005675,21,1771148105668555,-25.6147201,-5.83064576,-12.7366159,89.8547363,49.1841087,-0.344063307,1175,31,7.37207985,-4.78786612,0.0502284646,-5.9588433,8.95805973,10.7415924,11.9273798,0.361792938,0.15,-1.17013089,2026-02-15T09:35:05.668Z
1524.300903,2687.37768,0.889999986,-2.0457077,-1.05908537,8.92332172,-0.886678755,3.98420072,1.03066147,6.57215955,106.795654,1.27238324,21,1771148105680263,-26.2570182,-5.22848108,-12.9472061,89.6170578,49.1841087,-0.344062826,1175,31,7.34583807,-4.77797699,0.105467232,-5.69973453,8.98890012,10.7445431,11.836133,0.360007021,0.15,-1.29842573,2026-02-15T09:35:05.680Z
1524.310913,2687.40645,0.889999986,-3.0235076,-1.71632361,8.24198723,-1.56801307,3.98408341,1.04928631,6.59660377,106.933938,1.27547186,21,1771148105691971,-26.1997435,-4.27406029,-12.8921428,89.3793945,49.1841087,-0.344062344,1175,31,7.36654234,-4.75573063,0.152928952,-5.43770691,9.01977146,10.7474937,11.7341149,0.360189763,0.150379525,-1.42749615,2026-02-15T09:35:05.691Z
1524.320923,2687.43523,0.889999986,-4.29817629,-2.14283872,8.57280064,-1.2371999,3.9839766,1.06805697,6.62132307,107.071874,1.27856349,21,1771148105702659,-25.2231769,-3.39913467,-12.8478607,89.1506424,49.1841087,-0.344061905,1175,31,7.38743162,-4.73343611,0.191253275,-5.18084792,9.05067344,10.751977,11.598258,0.360380274,0.150760549,-1.55607039,2026-02-15T09:35:05.702Z
1524.330811,2687.46401,0.889999986,-4.77324057,-3.59309793,7.2142334,-2.59576678,3.98389316,1.08682762,6.64604237,107.20981,1.28165512,21,1771148105711004,-21.6300241,-1.81349297,-12.5223225,88.9423523,49.1841087,-0.344061561,1175,31,7.40832138,-4.71114111,0.217613366,-4.94394257,9.08160563,10.7599764,11.4159435,0.360570786,0.151141572,-1.68434549,2026-02-15T09:35:05.711Z
1524.340820,2687.49279,0.889999986,-3.88761568,-4.50659943,7.20918608,-2.6008141,3.98381019,1.10559827,6.67076166,107.347746,1.28474676,21,1771148105719305,-15.805504,0.189099083,-12.1166008,88.7344742,49.1841087,-0.34406122,1175,31,7.42921066,-4.68884659,0.225737111,-4.75691949,9.11256784,10.7680435,11.2209209,0.360761298,0.151522595,-1.80742187,2026-02-15T09:35:05.719Z
1524.350830,2687.52157,0.889999986,-1.42739928,-5.35869646,8.09338284,-1.71661735,3.98372722,1.12436892,6.69548096,107.485682,1.28783839,21,1771148105727605,-7.29820381,1.82001287,-11.5094991,88.5265884,49.1841087,-0.344060879,1175,31,7.45010042,-4.66655159,0.215709265,-4.64147244,9.14355961,10.7761116,11.0599522,0.360951809,0.151903618,-1.92544005,2026-02-15T09:35:05.727Z
1524.360840,2687.55034,0.889999986,-0.5236727,-3.56430697,7.93764734,-1.87235296,3.98364425,1.14313957,6.72020026,107.623618,1.29093002,21,1771148105735905,1.15331212,3.09546267,-10.6927911,88.3187027,49.1841087,-0.344060537,1175,31,7.4709897,-4.64425707,0.191162093,-4.6107368,9.17458082,10.7841797,10.9894379,0.361142321,0.152284642,-2.03634716,2026-02-15T09:35:05.735Z
1524.370850,2687.57923,0.889999986,-1.49653137,-2.62553215,8.56752872,-1.24247169,3.9835608,1.16191022,6.74491955,107.761554,1.29402165,21,1771148105744235,4.32296311,2.83938466,-9.46859287,88.1100616,49.1841087,-0.344060195,1175,31,7.49187899,-4.62196207,0.161515584,-4.63807584,9.205743,10.7922764,10.9525067,0.361332832,0.152665665,-2.13706166,2026-02-15T09:35:05.744Z
1524.380859,2687.60825,0.889999986,-1.89809883,-1.10915637,9.09372044,-0.716280162,3.98347735,1.18068087,6.76963885,107.89949,1.29711328,21,1771148105752606,-7.06887314,0.915290126,-6.97391694,87.9003906,49.1841087,-0.344059851,1175,31,7.51276875,-4.59966755,0.142751143,-4.62441523,9.23708785,10.8004141,10.8812466,0.361523344,0.153046688,-2.21920617,2026-02-15T09:35:05.752Z
1524.390869,2687.63703,0.889999986,-2.17116261,-0.705099642,10.0675688,0.257567972,3.98339415,1.19945152,6.79435814,108.037426,1.30020491,21,1771148105760907,-13.9189475,0.268921628,-5.58104106,87.6925125,49.1841087,-0.344059509,1175,31,7.53365803,-4.57737255,0.136836024,-4.51957677,9.26819406,10.8084822,10.7965602,0.361713856,0.153427711,-2.28191936,2026-02-15T09:35:05.760Z
1524.400879,2687.66581,0.889999986,-1.28696799,0.426816851,11.1829605,1.37296021,3.98331141,1.21822217,6.81907744,108.175363,1.30329655,21,1771148105769207,-19.6316841,0.628769105,-4.26434496,87.4846268,49.1841087,-0.344059168,1175,31,7.55454731,-4.55507755,0.132350191,-4.35195944,9.29932765,10.8165483,10.7032059,0.361904367,0.153808735,-2.33109185,2026-02-15T09:35:05.769Z
1524.410889,2687.69458,0.889999986,-0.170175478,0.659020126,11.5722723,1.76227176,3.98322845,1.23699283,6.84379674,108.313299,1.30638818,21,1771148105777507,-26.60034,1.44160708,-3.01312932,87.276741,49.1841087,-0.344058826,1175,31,7.57543707,-4.53278303,0.12200445,-4.12099093,9.33048814,10.8246164,10.6428951,0.362094879,0.154189758,-2.36743764,2026-02-15T09:35:05.777Z
1524.420898,2687.72336,0.889999986,1.39481628,1.21026599,11.9027004,2.09269953,3.98314524,1.25576348,6.86851603,108.451235,1.30947981,21,1771148105785807,-33.3317652,2.281242,-1.7664122,87.0688553,49.1841087,-0.344058485,1175,31,7.59632635,-4.51048803,0.103404288,-3.82159009,9.361675,10.8326845,10.6236634,0.362285391,0.154570781,-2.39130598,2026-02-15T09:35:05.785Z
1524.430908,2687.75214,0.889999986,2.10566211,0.694813311,12.0746498,2.26464915,3.98306251,1.27453413,6.89323533,108.589171,1.31257144,21,1771148105794108,-39.7078372,2.9828037,-0.726919135,86.8609619,49.1841087,-0.344058144,1175,31,7.61721563,-4.48819351,0.0771063439,-3.45671749,9.39288774,10.8407526,10.66122,0.362475902,0.154951804,-2.40375544,2026-02-15T09:35:05.794Z
1524.440918,2687.78092,0.890954792,1.94371426,0.454917103,13.0732641,3.26326323,3.98207998,1.29330478,6.91795462,108.727107,1.31566307,21,1771148105803195,-43.7740271,3.66953281,0.147370286,86.832428,49.1841087,-0.344057783,1175,30.9681721,7.63810539,-4.46589851,0.0438737921,-3.03969584,9.4241258,10.8053579,10.7242788,0.362666414,0.155332828,-2.40664614,2026-02-15T09:35:05.803Z
1524.450806,2687.8097,0.894137442,2.44318891,-0.0214717854,12.6908941,2.88089418,3.97900057,1.31207543,6.94267392,108.865043,1.31875471,21,1771148105814120,-45.7913964,4.03604045,0.936511279,87.2223358,49.1841087,-0.344057378,1175,30.8620853,7.65899467,-4.44360399,0.00491268037,-2.58683804,9.45538858,10.6685591,10.7819915,0.362856925,0.155713851,-2.40116427,2026-02-15T09:35:05.814Z
1524.460815,2687.83847,0.897446334,3.88683319,-0.886977077,12.1377707,2.32777047,3.97580194,1.33084608,6.96739322,109.002979,1.32184634,21,1771148105825150,-43.7344006,4.09878564,1.86045926,87.6359558,49.1841087,-0.344056971,1175,30.7517891,7.67988443,-4.42130899,-0.0357215148,-2.13963609,9.48667563,10.5260115,10.8565574,0.363047437,0.156094874,-2.38719753,2026-02-15T09:35:05.825Z
1524.470825,2687.86725,0.900755227,5.22397757,-2.22835112,11.3156404,1.50563979,3.97260332,1.34961673,6.99211251,109.140915,1.32493797,21,1771148105836179,-36.211385,5.21628286,2.60232266,88.0495834,49.1841087,-0.344056563,1175,30.6414928,7.70077372,-4.39901447,-0.0822460301,-1.74026095,9.51798634,10.3834639,10.9826157,0.363237949,0.156475897,-2.364909,2026-02-15T09:35:05.836Z
1524.480835,2687.89603,0.904064178,7.34334612,-2.36656141,11.3570538,1.54705369,3.9694047,1.36838738,7.01683181,109.278851,1.3280296,21,1771148105847210,-22.7618829,6.89427087,2.73360203,88.4632187,49.1841087,-0.344056155,1175,30.5311928,7.721663,-4.37671947,-0.142731598,-1.4456171,9.54932045,10.2409153,11.1557902,0.36342846,0.156856921,-2.33825604,2026-02-15T09:35:05.847Z
1524.490845,2687.92491,0.907385111,6.52192974,-0.994521439,10.7045975,0.894596577,3.96619439,1.38715803,7.0415511,109.416788,1.33112123,21,1771148105858279,-7.99317854,9.02906588,2.88983228,88.878334,49.1841087,-0.344055746,1175,30.4204979,7.74255276,-4.35442495,-0.222260215,-1.29191994,9.58079036,10.0978508,11.4038747,0.363618972,0.157237944,-2.31016706,2026-02-15T09:35:05.858Z
1524.500854,2687.95394,0.910722315,6.26163244,-0.125747383,9.8156786,0.00567857688,3.96296835,1.40592869,7.0662704,109.554724,1.33421286,21,1771148105869403,0.812727784,10.154572,3.36613285,89.295517,49.1841087,-0.344055335,1175,30.3092556,7.76344204,-4.33212996,-0.318079333,-1.25600975,9.61243773,9.95408154,11.6202329,0.363809484,0.157618967,-2.27892006,2026-02-15T09:35:05.869Z
1524.510864,2687.98271,0.914031267,2.77191854,0.93924284,9.72687626,-0.0831238255,3.95976973,1.42469934,7.0909897,109.69266,1.3373045,21,1771148105880432,0.371093178,9.94085749,4.191049,89.7091446,49.1841087,-0.344054928,1175,30.1989574,7.78433132,-4.30983543,-0.418459442,-1.26192512,9.64383737,9.81153488,11.8254944,0.363999995,0.15799999,-2.24117483,2026-02-15T09:35:05.880Z
1524.520874,2688.01149,0.9173401,0.445126981,2.27264357,10.8913145,1.08131385,3.9565711,1.44346999,7.11570899,109.830596,1.34039613,21,1771148105891463,-3.84814152,8.56713007,4.31302236,90.1227646,49.1841087,-0.34405452,1175,30.0886631,7.80522108,-4.28754044,-0.510902396,-1.24453626,9.67525765,9.66898727,11.9033908,0.364190507,0.158381014,-2.19869537,2026-02-15T09:35:05.891Z
1524.530884,2688.04027,0.919749022,0.902642906,3.08996654,10.2145948,0.404594123,3.95434117,1.46224064,7.14042829,109.968532,1.34348776,21,1771148105900901,-11.1627483,6.82482631,4.55126374,90.4660034,49.1841087,-0.344054168,1175,30.0083675,7.82611036,-4.26524591,-0.58777861,-1.1695194,9.70669793,9.5752039,11.8971403,0.364381018,0.158762037,-2.15441602,2026-02-15T09:35:05.900Z
1524.540894,2688.06905,0.919999301,1.99022436,2.78643394,10.3134813,0.503480732,3.95443439,1.48101129,7.16514758,110.106468,1.34657939,21,1771148105906523,-20.4528617,5.25007309,5.10536755,90.640419,49.1841087,-0.34405395,1175,30.0000248,7.84699965,-4.24295092,-0.648086557,-1.01155039,9.73815756,9.59837818,11.9077206,0.36457153,0.15914306,-2.10617727,2026-02-15T09:35:05.906Z
1524.550903,2688.09783,0.920000017,3.90033007,2.70709038,9.80583477,-0.00416545803,3.95479631,1.49978194,7.18986688,110.244404,1.34967102,21,1771148105911704,-30.4162136,3.44477821,5.63918006,90.7953186,49.1841087,-0.344053748,1175,30,7.8678894,-4.22065592,-0.691509638,-0.757404823,9.76963588,9.63507462,11.9576242,0.364762042,0.159524083,-2.05250435,2026-02-15T09:35:05.911Z
1524.560913,2688.1266,0.920000017,5.9848938,2.24098563,9.43220806,-0.377792239,3.95515895,1.51855259,7.21458618,110.38234,1.35276266,21,1771148105916884,-38.6955569,2.39249208,5.90392582,90.9501572,49.1841087,-0.344053546,1175,30,7.88877869,-4.1983614,-0.720662451,-0.412143097,9.80113224,9.6718092,12.0760403,0.364952553,0.159905107,-1.99484386,2026-02-15T09:35:05.916Z
1524.570923,2688.15538,0.920000017,7.39667416,1.40602195,10.8261042,1.01610386,3.95552135,1.53732324,7.23930547,110.520276,1.35585429,21,1771148105922063,-44.205086,1.50632349,6.10254753,91.1050034,49.1841087,-0.344053344,1176,30,7.90966797,-4.1760664,-0.740133238,0.00198220367,9.83264597,9.70854378,12.268559,0.365143065,0.16028613,-1.93486911,2026-02-15T09:35:05.922Z
1524.580811,2688.18416,0.920000017,8.4403162,1.57094049,9.69785881,-0.112141937,3.95588398,1.55609389,7.26402477,110.658213,1.35894592,21,1771148105927243,-47.9874498,0.108213948,6.30364668,91.2598343,49.1841087,-0.344053142,1176,30,7.93055773,-4.15377188,-0.748300377,0.468107054,9.86417634,9.74527931,12.5133858,0.365333577,0.160667153,-1.87214273,2026-02-15T09:35:05.927Z
1524.590820,2688.21294,0.920000017,8.07903671,1.51713121,9.435606,-0.374394119,3.95624661,1.57486454,7.28874407,110.796149,1.36203755,21,1771148105932423,-52.6343142,-1.37548521,6.57567108,91.4146805,49.1841087,-0.344052939,1176,30,7.95144701,-4.13147688,-0.741977365,0.97070257,9.89572278,9.78201389,12.7904894,0.365524088,0.161048176,-1.80781028,2026-02-15T09:35:05.932Z
1524.600830,2688.24172,0.920000017,6.84471035,0.768535972,10.1968174,0.38681677,3.95660901,1.5936352,7.31346336,110.934085,1.36512918,21,1771148105937603,-57.3633211,-3.11965228,6.80221505,91.5695267,49.1841087,-0.344052737,1176,30,7.97233677,-4.10918236,-0.719532071,1.5201312,9.92728455,9.81874943,13.0521769,0.3657146,0.1614292,-1.74098721,2026-02-15T09:35:05.937Z
1524.610840,2688.27049,0.920000017,5.10815096,1.21078551,9.62191582,-0.188084245,3.95697188,1.61240585,7.33818266,111.072021,1.36822081,21,1771148105942783,-60.2551751,-4.42283351,6.82036451,91.7243652,49.1841087,-0.344052535,1176,30,7.99322605,-4.08688736,-0.681862765,2.10763593,9.95886123,9.85548401,13.2671902,0.365905111,0.161810223,-1.67294085,2026-02-15T09:35:05.942Z
1524.620850,2688.29938,0.920000017,2.718925,0.588817716,8.93371773,-0.87628299,3.95733571,1.6311765,7.36290195,111.209957,1.37131245,21,1771148105947981,-64.8550134,-5.55031064,6.95984652,91.8797607,49.1841087,-0.344052332,1176,30,8.01411533,-4.06459284,-0.632051182,2.73255418,9.99056599,9.8923521,13.4179382,0.366095623,0.162191246,-1.6041077,2026-02-15T09:35:05.947Z
1524.630859,2688.3284,0.920000017,1.02692962,-1.75201285,9.36124229,-0.448758543,3.95770144,1.64994715,7.38762125,111.347893,1.37440408,21,1771148105953205,-67.1099528,-6.32604519,7.15091607,92.0359344,49.1841087,-0.344052128,1176,30,8.03500462,-4.04229784,-0.57273112,3.39172425,10.0224408,9.92940235,13.4815435,0.366286135,0.162572269,-1.53362365,2026-02-15T09:35:05.953Z
1524.640869,2688.35718,0.920000017,0.303536445,-3.39160585,9.32529545,-0.484704643,3.95806384,1.6687178,7.41234055,111.485829,1.37749571,21,1771148105958385,-62.1529059,-6.53140033,7.20940035,92.1907806,49.1841087,-0.344051926,1176,30,8.0558939,-4.02000332,-0.50850656,4.03740675,10.0540571,9.96613598,13.4839315,0.366476646,0.162953293,-1.4618921,2026-02-15T09:35:05.958Z
1524.650879,2688.38596,0.920000017,0.251026452,-3.62773085,8.94063663,-0.869363487,3.95842648,1.68748845,7.43705984,111.623765,1.38058734,21,1771148105963565,-53.887856,-6.92619743,7.19478106,92.3456192,49.1841087,-0.344051723,1176,30,8.07678413,-3.99770832,-0.441282293,4.61700421,10.0856852,10.0028715,13.4605829,0.366667158,0.163334316,-1.38994153,2026-02-15T09:35:05.963Z
1524.660889,2688.41473,0.920000017,0.783522487,-3.38545752,9.65076351,-0.159236878,3.95878911,1.7062591,7.46177914,111.761701,1.38367897,21,1771148105968745,-45.5265594,-7.59028566,7.25940526,92.5004654,49.1841087,-0.344051521,1176,30,8.09767342,-3.97541356,-0.368767456,5.11355067,10.1173243,10.0396061,13.435895,0.36685767,0.163715339,-1.31774079,2026-02-15T09:35:05.968Z
1524.670898,2688.44351,0.920000017,1.36163545,-3.41729045,9.46250725,-0.34749341,3.95915174,1.72502975,7.48649843,111.899638,1.38677061,21,1771148105973924,-38.1460258,-8.46978648,7.42093181,92.655304,49.1841087,-0.344051319,1176,30,8.1185627,-3.9531188,-0.288541163,5.53146964,10.1489739,10.0763397,13.4309209,0.367048181,0.164096362,-1.24440993,2026-02-15T09:35:05.973Z
1524.680908,2688.47229,0.920000017,2.04781294,-2.69979334,9.12527752,-0.684722662,3.95951414,1.7438004,7.51121773,112.037574,1.38986224,21,1771148105979104,-31.8446151,-9.22652872,7.47690311,92.8101425,49.1841087,-0.344051117,1176,30,8.13945198,-3.93082404,-0.200142248,5.88105093,10.1806331,10.1130753,13.4471044,0.367238693,0.164477386,-1.16999316,2026-02-15T09:35:05.979Z
1524.690918,2688.50107,0.920000017,2.94576669,-2.25387192,9.45659924,-0.353400797,3.95987678,1.76257106,7.53593703,112.17551,1.39295387,21,1771148105984284,-27.1186715,-9.42740914,7.60859828,92.9649811,49.1841087,-0.344050915,1176,30,8.16034126,-3.90852928,-0.106962607,6.17555696,10.2123011,10.1498098,13.4881208,0.367429204,0.164858409,-1.0946386,2026-02-15T09:35:05.984Z
1524.700806,2688.52985,0.920000017,3.11181903,-2.0611577,9.8811264,0.0711261556,3.96023941,1.78134171,7.56065632,112.313446,1.3960455,21,1771148105989464,-23.822602,-9.32246133,7.84233424,93.1198196,49.1841087,-0.344050712,1176,30,8.1812315,-3.88623452,-0.0121615802,6.43311337,10.2439774,10.1865454,13.5622667,0.367619716,0.165239432,-1.01651673,2026-02-15T09:35:05.989Z
1524.710815,2688.55862,0.920000017,2.41464925,-2.36418295,9.9344902,0.124489836,3.96060014,1.80011236,7.58537562,112.451382,1.39913713,21,1771148105994655,-21.0441855,-9.25193742,8.14673468,93.2745056,49.1841087,-0.34405051,1176,30,8.20212078,-3.86393976,0.0806201402,6.65724164,10.2756611,10.2234449,13.6410571,0.367810228,0.165620455,-0.936650852,2026-02-15T09:35:05.994Z
1524.720825,2688.5874,0.920000017,1.19875169,-3.42659974,9.897192,0.0871917531,3.96058154,1.81888301,7.61009491,112.589318,1.40222876,21,1771148106002232,-13.568443,-9.02833112,8.50945972,93.3958435,49.1841087,-0.344050189,1176,30,8.22301006,-3.841645,0.171933386,6.83017196,10.3073514,10.2945442,13.6943212,0.368000739,0.166001479,-0.853452889,2026-02-15T09:35:06.002Z
1524.730835,2688.61618,0.920000017,-0.17956388,-3.9268589,10.0589314,0.248930618,3.95941067,1.83765366,7.63481421,112.727254,1.4053204,21,1771148106017057,-1.7941362,-8.62525636,8.78350205,93.4159012,49.1841087,-0.34404951,1176,30,8.24389935,-3.81935024,0.260117167,6.90696707,10.3390481,10.4695549,13.7036457,0.368191251,0.166382502,-0.767073767,2026-02-15T09:35:06.017Z
1524.740845,2688.64506,0.920000017,-0.72001946,-2.93500423,9.88361645,0.0736160353,3.95764351,1.85642431,7.65953351,112.86519,1.40841203,21,1771148106035661,8.31365045,-8.34517641,8.96124213,93.3839645,49.1841087,-0.344048646,1176,30,8.26478863,-3.79705548,0.344887909,6.87445047,10.3708645,10.6986065,13.6635928,0.368381763,0.166763525,-0.678437466,2026-02-15T09:35:06.035Z
1524.750854,2688.67409,0.920000017,-0.44162184,-1.27622008,9.26776695,-0.542233884,3.95586729,1.87519496,7.6842528,113.003126,1.41150366,21,1771148106054357,15.4917785,-8.04892154,9.33182111,93.35186,49.1841087,-0.344047776,1176,30,8.28567791,-3.77476048,0.42677987,6.75557444,10.4028423,10.9287891,13.6047916,0.368572274,0.167144549,-0.587063188,2026-02-15T09:35:06.054Z
1524.760864,2688.70286,0.920000017,-0.196351409,-0.243846416,9.71944714,-0.0905532539,3.95410633,1.89396561,7.7089721,113.141063,1.41459529,21,1771148106072894,18.137478,-7.79626781,9.7933089,93.3200378,49.1841087,-0.344046915,1176,30,8.30656815,-3.75246572,0.505929692,6.58760444,10.434552,11.1570148,13.5569113,0.368762786,0.167525572,-0.491532966,2026-02-15T09:35:06.072Z
1524.770874,2688.73164,0.920000017,0.157598302,0.557041943,9.67886829,-0.131132469,3.95234513,1.91273626,7.73369139,113.278999,1.41768692,21,1771148106091430,16.3272116,-7.86559844,10.104349,93.2882156,49.1841087,-0.344046053,1176,30,8.32745743,-3.73017097,0.584162962,6.41545794,10.4662647,11.3852386,13.5186564,0.368953298,0.167906595,-0.392140221,2026-02-15T09:35:06.091Z
