T,D,PDOP,acc_x,acc_y,acc_z,acc_z_,altitude,amp_pitch,amp_roll,cadence,d_stroke,gpsTimeAccuracyNs,gpstimeUs,gyro_x,gyro_y,gyro_z,heading,latitude,longitude,motif_id,nSat,pic_acc,pic_down,pitch,roll,speed,speed_gps,speed_i,t_acc,t_down,yaw,time
944.303711,1773.35618,0.959999979,3.49755478,0.885186195,9.32533073,-0.484669238,6.11312437,1.13236763,8.71720038,75.0825273,0.736191379,21,1771147871912914,33.4193549,-6.27300333,-3.1548774,61.7653732,49.184082,-0.344083648,823,30,5.87052822,-1.80312347,-0.021423711,-2.28032012,4.1506915,0.274081528,5.18583129,0.605532342,0.0996451054,1.5671497,2026-02-15T09:31:11.912Z
944.313721,1773.35994,0.959999979,2.81859684,1.16394925,11.1204844,1.31048405,6.11318684,1.15527771,8.83101334,75.326582,0.739082133,21,1771147871919133,29.3480237,-7.85473369,-3.53772689,62.3871422,49.184082,-0.344083624,823,30,5.88939333,-1.84559488,0.0491537724,-2.59383099,4.1734752,0.331842214,5.30127912,0.6059579,0.0993613998,1.53371746,2026-02-15T09:31:11.919Z
944.323730,1773.36371,0.959999979,2.32885599,0.850030661,9.35936546,-0.450635403,6.1132493,1.17818778,8.94482629,75.5706367,0.741972886,21,1771147871925371,26.5096733,-8.68671983,-4.21904878,63.0108109,49.184082,-0.3440836,823,30,5.90825891,-1.88806641,0.131784389,-2.8728332,4.19639785,0.389779836,5.3913826,0.606383459,0.0990776941,1.4949681,2026-02-15T09:31:11.925Z
944.333679,1773.36749,0.959999979,2.96715426,1.95232356,9.03419876,-0.775802076,6.11331129,1.20109786,9.05863925,75.8146914,0.74486364,21,1771147871931609,22.5265054,-8.91597934,-4.80908822,63.6344643,49.184082,-0.344083576,823,30,5.92712402,-1.93053782,0.220249467,-3.11925773,4.21938875,0.447716117,5.46370428,0.606809017,0.0987939885,1.44959434,2026-02-15T09:31:11.931Z
944.343689,1773.37125,0.959999979,3.21757388,2.87599111,8.80556393,-1.00443625,6.11337376,1.22400793,9.17245221,76.0587461,0.747754393,21,1771147871937827,16.3041657,-8.69926207,-5.10826257,64.2562332,49.184082,-0.344083552,823,30,5.94598961,-1.97300935,0.308240789,-3.31325186,4.24237793,0.505476773,5.55797851,0.607234576,0.0985102829,1.40005743,2026-02-15T09:31:11.937Z
944.353699,1773.37501,0.959999979,3.336586,2.3007679,9.67341995,-0.136580825,6.11343575,1.24691801,9.28626516,76.3028008,0.750645147,21,1771147871944046,7.5247382,-7.93768144,-5.11629872,64.8779984,49.184082,-0.344083528,823,30,5.96485472,-2.01548076,0.39134806,-3.43232289,4.26543454,0.563237548,5.66055159,0.607660134,0.0982265772,1.34898453,2026-02-15T09:31:11.944Z
944.363708,1773.37878,0.959999979,3.31501603,2.03416777,9.80492687,-0.00507358136,6.11349773,1.26982808,9.40007812,76.5468554,0.7535359,21,1771147871950264,-0.628621306,-7.27139624,-5.27797677,65.4997711,49.184082,-0.344083504,823,30,5.9837203,-2.0579524,0.467322168,-3.46680545,4.28855804,0.620998204,5.76661542,0.608085693,0.0979428716,1.29706457,2026-02-15T09:31:11.950Z
944.373718,1773.38254,0.959999979,2.50629544,0.00138655154,10.4707642,0.660763323,6.1135602,1.29273816,9.51389108,76.7909101,0.756426653,21,1771147871956483,-7.97718979,-6.96013559,-5.67497775,66.1215286,49.184082,-0.34408348,823,30,6.00258541,-2.10042381,0.538408887,-3.42378253,4.31174792,0.6787588,5.87107341,0.608511251,0.097659166,1.24235129,2026-02-15T09:31:11.956Z
944.383728,1773.3863,0.959999979,2.13656592,0.204467252,10.9227486,1.11274779,6.11362267,1.31564823,9.62770403,77.0349648,0.759317407,21,1771147871962702,-6.82698158,-7.49074031,-5.94493978,66.7433014,49.184082,-0.344083455,823,30,6.021451,-2.14289522,0.610595366,-3.34983958,4.33500354,0.736519575,5.94563401,0.608936809,0.0973754604,1.18430707,2026-02-15T09:31:11.962Z
944.393738,1773.39008,0.959999979,2.69412255,1.07166004,9.31425762,-0.49574253,6.11368465,1.33855831,9.74151699,77.2790195,0.76220816,21,1771147871968940,-4.2294628,-7.76410109,-6.193998,67.3669662,49.184082,-0.344083431,823,30,6.0403161,-2.18536687,0.686796482,-3.29462394,4.35839578,0.794457078,6.00638478,0.609362368,0.0970917547,1.12367038,2026-02-15T09:31:11.968Z
944.403687,1773.39385,0.959999979,3.00422239,1.49749482,9.19684124,-0.613159239,6.11374664,1.36146838,9.85532995,77.5230742,0.765098914,21,1771147871975178,-2.13643764,-7.35976682,-6.26442596,67.9906235,49.184082,-0.344083407,823,30,6.05918169,-2.22783828,0.76280489,-3.26262282,4.38185241,0.852393448,6.08732857,0.609787926,0.0968080491,1.06105948,2026-02-15T09:31:11.975Z
944.413696,1773.39762,0.959999979,2.84422398,1.89634609,9.62250137,-0.187499374,6.11380911,1.38437846,9.9691429,77.7671289,0.767989667,21,1771147871981397,-0.192967624,-6.49741496,-6.41109717,68.6123886,49.184082,-0.344083383,823,30,6.0780468,-2.27030969,0.832027397,-3.2509777,4.40530184,0.910154104,6.17834321,0.610213485,0.0965243435,0.997744413,2026-02-15T09:31:11.981Z
944.423706,1773.40138,0.959999979,2.6112268,1.99976361,8.91239071,-0.897609711,6.11387157,1.40728853,10.0829559,78.0111836,0.770880421,21,1771147871987616,2.12845137,-5.45558271,-6.69703671,69.2341614,49.184082,-0.344083359,823,30,6.09691238,-2.3127811,0.891739159,-3.26063436,4.42881446,0.96791476,6.26293104,0.610639043,0.0962406379,0.93226908,2026-02-15T09:31:11.987Z
944.433716,1773.40514,0.959999979,2.26943731,2.20739365,9.83081245,0.0208115745,6.11393356,1.4301986,10.1967688,78.2552383,0.773771174,21,1771147871993835,3.80506331,-4.52168206,-7.11973719,69.8559265,49.184082,-0.344083335,823,30,6.11577749,-2.35525274,0.941574059,-3.29027793,4.45238963,1.02567542,6.3385227,0.611064602,0.0959569322,0.863251363,2026-02-15T09:31:11.993Z
944.443726,1773.4089,0.959999979,1.9608078,2.71813154,10.4212418,0.611241162,6.11407995,1.45310868,10.3105818,78.499293,0.776661927,21,1771147872001500,4.11691193,-4.00757793,-7.6709017,70.373848,49.184082,-0.344083293,823,30,6.13464308,-2.39772415,0.984176252,-3.32985068,4.47602662,1.09167171,6.40129982,0.61149016,0.0956732266,0.789367632,2026-02-15T09:31:12.001Z
944.453735,1773.41268,0.959999979,1.54347241,2.77815294,10.5967436,0.786743641,6.11442184,1.47601875,10.4243947,78.7433477,0.779552681,21,1771147872012513,3.36244524,-3.97489824,-8.20900615,70.6545486,49.184082,-0.344083212,823,30,6.15350819,-2.44019556,1.02404954,-3.36720729,4.49979737,1.176808,6.4525861,0.611915719,0.095389521,0.710042941,2026-02-15T09:31:12.012Z
944.463684,1773.41645,0.959999979,1.22710395,1.98417354,10.0883865,0.278385669,6.11487246,1.49892883,10.5382077,78.9874024,0.782443434,21,1771147872025395,2.82728967,-4.28980322,-8.65055654,70.8011322,49.184082,-0.344083109,823,30,6.17237377,-2.48266721,1.06558416,-3.39831528,4.52362835,1.27257943,6.4887802,0.612341277,0.0951058153,0.625314122,2026-02-15T09:31:12.025Z
944.473694,1773.42022,0.959999979,1.1927458,1.20437777,10.2469587,0.436958671,6.11532211,1.5218389,10.6520206,79.2314571,0.785334188,21,1771147872038244,4.08765659,-4.26165072,-9.36155366,70.9468994,49.184082,-0.344083005,823,30,6.19123936,-2.52513862,1.10829985,-3.43285019,4.54744682,1.36808956,6.51328171,0.612766835,0.0948221097,0.535344891,2026-02-15T09:31:12.038Z
944.483704,1773.42398,0.959999979,1.14134908,0.920031011,10.6675005,0.857499719,6.11577177,1.54474898,10.7658336,79.4755118,0.788224941,21,1771147872051091,8.10896054,-3.92876247,-10.268916,71.0926666,49.184082,-0.344082902,823,30,6.21010447,-2.56761003,1.14921358,-3.49375418,4.57132422,1.46359956,6.53654129,0.613192394,0.0945384041,0.437292723,2026-02-15T09:31:12.051Z
944.493713,1773.42774,0.959999979,0.988432825,1.48462141,9.66345978,-0.14654085,6.11622143,1.56765905,10.8796466,79.7195665,0.791115695,21,1771147872063939,13.2973733,-2.94242814,-11.246125,71.2384338,49.184082,-0.344082798,823,30,6.22897005,-2.61008167,1.18353552,-3.60068408,4.59525986,1.55910969,6.55795917,0.613617952,0.0942546985,0.329821971,2026-02-15T09:31:12.063Z
944.503723,1773.43151,0.959999979,0.663012207,1.40360713,10.2342358,0.424235731,6.11667156,1.59056913,10.9934595,79.9636212,0.794006448,21,1771147872076786,19.6381846,-0.634586486,-12.2365943,71.3842087,49.184082,-0.344082695,823,30,6.24783516,-2.65255308,1.20139189,-3.76523211,4.619253,1.65461969,6.57390019,0.614043511,0.0939709928,0.212518098,2026-02-15T09:31:12.076Z
944.513733,1773.43528,0.959999979,0.541163623,1.46847701,9.45963955,-0.350361109,6.11712265,1.6134792,11.1072725,80.2076759,0.796897202,21,1771147872089674,22.0916235,0.246407541,-12.7317625,71.5304184,49.184082,-0.344082591,823,30,6.26670074,-2.69502449,1.20332662,-3.97368946,4.64337661,1.75042224,6.57821796,0.614469069,0.0936872872,0.08779571,2026-02-15T09:31:12.089Z
944.523682,1773.43905,0.959999979,0.60448575,1.6063565,9.00994492,-0.800055742,6.11757326,1.63638928,11.2210854,80.4517306,0.799787955,21,1771147872102560,22.9640405,0.760419143,-13.3379736,71.6766281,49.184082,-0.344082488,823,30,6.28556585,-2.73749614,1.19826629,-4.20012246,4.66755601,1.84622276,6.57835868,0.614894628,0.0934035816,-0.043221043,2026-02-15T09:31:12.102Z
944.533691,1773.44282,0.959999979,0.788606286,2.06072354,9.55172062,-0.258280218,6.1180234,1.65929935,11.3348984,80.6957853,0.802678708,21,1771147872115408,22.4236774,0.737518539,-13.7438348,71.822403,49.184082,-0.344082384,823,30,6.30443144,-2.77996755,1.1907838,-4.42684224,4.69171742,1.94173276,6.58100289,0.615320186,0.0931198759,-0.178496004,2026-02-15T09:31:12.115Z
944.543701,1773.44658,0.959999979,1.09860587,1.45136189,8.54784679,-1.2621541,6.11847305,1.68220943,11.4487113,80.93984,0.805569462,21,1771147872128255,19.8251715,0.472587644,-14.0618499,71.9681625,49.184082,-0.344082281,823,30,6.32329655,-2.82243896,1.18473788,-4.63789304,4.71593336,2.03724289,6.59047958,0.615745745,0.0928361703,-0.31738724,2026-02-15T09:31:12.128Z
944.553711,1773.45034,0.959999979,1.43445921,0.927847087,7.7256608,-2.08433962,6.11892271,1.7051195,11.5625243,81.1838947,0.808460215,21,1771147872141103,16.9372943,0.345587415,-14.1305008,72.1139374,49.184082,-0.344082177,823,30,6.34216213,-2.8649106,1.18065075,-4.82153162,4.7402031,2.13275313,6.61125537,0.616171303,0.0925524647,-0.458211337,2026-02-15T09:31:12.141Z
944.563721,1773.45411,0.959999979,1.89228821,-0.238788605,7.96725941,-1.84274113,6.11937237,1.72802958,11.6763373,81.4279494,0.811350969,21,1771147872153951,15.5758074,0.374487458,-14.2635584,72.2597046,49.184082,-0.344082074,823,30,6.36102724,-2.90738201,1.17705375,-4.98393189,4.76452595,2.22826314,6.64415325,0.616596861,0.0922687591,-0.600043774,2026-02-15T09:31:12.153Z
944.573730,1773.45788,0.959999979,2.28306007,-0.714829862,7.69192362,-2.11807656,6.11982298,1.75093965,11.7901502,81.6720041,0.814241722,21,1771147872166838,17.2173272,0.719681691,-14.4020983,72.4059143,49.184082,-0.34408197,823,30,6.37989283,-2.94985342,1.17158655,-5.14774562,4.78897591,2.32406592,6.69343121,0.61702242,0.0919850534,-0.743232899,2026-02-15T09:31:12.166Z
944.583679,1773.46166,0.959999979,2.64542508,-0.85882473,7.60445881,-2.20554137,6.12027407,1.77384973,11.9039632,81.9160588,0.817132476,21,1771147872179725,20.9714189,0.991475592,-14.595202,72.5521317,49.184082,-0.344081867,823,30,6.39875793,-2.99232483,1.16298608,-5.33967893,4.81347724,2.41986609,6.75693668,0.617447978,0.0917013478,-0.888962626,2026-02-15T09:31:12.179Z
944.593689,1773.46542,0.959999979,2.78640628,-0.739691317,8.19805622,-1.61194468,6.12072182,1.7967598,12.0177761,82.1601135,0.820023229,21,1771147872192572,24.9714368,1.08650652,-14.6399505,72.6975708,49.184082,-0.344081763,823,30,6.41762352,-3.03479648,1.15260678,-5.56914965,4.83795528,2.51538134,6.83265898,0.617873537,0.0914176422,-1.03499556,2026-02-15T09:31:12.192Z
944.603699,1773.46918,0.959999979,2.72717595,0.407876164,8.28883648,-1.52116394,6.12031746,1.81966988,12.1315891,82.4041682,0.822913982,21,1771147872205188,28.2712641,0.625418975,-14.4599012,72.6739655,49.184082,-0.344081634,823,30,6.43648863,-3.07726789,1.14405325,-5.83508732,4.86248357,2.6135931,6.91294679,0.618299095,0.0911339366,-1.18035374,2026-02-15T09:31:12.205Z
944.613708,1773.47294,0.959999979,2.81035733,1.44290996,8.11877918,-1.69122112,6.11894989,1.84257995,12.245402,82.6482229,0.825804736,21,1771147872217543,26.7190008,0.38368018,-14.127795,72.4593277,49.184082,-0.344081476,823,30,6.45535421,-3.11973929,1.13901162,-6.10977718,4.88706141,2.71485186,6.99054243,0.618724654,0.0908502309,-1.32315422,2026-02-15T09:31:12.217Z
944.623718,1773.47671,0.959999979,3.09745145,1.48039997,7.92923164,-1.88076854,6.11747026,1.86549003,12.359215,82.8922776,0.828695489,21,1771147872229869,21.8190496,0.599045761,-13.7118702,72.2226944,49.184082,-0.344081314,823,30,6.47421932,-3.16221094,1.13410174,-6.35220676,4.9116882,2.8164618,7.07060231,0.619150212,0.0905665253,-1.46221471,2026-02-15T09:31:12.229Z
944.633728,1773.48047,0.959999979,3.04544425,1.89416957,7.98226738,-1.82773304,6.11599159,1.8884001,12.473028,83.1363323,0.831586243,21,1771147872242194,15.5502486,1.30249207,-12.9245624,71.9860535,49.184082,-0.344081153,823,30,6.49308491,-3.20468235,1.12459989,-6.53884043,4.9363632,2.91807199,7.16043368,0.61957577,0.0902828197,-1.59526311,2026-02-15T09:31:12.242Z
944.643738,1773.48425,0.959999979,2.83390188,2.04445457,7.56489658,-2.24510384,6.11450815,1.91118014,12.5865321,83.3804701,0.834474333,21,1771147872254557,8.74370304,2.12831194,-12.4438743,71.7486877,49.184082,-0.34408099,823,30,6.51185036,-3.24695086,1.1074586,-6.6601586,4.96116155,3.01999259,7.24774371,0.619990935,0.09,-1.72197921,2026-02-15T09:31:12.254Z
944.653687,1773.48802,0.959999979,2.53859186,2.27804708,7.84478807,-1.96521211,6.11302423,1.89245013,12.6014471,83.6511513,0.836512274,21,1771147872266920,0.651833145,3.15241808,-12.016304,71.5113144,49.184082,-0.344080828,823,30,6.49867964,-3.2244153,1.08092394,-6.7074105,4.98600661,3.12191153,7.32727972,0.617087972,0.09,-1.84490828,2026-02-15T09:31:12.266Z
944.663696,1773.49178,0.959999979,2.6491859,3.38464117,8.01128101,-1.79871941,6.11154556,1.87372011,12.616362,83.9218325,0.838550215,21,1771147872279245,-9.68128927,4.0223142,-11.5310608,71.2746811,49.184082,-0.344080667,823,30,6.48550892,-3.20187998,1.04508952,-6.66235752,5.0108227,3.22352147,7.3951865,0.614185009,0.09,-1.9625326,2026-02-15T09:31:12.279Z
944.673706,1773.49555,0.959999979,2.22643757,3.55822921,8.93564415,-0.874356151,6.11006641,1.8549901,12.631277,84.1925137,0.840588156,21,1771147872291570,-22.5737552,4.62333107,-10.618311,71.0381241,49.184082,-0.344080505,823,30,6.4723382,-3.17934442,1.0019064,-6.50130251,5.03568452,3.32512307,7.46665907,0.611282046,0.09,-2.07317586,2026-02-15T09:31:12.291Z
944.683716,1773.49931,0.959999979,2.15710926,2.94079137,8.53146648,-1.27853394,6.10874367,1.83626008,12.646192,84.4631949,0.842626097,21,1771147872302595,-36.0041455,4.76193883,-9.53016093,71.2414474,49.184082,-0.344080362,823,30,6.45916748,-3.15680885,0.95502542,-6.20865915,5.06059151,3.38499045,7.52244714,0.608379083,0.09,-2.17381673,2026-02-15T09:31:12.302Z
944.693726,1773.50307,0.959999979,2.10367537,2.38552642,8.57848167,-1.2315191,6.10762072,1.81753006,12.661107,84.7338761,0.844664038,21,1771147872311953,-49.3692972,4.99423484,-8.41079077,72.0087967,49.184082,-0.344080241,823,30,6.44599676,-3.13427353,0.90629101,-5.7821433,5.08554307,3.39134383,7.57543277,0.60547612,0.09,-2.26342852,2026-02-15T09:31:12.311Z
944.703735,1773.50685,0.959999979,1.88467681,1.42584205,8.89766216,-0.912338495,6.10653877,1.79880005,12.676022,85.0045573,0.846701979,21,1771147872320970,-60.6601474,5.16743327,-7.3952935,72.903595,49.184082,-0.344080126,823,30,6.43282604,-3.11173797,0.855531398,-5.23247795,5.11061523,3.38584685,7.6262166,0.602573157,0.09,-2.3423769,2026-02-15T09:31:12.320Z
944.713684,1773.51062,0.959999979,1.05032778,-0.142731041,9.35724449,-0.452755898,6.10545683,1.78007003,12.690937,85.2752385,0.84873992,21,1771147872329985,-73.3911167,6.06650198,-5.86643536,73.7985992,49.184082,-0.34408001,823,30,6.41965532,-3.0892024,0.799075611,-4.55881004,5.13573058,3.38032937,7.66905562,0.599670194,0.09,-2.4090278,2026-02-15T09:31:12.329Z
944.723694,1773.51438,0.959999979,-0.00726958131,-1.04819989,9.80930424,-0.000696226023,6.10437822,1.76134002,12.7058519,85.5459197,0.850777861,21,1771147872338973,-77.824431,6.86292445,-4.93835918,74.6908951,49.184082,-0.344079895,823,30,6.4064846,-3.06666708,0.734495423,-3.80349157,5.16081277,3.3748281,7.68155897,0.596767231,0.09,-2.46300358,2026-02-15T09:31:12.338Z
944.733704,1773.51815,0.959999979,-1.1411134,-1.71349752,10.5613642,0.751363873,6.10329962,1.74261,12.7207669,85.8166009,0.852815802,21,1771147872347963,-77.321865,7.67044657,-4.23459326,75.5831833,49.184082,-0.34407978,823,30,6.39331388,-3.04413152,0.661903399,-3.02851446,5.1859374,3.36932707,7.65615396,0.593864269,0.09,-2.50882703,2026-02-15T09:31:12.347Z
944.743713,1773.52191,0.959999979,-2.23384786,-2.52083445,11.2748728,1.46487188,6.10222101,1.72387999,12.7356819,86.0872821,0.854853743,21,1771147872356951,-74.0340675,8.08082208,-3.58458419,76.4754715,49.184082,-0.344079665,823,30,6.38014317,-3.02159619,0.583223682,-2.2724748,5.211104,3.36382627,7.59045268,0.590961306,0.09,-2.54788444,2026-02-15T09:31:12.356Z
944.753723,1773.52567,0.959999979,-3.15495539,-2.77385378,11.7726536,1.96265316,6.10114241,1.70514997,12.7505969,86.3579633,0.856891683,21,1771147872365939,-68.2400752,8.04031528,-3.11161002,77.3677673,49.184082,-0.344079549,823,30,6.36697245,-2.99906063,0.502696835,-1.56182635,5.23631211,3.35832524,7.48634236,0.588058343,0.09,-2.58133044,2026-02-15T09:31:12.365Z
944.763733,1773.52945,0.959999979,-3.24679542,-3.03961754,12.2463388,2.43633842,6.10006046,1.68641996,12.7655119,86.6286445,0.858929624,21,1771147872374955,-60.7007309,7.68836685,-2.68747243,78.2627945,49.184082,-0.344079434,823,30,6.35380173,-2.97652507,0.424131866,-0.917787991,5.26163866,3.35280752,7.35039646,0.58515538,0.09,-2.61029551,2026-02-15T09:31:12.374Z
944.773682,1773.53322,0.959999979,-2.55986714,-2.97115874,12.66364,2.85363936,6.09897852,1.66768994,12.7804269,86.8993257,0.860967565,21,1771147872383971,-51.6239791,7.2145972,-2.36849919,79.1577911,49.184082,-0.344079318,823,30,6.34063101,-2.95398974,0.349235709,-0.353294081,5.28700549,3.34729004,7.2119879,0.582252417,0.09,-2.63570461,2026-02-15T09:31:12.383Z
944.783691,1773.53699,0.959999979,-2.30875015,-1.99708152,12.2775059,2.46750569,6.09790134,1.64895993,12.7953418,87.1700069,0.863005506,21,1771147872392960,-42.09205,6.73001544,-2.13862946,80.0494919,49.184082,-0.344079203,823,30,6.32746029,-2.93145418,0.279578305,0.114875305,5.31233567,3.34180045,7.10068142,0.579349454,0.09,-2.65821938,2026-02-15T09:31:12.392Z
944.793701,1773.54549,0.959999979,-2.00981188,-0.625627875,11.7787237,1.96872294,6.09758806,1.63022991,12.8102568,87.4406881,0.865043447,21,1771147872402084,-35.5907994,6.661231,-1.846241,80.5820236,49.184082,-0.344079085,823,30,6.31428957,-2.90891862,0.21268706,0.502942304,5.33770566,3.34330869,6.99976979,0.576446491,0.09,-2.67812572,2026-02-15T09:31:12.402Z
944.803711,1773.56108,0.959999979,-0.795516014,0.43011719,11.6997461,1.88974619,6.09842396,1.61149989,12.8251718,87.7113693,0.867081388,21,1771147872411412,-32.5301245,6.81948415,-1.37118315,80.5744629,49.184082,-0.344078963,823,30,6.30111885,-2.8863833,0.145349549,0.843220531,5.36311511,3.35534024,6.91085219,0.573543528,0.09,-2.69419806,2026-02-15T09:31:12.411Z
944.813721,1773.57906,0.959999979,0.722930491,1.28676188,11.7418146,1.93181407,6.09964561,1.59276988,12.8400868,87.9820505,0.869119329,21,1771147872420808,-33.6609838,7.38791311,-0.673860628,80.3858566,49.184082,-0.34407884,823,30,6.28794765,-2.86384773,0.0743790947,1.17385871,5.38856368,3.3708992,6.86677927,0.570640565,0.09,-2.70440991,2026-02-15T09:31:12.420Z
944.823730,1773.59709,0.959999979,2.08988214,0.619903624,12.0261688,2.2161684,6.10087061,1.57403986,12.8550018,88.2527317,0.87115727,21,1771147872430232,-39.7327925,8.46468767,0.361642858,80.1966171,49.184082,-0.344078717,823,30,6.27477694,-2.84131217,-0.00481182494,1.54049918,5.41412916,3.38650703,6.87801158,0.567737603,0.09,-2.70596443,2026-02-15T09:31:12.430Z
944.833679,1773.61512,0.959999979,2.95987654,-0.456585675,12.416708,2.60670781,6.10209608,1.55530985,12.8699168,88.5234129,0.873195211,21,1771147872439658,-41.6129582,8.61889158,0.847726988,80.0073853,49.184082,-0.344078593,823,30,6.26160622,-2.81877685,-0.0906678115,1.94931777,5.43973272,3.40211391,6.93900817,0.56483464,0.09,-2.69988502,2026-02-15T09:31:12.439Z
944.843689,1773.6331,0.959999979,3.03238368,-1.08635211,12.4143238,2.60432315,6.10331774,1.53657983,12.8848318,88.7940941,0.875233152,21,1771147872449053,-37.2807248,8.08687119,0.833369251,79.818718,49.184082,-0.34407847,823,30,6.2484355,-2.79624128,-0.174117715,2.34342233,5.46529687,3.41767406,7.03047968,0.561931677,0.09,-2.69148768,2026-02-15T09:31:12.449Z
944.853699,1773.65108,0.959999979,2.18335986,-1.08618069,12.1802549,2.37025404,6.10453892,1.51784982,12.8997467,89.0647753,0.877271093,21,1771147872458449,-29.8220351,7.35329962,0.679587043,79.6300583,49.184082,-0.344078347,823,30,6.23526478,-2.77370596,-0.251246822,2.67864511,5.49089893,3.43323398,7.12393288,0.559028714,0.09,-2.68392953,2026-02-15T09:31:12.458Z
944.863708,1773.66905,0.959999979,1.3271749,0.0923880786,12.1900997,2.38009977,6.10576057,1.4991198,12.9146617,89.3354565,0.879309034,21,1771147872467845,-22.0029696,6.42855057,0.517880411,79.4413986,49.184082,-0.344078223,823,30,6.22209406,-2.7511704,-0.320092884,2.93755148,5.51653862,3.44879413,7.18617158,0.556125751,0.09,-2.67794732,2026-02-15T09:31:12.467Z
944.873718,1773.68703,0.959999979,0.595180869,1.13304722,10.9881563,1.17815602,6.10698175,1.48038979,12.9295767,89.6061377,0.881346975,21,1771147872477242,-16.0119593,5.67113627,0.513566415,79.2527313,49.184082,-0.3440781,823,30,6.20892334,-2.72863483,-0.380528601,3.12741147,5.54221577,3.4643538,7.21722323,0.553222788,0.09,-2.67279514,2026-02-15T09:31:12.477Z
944.883728,1773.70501,0.959999979,0.789727688,1.59061217,10.4640303,0.654029846,6.10820341,1.46165977,12.9444917,89.8768189,0.883384916,21,1771147872486638,-12.7852512,4.99992764,0.718338609,79.0640717,49.184082,-0.344077977,823,30,6.19575262,-2.70609951,-0.4338286,3.27124137,5.56793012,3.47991395,7.22189513,0.550319825,0.09,-2.66664063,2026-02-15T09:31:12.486Z
944.893738,1773.72304,0.959999979,1.91344702,1.85549521,11.1714611,1.36146092,6.10941458,1.44292976,12.9594067,90.1475001,0.885422857,21,1771147872496063,-11.7713125,4.78264106,0.957701492,78.8804169,49.184082,-0.344077854,823,30,6.1825819,-2.68356395,-0.482692677,3.39389952,5.59376036,3.49428344,7.23377406,0.547416862,0.09,-2.65826744,2026-02-15T09:31:12.496Z
944.903687,1773.74107,0.959999979,1.88246775,1.19447649,10.3243732,0.514372706,6.11020184,1.42419974,12.9743217,90.4181813,0.887460798,21,1771147872505502,-11.5448416,4.98435467,0.996829067,78.8680191,49.184082,-0.34407774,823,30,6.16941118,-2.66102839,-0.531776927,3.51107823,5.61962714,3.47065949,7.28652426,0.544513899,0.09,-2.64844487,2026-02-15T09:31:12.505Z
944.913696,1773.75905,0.959999979,1.74204588,0.994110525,10.9138832,1.10388279,6.11057901,1.40546972,12.9892366,90.6888625,0.889498739,21,1771147872514926,-12.2717893,4.95966712,0.887067815,79.0201492,49.184082,-0.344077636,823,30,6.15624046,-2.63849306,-0.581448643,3.63004168,5.6454522,3.41061521,7.33757954,0.541610937,0.09,-2.63903404,2026-02-15T09:31:12.514Z
944.923706,1773.77702,0.959999979,3.80201292,0.738890052,11.8031416,1.99314165,6.11095524,1.38673971,13.0041516,90.9595437,0.89153668,21,1771147872524348,-14.3497207,4.49037855,0.924804625,79.1723022,49.184082,-0.344077532,823,30,6.14306974,-2.6159575,-0.628655062,3.76300924,5.6713138,3.35057092,7.38325509,0.538707974,0.09,-2.6299837,2026-02-15T09:31:12.524Z
944.933716,1773.795,0.959999979,5.38907576,-0.351381958,11.5734034,1.7634027,6.11133242,1.36800969,13.0190666,91.2302249,0.893574621,21,1771147872533771,-17.3502453,3.73584371,1.06732538,79.3244324,49.184082,-0.344077428,823,30,6.12989902,-2.59342194,-0.66974382,3.92136328,5.69721184,3.29052663,7.50288047,0.535805011,0.09,-2.62003235,2026-02-15T09:31:12.533Z
944.943726,1773.81298,0.959999979,4.43869495,-0.499512523,11.3060026,1.49600172,6.11171007,1.34927968,13.0339816,91.5009061,0.895612561,21,1771147872543195,-22.6363182,1.78520221,1.08122125,79.4765701,49.184082,-0.344077324,823,30,6.11672831,-2.57088661,-0.697312608,4.12112681,5.72314622,3.23048234,7.67865881,0.532902048,0.09,-2.60930003,2026-02-15T09:31:12.543Z
944.953735,1773.83101,0.959999979,4.46796083,0.438569486,11.9410677,2.13106728,6.11208773,1.33054966,13.0488966,91.7715873,0.897650502,21,1771147872552647,-29.3659882,0.331435443,1.3570433,79.6291733,49.184082,-0.34407722,823,30,6.10355759,-2.54835105,-0.707878413,4.38091741,5.7491964,3.17025423,7.81875995,0.529999085,0.09,-2.59711925,2026-02-15T09:31:12.552Z
944.963684,1773.84904,0.959999979,5.88205385,0.196691006,10.861907,1.05190659,6.11246586,1.31181965,13.0638116,92.0422685,0.899688443,21,1771147872562098,-35.6408587,-0.370820791,1.89405007,79.7817841,49.184082,-0.344077116,823,30,6.09038687,-2.52581573,-0.707681592,4.70760588,5.77528241,3.11002731,7.95974756,0.527096122,0.09,-2.58078145,2026-02-15T09:31:12.562Z
944.973694,1773.86702,0.959999979,6.04750204,-1.14832771,10.8628139,1.05281353,6.11284208,1.29308963,13.0787266,92.3129497,0.901726384,21,1771147872571522,-39.6175285,-0.512211105,2.24183575,79.9339142,49.184082,-0.344077012,823,30,6.07721615,-2.50328016,-0.70327143,5.08351131,5.80132548,3.04998302,8.14946735,0.524193159,0.09,-2.56012389,2026-02-15T09:31:12.571Z
944.983704,1773.88499,0.959999979,6.14833879,-1.77782857,10.9459343,1.13593411,6.11321926,1.27435962,13.0936415,92.5836309,0.903764325,21,1771147872580945,-40.1859721,-0.471885204,2.32627043,80.0860519,49.184082,-0.344076908,823,30,6.06404543,-2.4807446,-0.698355553,5.48213675,5.82740462,2.98993874,8.34350461,0.521290196,0.09,-2.53730606,2026-02-15T09:31:12.580Z
944.993713,1773.90297,0.959999979,6.51169538,-1.68789005,9.92794037,0.117939644,6.11359644,1.2556296,13.1085565,92.8543121,0.905802266,21,1771147872590368,-39.2171807,-0.286066064,2.41372738,80.2381897,49.184082,-0.344076804,823,30,6.05087471,-2.45820928,-0.694569589,5.87876469,5.85351983,2.92989445,8.53948745,0.518387233,0.09,-2.51362915,2026-02-15T09:31:12.590Z
945.003723,1773.92095,0.960265517,5.69646931,-1.9176594,10.6959963,0.885995507,6.11429024,1.23689959,13.1234715,93.1249933,0.907840207,21,1771147872600418,-37.9071372,-0.182341985,2.64948001,80.5875473,49.184082,-0.344076672,823,29.973444,6.03770399,-2.43567371,-0.692230338,6.26400367,5.8796711,2.9222579,8.7468463,0.515484271,0.09,-2.48833666,2026-02-15T09:31:12.600Z
945.013733,1773.93898,0.961150825,4.68194437,-1.80433297,10.9619942,1.15199351,6.11572552,1.21816957,13.1383865,93.3956745,0.909878148,21,1771147872611959,-35.9318417,-0.477967337,2.82382726,81.3976212,49.184082,-0.344076474,824,29.8849182,6.02453327,-2.41313815,-0.688930569,6.63282876,5.90593868,3.03674436,8.92307538,0.512581308,0.09,-2.46099598,2026-02-15T09:31:12.611Z
945.023682,1773.95701,0.962387145,4.32145071,-1.29732192,9.3963356,-0.413664967,6.11758041,1.19943955,13.1533015,93.6663557,0.911916089,21,1771147872624329,-33.4615739,-0.844951722,3.03273862,82.4684372,49.184082,-0.344076238,824,29.7612858,6.01136255,-2.39060283,-0.682281844,6.98157127,5.93224196,3.22052026,9.06212552,0.509678345,0.09,-2.43156304,2026-02-15T09:31:12.624Z
945.033691,1773.97499,0.963620543,4.00149202,-1.70479655,9.45111275,-0.35888803,6.11943054,1.18070954,13.1682165,93.9370369,0.91395403,21,1771147872636664,-31.2264008,-1.25257384,3.61195932,83.5366364,49.184082,-0.344076002,824,29.6379395,5.99819183,-2.36806726,-0.671806416,7.30470641,5.95850163,3.40391088,9.18628985,0.506775382,0.09,-2.39837478,2026-02-15T09:31:12.636Z
945.043701,1773.99296,0.964854062,3.77800989,-2.67410278,9.60838032,-0.201620027,6.12128115,1.16197952,13.1831314,94.2077181,0.915991971,21,1771147872648999,-26.1826262,-2.49085084,4.45819758,84.6048508,49.184082,-0.344075767,824,29.5145931,5.98502111,-2.34553194,-0.653113584,7.59149606,5.98479744,3.58730173,9.29796531,0.503872419,0.09,-2.35806748,2026-02-15T09:31:12.648Z
945.053711,1774.01094,0.96608752,3.48745894,-3.45557499,8.74495792,-1.06504226,6.12313128,1.14324951,13.1980464,94.4783993,0.918029912,21,1771147872661333,-18.7232296,-3.89357301,5.42143689,85.6730728,49.184082,-0.344075532,824,29.3912468,5.9718504,-2.32299638,-0.621225315,7.81582067,6.01112946,3.77069306,9.40074925,0.500969456,0.09,-2.30871936,2026-02-15T09:31:12.661Z
945.063721,1774.02892,0.967321038,3.13209224,-3.27382016,8.6883564,-1.1216439,6.1249814,1.12451949,13.2129614,94.7490805,0.920067853,21,1771147872673668,-13.6713336,-4.92347398,6.17526049,86.741272,49.184082,-0.344075297,824,29.2679005,5.95867968,-2.30046082,-0.57717807,7.97761085,6.03749775,3.95408344,9.49231216,0.498066493,0.09,-2.25078877,2026-02-15T09:31:12.673Z
945.073730,1774.04695,0.968558252,2.77455473,-1.7228148,8.59662056,-1.2133795,6.12683725,1.10578948,13.2278764,95.0197617,0.922105794,21,1771147872686040,-10.0568709,-5.65774587,6.77741588,87.8127518,49.184082,-0.344075061,824,29.1441765,5.94550896,-2.27792549,-0.524320017,8.09611855,6.06398333,4.13803673,9.57044305,0.49516353,0.09,-2.18608564,2026-02-15T09:31:12.686Z
945.083679,1774.06498,0.969111085,2.88977265,-0.250867844,7.72378349,-2.08621693,6.12847805,1.08705946,13.2427914,95.2904429,0.924143735,21,1771147872697934,-9.02180536,-6.06096254,7.63160404,88.7127075,49.184082,-0.344074825,824,29.041153,5.93233824,-2.25538993,-0.465425048,8.19199699,6.0905049,4.32031298,9.63560512,0.492260567,0.09,-2.11366891,2026-02-15T09:31:12.697Z
945.093689,1774.08296,0.96762687,3.0958271,-0.31893611,8.0471735,-1.76282704,6.12947464,1.06832945,13.2577064,95.5611241,0.926181676,21,1771147872708369,-10.3191369,-5.96687181,8.83075341,89.0998154,49.184082,-0.34407459,824,29,5.91916752,-2.23285437,-0.405344098,8.28860103,6.11698261,4.49706554,9.70411215,0.489357605,0.09,-2.03144325,2026-02-15T09:31:12.708Z
945.103699,1774.10093,0.96478194,2.47950077,-1.6413101,9.63382721,-0.176173061,6.13004351,1.04959943,13.2726213,95.8318053,0.928219617,21,1771147872717851,-10.8342527,-5.50841824,10.0025214,89.1458969,49.184082,-0.344074355,824,29,5.9059968,-2.21031904,-0.348021391,8.39426225,6.14349691,4.67049503,9.77963901,0.486454642,0.09,-1.93737446,2026-02-15T09:31:12.717Z
945.113708,1774.11891,0.961936951,2.31817818,-3.36566162,9.46911812,-0.34088248,6.13061285,1.03086942,13.2875363,96.1024865,0.930257558,21,1771147872727335,-7.19380772,-5.12872097,10.9803321,89.1919708,49.184082,-0.344074121,824,29,5.89282608,-2.18778348,-0.294885925,8.48433051,6.1700479,4.84392309,9.83249362,0.483551679,0.09,-1.83256682,2026-02-15T09:31:12.727Z
945.123718,1774.13689,0.959091961,2.3494122,-2.41713953,8.77899551,-1.03100526,6.13118219,1.0121394,13.3024513,96.3731677,0.932295499,21,1771147872736818,0.276749563,-4.75133129,11.7092545,89.2380524,49.184082,-0.344073886,824,29,5.87965536,-2.16524792,-0.2455357,8.51884562,6.19663572,5.0173521,9.87927788,0.480648716,0.09,-1.71922601,2026-02-15T09:31:12.736Z
945.133728,1774.15486,0.956247091,2.16556144,-3.07981253,8.75337601,-1.05662405,6.13175106,0.993409385,13.3173663,96.6438489,0.93433344,21,1771147872746302,8.02257293,-4.16222652,12.4647728,89.2841339,49.184082,-0.344073652,824,29,5.86648464,-2.14271259,-0.201014262,8.47735178,6.22326043,5.19078112,9.92698372,0.477745753,0.09,-1.59847012,2026-02-15T09:31:12.746Z
945.143738,1774.1729,0.9533934,1.75859296,-2.57592702,9.0204792,-0.789520919,6.13232136,0.974679369,13.3322813,96.9145301,0.93637138,21,1771147872755813,15.6720739,-3.1695506,12.8581385,89.3303528,49.184082,-0.344073416,824,29,5.85331392,-2.12017703,-0.164395972,8.35895697,6.25000382,5.36474133,9.96786679,0.47484279,0.09,-1.47197718,2026-02-15T09:31:12.755Z
945.153687,1774.19093,0.950539768,2.38109946,-2.3305378,8.22725582,-1.58274436,6.13289261,0.955949354,13.3471963,97.1852113,0.938409321,21,1771147872765326,23.7475385,-2.40898654,13.3230194,89.3765717,49.184082,-0.344073181,824,29,5.8401432,-2.09764171,-0.136357287,8.16088269,6.276784,5.53869772,9.99417934,0.471939827,0.09,-1.34040283,2026-02-15T09:31:12.765Z
945.163696,1774.2089,0.947694778,1.98865473,-3.02163911,7.8889637,-1.92103648,6.133461,0.937219338,13.3621113,97.4558925,0.940447262,21,1771147872774809,30.8945046,-1.27462994,13.8690368,89.4226456,49.184082,-0.344072947,824,29,5.82697248,-2.07510614,-0.117951648,7.88797377,6.30352024,5.71212578,10.0426916,0.469036864,0.09,-1.20457785,2026-02-15T09:31:12.774Z
945.173706,1774.22688,0.944849789,1.09393251,-1.64853716,8.48238087,-1.32761919,6.13403034,0.918489323,13.3770262,97.7265737,0.942485203,21,1771147872784292,40.5977459,-0.5059763,13.9287711,89.4687271,49.184082,-0.344072712,824,29,5.81380177,-2.05257058,-0.109053555,7.53090858,6.33029381,5.88555527,10.0768895,0.466133901,0.09,-1.06572471,2026-02-15T09:31:12.784Z
945.183716,1774.24486,0.942004859,0.828407526,0.395455301,7.44245911,-2.36754155,6.13459921,0.899759307,13.3919412,97.9972549,0.944523144,21,1771147872793775,48.363617,0.278525316,13.6068986,89.5148087,49.184082,-0.344072477,824,29,5.80063105,-2.03003526,-0.107919723,7.08651283,6.35710484,6.05898428,10.0788051,0.463230939,0.09,-0.928181627,2026-02-15T09:31:12.793Z
945.193726,1774.26283,0.941225827,0.822629988,1.39749932,6.7499404,-3.06006002,6.13288784,0.881029292,13.4068562,98.2679361,0.946561085,21,1771147872804150,47.9706652,0.902935724,13.4565989,89.5203171,49.184082,-0.344072219,824,29,5.78746033,-2.00749969,-0.113824305,6.60531331,6.38395341,6.17228079,10.071418,0.460327976,0.09,-0.792996887,2026-02-15T09:31:12.804Z
945.203735,1774.28087,0.943046033,0.69730866,1.53227794,6.80985928,-3.00014138,6.12830019,0.862299276,13.4217712,98.5386173,0.948599026,21,1771147872815682,45.3859668,1.74212639,13.1782233,89.4747391,49.184082,-0.344071931,824,29,5.77428961,-1.98496425,-0.127040796,6.13899815,6.41092199,6.21020365,10.0641651,0.457425013,0.09,-0.659954057,2026-02-15T09:31:12.815Z
945.213684,1774.2989,0.945396781,0.625588238,1.10908449,6.79924679,-3.01075363,6.12312698,0.843569261,13.4366862,98.8092985,0.950636967,21,1771147872827442,42.0997594,2.50501151,12.8431254,89.4187469,49.184082,-0.344071637,824,29,5.76111889,-1.96242881,-0.148383964,5.69932341,6.43792794,6.23268461,10.0526719,0.45452205,0.09,-0.529180325,2026-02-15T09:31:12.827Z
945.223694,1774.31687,0.947741747,0.822699964,0.519654691,7.04230022,-2.7677002,6.11796856,0.824839246,13.4516012,99.0799797,0.952674908,21,1771147872839166,39.7681419,3.08081654,12.3162966,89.3628998,49.184082,-0.344071343,824,29,5.74794817,-1.93989325,-0.176283053,5.29037189,6.46488985,6.2550559,10.0390516,0.451619087,0.09,-0.403503386,2026-02-15T09:31:12.839Z
945.233704,1774.33485,0.950086713,0.807816565,-0.0150085771,7.34322453,-2.46677613,6.11280918,0.80610923,13.4665161,99.3506609,0.954712849,21,1771147872850892,39.4810712,3.49026204,11.4568258,89.307045,49.184082,-0.34407105,824,29,5.73477745,-1.9173578,-0.209104395,4.894511,6.49188962,6.27742767,10.0329334,0.448716124,0.09,-0.284749552,2026-02-15T09:31:12.850Z
945.243713,1774.35283,0.952431738,0.504177392,0.216746673,7.07124281,-2.73875785,6.10765028,0.787379215,13.4814311,99.6213421,0.95675079,21,1771147872862616,41.3571736,3.66359223,10.4736392,89.2511902,49.184082,-0.344070756,824,29,5.72160673,-1.89482236,-0.244838858,4.49071315,6.51892735,6.29979849,10.0266151,0.445813161,0.09,-0.175204706,2026-02-15T09:31:12.862Z
945.253723,1774.37081,0.954776645,0.0255715288,0.400988221,7.54741526,-2.26258516,6.10249138,0.768649199,13.4963461,99.8920233,0.958788731,21,1771147872874341,43.9319725,3.50439809,9.62520297,89.195343,49.184082,-0.344070463,824,29,5.70843601,-1.8722868,-0.280643067,4.06467092,6.54600306,6.3221693,10.0097052,0.442910198,0.09,-0.0748126713,2026-02-15T09:31:12.874Z
945.263733,1774.38884,0.957128882,-0.389242679,0.848159075,7.72003794,-2.08996248,6.09731674,0.749919184,13.5112611,100.162705,0.960826672,21,1771147872886101,46.4333306,3.11342731,8.78087863,89.1393204,49.184082,-0.344070168,824,29,5.69526529,-1.84975135,-0.313698007,3.61327304,6.57319988,6.34460926,9.97602164,0.440007235,0.09,0.0171238448,2026-02-15T09:31:12.886Z
945.273682,1774.40687,0.958900988,-0.777102232,1.65508366,7.7530818,-2.05691862,6.09306574,0.759871452,13.5315326,100.480522,0.962464299,21,1771147872897061,48.8871051,2.61541602,7.8721237,89.1064987,49.184082,-0.344069894,824,29,5.68874788,-1.91142702,-0.342488595,3.13422795,6.60043435,6.36391783,9.92769976,0.438826344,0.0903912188,0.100814722,2026-02-15T09:31:12.897Z
945.283691,1774.42485,0.958598852,-0.772614658,2.66510653,8.52901077,-1.28099012,6.09212065,0.769895388,13.5518174,100.798457,0.964100925,21,1771147872905128,50.4806786,2.10901568,6.66382821,89.1565399,49.184082,-0.344069696,824,29,5.68224764,-1.97331297,-0.366090182,2.63788156,6.62762431,6.37199974,9.86651015,0.437649755,0.0907834151,0.173429455,2026-02-15T09:31:12.905Z
945.293701,1774.44282,0.956799507,-1.00030637,2.95525002,9.18487549,-0.625124753,6.09356022,0.779919324,13.5721023,101.116392,0.965737552,21,1771147872911126,47.9061077,2.33645821,5.82858981,89.2664642,49.184082,-0.344069551,824,29,5.67574692,-2.03519893,-0.388294758,2.14641504,6.65485229,6.37199974,9.80637303,0.436473166,0.0911756113,0.235834675,2026-02-15T09:31:12.911Z
945.303711,1774.4608,0.955000222,-1.60380387,3.70039511,9.5742321,-0.235767841,6.09499979,0.78994326,13.5923871,101.434327,0.967374178,21,1771147872917123,43.0100843,2.60044577,4.86365751,89.3763885,49.184082,-0.344069406,824,29,5.6692462,-2.097085,-0.412954686,1.69226813,6.68211824,6.37199974,9.73892682,0.435296577,0.0915678076,0.289245616,2026-02-15T09:31:12.917Z
945.313721,1774.47878,0.953200817,-1.849383,2.71291995,11.418993,1.60899305,6.09643936,0.799967196,13.612672,101.752262,0.969010805,21,1771147872923121,35.8268341,2.67889763,4.16483019,89.4863281,49.184082,-0.344069262,824,29,5.66274595,-2.15897107,-0.439326032,1.29850313,6.70942214,6.37199974,9.65070795,0.434119988,0.0919600039,0.334340607,2026-02-15T09:31:12.923Z
945.323730,1774.49681,0.951395988,-1.55187869,2.69450021,10.6119146,0.801913857,6.09788322,0.809991132,13.6329568,102.070197,0.970647431,21,1771147872929137,29.2136658,2.29904688,3.49969728,89.5965881,49.184082,-0.344069116,824,29,5.65624523,-2.22085714,-0.464189618,0.973650075,6.73684771,6.37199974,9.55481096,0.432943399,0.0923522002,0.37262262,2026-02-15T09:31:12.929Z
945.333679,1774.51484,0.949591219,-0.964401484,2.06678581,10.6689091,0.858908832,6.09932709,0.820015067,13.6532417,102.388132,0.972284058,21,1771147872935153,22.8721073,1.90739117,2.97162853,89.7068405,49.184082,-0.344068971,824,29,5.64974451,-2.28274298,-0.485328301,0.711907409,6.76431061,6.37199974,9.47039732,0.43176681,0.0927443965,0.405143323,2026-02-15T09:31:12.935Z
945.343689,1774.53282,0.947791874,-1.00646615,-1.02705991,11.3825541,1.57255387,6.10076666,0.830039003,13.6735265,102.706067,0.973920684,21,1771147872941151,20.4827671,1.67845741,2.47201258,89.8167725,49.184082,-0.344068826,824,29,5.64324427,-2.34462905,-0.503241154,0.495332804,6.79172794,6.37199974,9.40867895,0.430590222,0.0931365928,0.432337397,2026-02-15T09:31:12.941Z
945.353699,1774.55079,0.94599247,0.0355154723,-0.946261108,9.31483173,-0.495168388,6.10220575,0.840062939,13.6938114,103.024002,0.975557311,21,1771147872947149,23.9798512,0.879520391,1.70301412,89.9267044,49.184082,-0.344068682,824,29,5.63674355,-2.40651512,-0.516022456,0.273253613,6.81918281,6.37199974,9.34630013,0.429413633,0.0935287891,0.453195909,2026-02-15T09:31:12.947Z
945.363708,1774.56877,0.944193184,2.07498145,-1.60889006,11.9642973,2.15429711,6.10364532,0.850086875,13.7140962,103.341938,0.977193938,21,1771147872953146,29.4132119,0.224780238,0.886653646,90.0366287,49.184082,-0.344068537,824,29,5.63024282,-2.46840119,-0.521541432,0.00657248613,6.84667506,6.37199974,9.32226256,0.428237044,0.0939209854,0.466135181,2026-02-15T09:31:12.953Z
945.373718,1774.58675,0.942393839,2.30345678,-0.818832874,10.3938913,0.583891273,6.1050849,0.860110811,13.7343811,103.659873,0.978830564,21,1771147872959144,34.600507,0.40401622,-0.0763481614,90.146553,49.184082,-0.344068392,824,29,5.62374258,-2.53028703,-0.524683222,-0.313209147,6.87420457,6.37199974,9.37215728,0.427060455,0.0943131817,0.470178059,2026-02-15T09:31:12.959Z
945.383728,1774.60472,0.940594494,1.75105262,1.09868956,11.1342344,1.32423413,6.10652447,0.870134747,13.7546659,103.977808,0.980467191,21,1771147872965143,37.5219629,0.537568676,-0.907232711,90.256485,49.184082,-0.344068247,824,29,5.61724186,-2.5921731,-0.529387203,-0.673483879,6.90177114,6.37199974,9.43004566,0.425883866,0.094705378,0.465260909,2026-02-15T09:31:12.965Z
945.393738,1774.62275,0.938789606,1.17574155,1.29723704,11.6877708,1.87777054,6.10796833,0.880158682,13.7749507,104.295743,0.982103817,21,1771147872971159,36.7343398,0.887538281,-1.37424993,90.3667526,49.184082,-0.344068102,824,29,5.61074114,-2.65405917,-0.536507491,-1.04439927,6.92945914,6.37199974,9.46776401,0.424707277,0.0950975742,0.453862363,2026-02-15T09:31:12.971Z
945.403687,1774.64079,0.936984837,0.0689155236,0.541256487,11.7294569,1.91945612,6.10941172,0.890182618,13.7952356,104.613678,0.983740444,21,1771147872977174,32.5751862,0.551670552,-1.62604577,90.4770126,49.184082,-0.344067957,824,29,5.60424089,-2.71594524,-0.54374193,-1.39273949,6.95718347,6.37199974,9.48470855,0.423530688,0.0954897705,0.438785078,2026-02-15T09:31:12.977Z
945.413696,1774.65876,0.935185492,3.08827543,1.37109721,12.1877518,2.37775087,6.11085176,0.900206554,13.8155204,104.931613,0.98537707,21,1771147872983173,25.4490766,-1.75344198,-2.11631044,90.586937,49.184082,-0.344067812,824,29,5.59774017,-2.77783108,-0.537750171,-1.68261244,6.98486021,6.37199974,9.46183001,0.4223541,0.0958819668,0.420093944,2026-02-15T09:31:12.983Z
945.423706,1774.67674,0.933386087,4.32930326,-0.350108504,11.8163528,2.00635242,6.11229086,0.91023049,13.8358053,105.249548,0.987013697,21,1771147872989170,18.2376911,-2.51386962,-2.11734958,90.6968765,49.184082,-0.344067667,824,29,5.59123945,-2.83971715,-0.516438137,-1.90086834,7.01257317,6.37199974,9.54811091,0.421177511,0.0962741631,0.398946301,2026-02-15T09:31:12.989Z
945.433716,1774.69472,0.931586862,3.80931759,-0.644826055,11.3121138,1.50211358,6.11373043,0.920254426,13.8560901,105.567483,0.988650323,21,1771147872995168,14.2802178,-3.0477393,-2.10317753,90.8068008,49.184082,-0.344067522,824,29,5.58473921,-2.90160322,-0.488655648,-2.06328759,7.04032212,6.37199974,9.67848695,0.420000922,0.0966663594,0.377864295,2026-02-15T09:31:12.995Z
945.443726,1774.71269,0.930344641,2.49038625,-2.1154542,12.0347843,2.22478342,6.11459684,0.930278361,13.876375,105.885418,0.99028695,21,1771147873003562,14.5477472,-3.66910974,-2.09542653,90.8688202,49.184082,-0.344067312,824,29,5.57823849,-2.96348929,-0.455101141,-2.20728813,7.06810678,6.38394403,9.78913269,0.418824333,0.0970585557,0.356891794,2026-02-15T09:31:13.003Z
945.453735,1774.73073,0.930000961,1.96792483,-3.07493639,11.1730995,1.36309874,6.11453676,0.940302297,13.8966598,106.203353,0.991923576,21,1771147873015863,19.8807004,-4.04812253,-2.35131865,90.8534546,49.184082,-0.344066995,824,29,5.57173777,-3.02537513,-0.416550787,-2.37928843,7.09601211,6.4152689,9.8515155,0.417647744,0.097450752,0.334678511,2026-02-15T09:31:13.015Z
945.463684,1774.74876,0.930000007,2.46085262,-1.33675396,11.6098146,1.79981411,6.1141243,0.950326233,13.9169447,106.521288,0.993560203,21,1771147873029638,28.1545867,-4.56956414,-2.68202292,90.8086243,49.184082,-0.344066638,824,29,5.56523752,-3.0872612,-0.373242571,-2.62068071,7.12395219,6.45394039,9.89506919,0.416471155,0.0978429483,0.309383445,2026-02-15T09:31:13.029Z
945.473694,1774.76673,0.930000007,3.2839222,-0.136730686,12.5913239,2.78132343,6.11371279,0.960350169,13.9372295,106.839223,0.99519683,21,1771147873043375,35.5208293,-5.28790062,-2.5477769,90.7638397,49.184082,-0.344066282,824,29,5.5587368,-3.14914727,-0.324006822,-2.93871134,7.15184242,6.49251509,9.95586076,0.415294566,0.0982351446,0.283259309,2026-02-15T09:31:13.043Z
945.483704,1774.78471,0.930000007,3.87219405,-0.988707781,11.6716433,1.8616432,6.11330032,0.970374105,13.9575144,107.157159,0.996833456,21,1771147873057113,42.3781619,-6.33482681,-2.07026633,90.7190628,49.184082,-0.344065926,824,29,5.55223608,-3.21103334,-0.265954983,-3.32779287,7.17976716,6.53108883,10.0459337,0.414117977,0.0986273409,0.260189291,2026-02-15T09:31:13.057Z
945.493713,1774.80269,0.930000007,3.95178485,2.39796162,11.6287498,1.81874967,6.11288834,0.980398041,13.9777992,107.475094,0.998470083,21,1771147873070850,46.6339207,-7.39663804,-2.00775776,90.6742783,49.184082,-0.34406557,824,29,5.54573584,-3.27291942,-0.197364101,-3.77242125,7.20772609,6.56966352,10.1565621,0.412941389,0.0990195371,0.239819095,2026-02-15T09:31:13.070Z
945.503723,1774.82066,0.930000007,3.65547252,3.77587056,11.390501,1.58050048,6.11247587,0.990421976,13.9980841,107.793029,1.00010671,21,1771147873084588,44.8928901,-8.39491854,-1.34713081,90.6294937,49.184082,-0.344065213,824,29,5.53923512,-3.33480525,-0.118478486,-4.22960031,7.23571888,6.60823822,10.269228,0.4117648,0.0994117334,0.22306424,2026-02-15T09:31:13.084Z
945.513733,1774.8387,0.930000007,3.05768681,3.07627249,12.2144814,2.40448117,6.11206245,1.00044591,14.0183689,108.110964,1.00174334,21,1771147873098366,38.760329,-8.89456779,-0.478264348,90.5845795,49.184082,-0.344064856,824,29,5.53273439,-3.39669132,-0.0321129705,-4.64742846,7.26383104,6.64693069,10.3703911,0.410588211,0.0998039297,0.213950397,2026-02-15T09:31:13.098Z
945.523682,1774.85673,0.930000007,2.68825173,5.35617495,9.98187637,0.171876311,6.11164951,1.01046985,14.0386538,108.428899,1.00337996,21,1771147873112146,30.0092947,-9.01061307,-0.207773204,90.5396652,49.184082,-0.344064499,824,29,5.52623415,-3.45857739,0.0578716538,-4.99303208,7.2919759,6.68562174,10.4497705,0.409411622,0.100196126,0.210502844,2026-02-15T09:31:13.112Z
945.533691,1774.8747,0.930000007,2.55041265,5.66537333,9.89274883,0.0827483162,6.11123705,1.02049378,14.0589386,108.746834,1.00501659,21,1771147873125883,16.6510189,-8.15353108,0.396799011,90.4948883,49.184082,-0.344064143,825,29,5.51973343,-3.52046347,0.143612798,-5.22617091,7.32006824,6.72419691,10.5149113,0.408235033,0.100588322,0.211444117,2026-02-15T09:31:13.125Z
945.543701,1774.89268,0.930000007,4.33934593,4.91049194,10.1112089,0.301208884,6.11082506,1.03051772,14.0792235,109.064769,1.00665322,21,1771147873139620,-1.11101157,-6.28151485,1.32612351,90.4501038,49.184082,-0.344063786,825,29,5.51323271,-3.5823493,0.215726741,-5.30388174,7.34819296,6.76277113,10.5746568,0.407058444,0.100980519,0.220045796,2026-02-15T09:31:13.139Z
945.553711,1774.91066,0.930000007,4.56834221,3.96218801,10.2419491,0.431948215,6.1104126,1.04054166,14.0995083,109.382704,1.00828984,21,1771147873153358,-7.57410512,-5.8349101,1.87099993,90.4053345,49.184082,-0.34406343,825,29,5.50673246,-3.64423537,0.276250623,-5.260511,7.3763497,6.80134535,10.6984828,0.405881855,0.101372715,0.236014766,2026-02-15T09:31:13.153Z
945.563721,1774.92863,0.930000007,4.59199572,1.40234399,12.1840744,2.37407446,6.11000109,1.05056559,14.1197932,109.700639,1.00992647,21,1771147873167095,-9.5657828,-5.66965999,2.50763388,90.3605423,49.184082,-0.344063074,825,29,5.50023174,-3.70612144,0.333716549,-5.17488547,7.4045381,6.83992004,10.8295937,0.404705266,0.101764911,0.25788968,2026-02-15T09:31:13.167Z
945.573730,1774.94667,0.930000007,3.95699024,-1.3880527,11.2428017,1.43280101,6.10958767,1.06058953,14.140078,110.018574,1.01156309,21,1771147873180875,-4.54062354,-6.00486001,2.50253814,90.3156281,49.184082,-0.344062717,825,29,5.49373102,-3.76800752,0.392033837,-5.10444679,7.43284423,6.87861252,10.9605271,0.403528678,0.102157107,0.282916067,2026-02-15T09:31:13.180Z
945.583679,1774.9647,0.929956675,3.22869277,-2.67027211,10.8398466,1.02984667,6.1091814,1.07061346,14.1603629,110.336509,1.01319972,21,1771147873194549,7.88444416,-6.44967821,1.81008703,90.2863922,49.184082,-0.34406236,825,29.0043335,5.48723078,-3.82989335,0.454626907,-5.12128946,7.46118073,6.91900778,11.0681733,0.402352089,0.102549304,0.30458756,2026-02-15T09:31:13.194Z
945.593689,1774.98267,0.929360449,2.46505475,-1.00712609,10.2731056,0.463105649,6.10887194,1.0806374,14.1806477,110.654444,1.01483635,21,1771147873206853,25.254962,-6.40689856,0.570307093,90.4573898,49.184082,-0.344062011,825,29.063961,5.48073006,-3.89177942,0.518847279,-5.28674037,7.48946183,6.98103285,11.1482854,0.4011755,0.1029415,0.31648394,2026-02-15T09:31:13.206Z
945.603699,1775.00065,0.928252995,2.07913351,0.410196364,9.84836769,0.0383672453,6.10865116,1.09066133,14.2009326,110.97238,1.01647297,21,1771147873217928,39.3730082,-6.11369708,-0.87144283,90.8133621,49.184082,-0.344061668,825,29.1747055,5.47422934,-3.95366549,0.581390605,-5.60949613,7.517773,7.0631609,11.2004021,0.399998911,0.103333696,0.314986754,2026-02-15T09:31:13.217Z
945.613708,1775.01863,0.927145541,1.81815803,6.0956254,9.62886429,-0.18113637,6.10842896,1.10068527,14.2212174,111.290315,1.0181096,21,1771147873229002,43.9379488,-5.40211786,-1.86033755,91.1693344,49.184082,-0.344061324,825,29.2854481,5.46772909,-4.01555157,0.638916613,-6.02562458,7.54611383,7.14528894,11.2383963,0.398822322,0.103725893,0.301345498,2026-02-15T09:31:13.229Z
945.623718,1775.03661,0.926038086,1.26759923,7.90973711,9.61247349,-0.19752726,6.1082077,1.11070921,14.2415023,111.60825,1.01974623,21,1771147873240076,39.2266927,-4.43391673,-1.25214802,91.5252991,49.184082,-0.344060981,825,29.3961945,5.46122837,-4.0774374,0.688044083,-6.44101912,7.57448396,7.22741747,11.2668993,0.397645733,0.104118089,0.28580122,2026-02-15T09:31:13.240Z
945.633728,1775.05458,0.924930632,0.869278073,5.09396982,9.37389851,-0.436102062,6.10798597,1.12073314,14.2617871,111.926185,1.02138285,21,1771147873251150,28.786084,-3.92602156,-0.129853358,91.8812714,49.184082,-0.344060638,825,29.5069389,5.45472765,-4.13932371,0.729800527,-6.78070036,7.60288296,7.30954504,11.2756002,0.396469144,0.104510285,0.278903423,2026-02-15T09:31:13.251Z
945.643738,1775.07261,0.92381984,0.86269331,5.00518656,9.50911331,-0.300887078,6.10776377,1.13075708,14.282072,112.24412,1.02301948,21,1771147873262260,22.2165804,-3.86905853,-0.102843643,92.2383347,49.184082,-0.344060294,825,29.618021,5.44822741,-4.20120955,0.768737634,-7.03543304,7.63139752,7.3919239,11.2701724,0.395292556,0.104902481,0.277741183,2026-02-15T09:31:13.262Z
945.653687,1775.09065,0.922708988,1.38599634,2.97052956,9.59765816,-0.21234253,6.10754156,1.14078101,14.3023568,112.562055,1.02465611,21,1771147873273367,18.842749,-3.52116716,-0.236243478,92.5953827,49.184082,-0.344059949,825,29.729105,5.44172668,-4.26309538,0.805879502,-7.24179478,7.65993976,7.47430229,11.2648553,0.394115967,0.105294678,0.276037669,2026-02-15T09:31:13.273Z
945.663696,1775.10862,0.921601593,2.41020823,5.44929123,9.04063511,-0.769365788,6.10732079,1.15080495,14.3226417,112.87999,1.02629273,21,1771147873284442,16.8383776,-2.81136154,-1.25612001,92.9513321,49.184082,-0.344059606,825,29.8398438,5.43522596,-4.32498169,0.837514707,-7.4200361,7.68842318,7.5564332,11.2786523,0.392939378,0.105686874,0.268588106,2026-02-15T09:31:13.284Z
945.673706,1775.1266,0.92052418,2.04019451,4.36742449,9.12718964,-0.682810843,6.10713387,1.16082889,14.3429265,113.197925,1.02792936,21,1771147873295460,13.556551,-1.84435982,-1.2941202,93.2858124,49.184082,-0.344059263,825,29.9475803,5.42872572,-4.38686752,0.860775319,-7.57187848,7.7169339,7.64092159,11.3294811,0.391762789,0.10607907,0.25584953,2026-02-15T09:31:13.295Z
945.683716,1775.14458,0.920000434,2.09007835,3.87799239,7.76389742,-2.046103,6.1075983,1.17085282,14.3632114,113.51586,1.02956599,21,1771147873305440,10.8290193,-1.2002676,-1.50977865,93.2246094,49.184082,-0.344058926,825,29.999958,5.422225,-4.44875336,0.875981705,-7.69367933,7.74547157,7.76888657,11.3667659,0.3905862,0.106471267,0.241843077,2026-02-15T09:31:13.305Z
945.693726,1775.16255,0.920000017,2.48805523,1.92845273,9.08183193,-0.728168607,6.10867786,1.18087676,14.3834962,113.833795,1.03120261,21,1771147873314439,7.78832426,-0.11160471,-2.24454475,92.7893448,49.184082,-0.344058593,825,30,5.41572428,-4.51063967,0.882529361,-7.78666042,7.77403579,7.93795109,11.4057577,0.389409611,0.106863463,0.223086192,2026-02-15T09:31:13.314Z
945.703735,1775.18058,0.920000017,2.71295214,3.02168441,7.91679621,-1.89320409,6.10976076,1.19090069,14.4037811,114.15173,1.03283924,21,1771147873323465,6.36593093,0.430942159,-3.55587765,92.3524551,49.184082,-0.344058259,825,30,5.40922403,-4.5725255,0.880931604,-7.85735577,7.80271376,8.10756588,11.4589585,0.388233022,0.107255659,0.19410599,2026-02-15T09:31:13.323Z
945.713684,1775.19862,0.920000017,2.304703,4.15015411,7.4616704,-2.34833002,6.11084414,1.20092463,14.4240659,114.469665,1.03447587,21,1771147873332490,3.06151792,0.628613868,-4.51043291,91.9155731,49.184082,-0.344057926,825,30,5.40272331,-4.63441181,0.875606986,-7.90474032,7.83141707,8.27717781,11.5203397,0.387056433,0.107647856,0.153569435,2026-02-15T09:31:13.332Z
945.723694,1775.21659,0.920000017,1.46666288,2.77879333,7.03946733,-2.77053332,6.11192369,1.21094856,14.4443508,114.7876,1.03611249,21,1771147873341489,-1.61799139,0.552459354,-4.89187442,91.480011,49.184082,-0.344057593,825,30,5.39622259,-4.69629765,0.869707012,-7.91197369,7.86005881,8.44627571,11.5664044,0.385879845,0.108040052,0.106605612,2026-02-15T09:31:13.341Z
945.733704,1775.23457,0.920000017,0.916681111,2.64066911,6.00863361,-3.80136681,6.11300325,1.2209725,14.4646356,115.105536,1.03774912,21,1771147873350488,-5.0806187,0.3576412,-5.78958318,91.0444565,49.184082,-0.344057261,825,30,5.38972235,-4.75818348,0.865159998,-7.87853019,7.8887256,8.61537266,11.5821446,0.384703256,0.108432248,0.053254805,2026-02-15T09:31:13.350Z
945.743713,1775.25255,0.920000017,-0.166422486,2.58468032,5.78157902,-4.0284214,6.11408377,1.23099644,14.4849205,115.423471,1.03938575,21,1771147873359486,-8.17630009,0.421644004,-6.39143983,90.6088943,49.184082,-0.344056928,825,30,5.38322163,-4.82006979,0.861267341,-7.81230869,7.91741712,8.7844696,11.5782317,0.383526667,0.108824444,-0.00759119722,2026-02-15T09:31:13.359Z
945.753723,1775.27052,0.920000017,-0.730848908,2.17151403,6.45804834,-3.35195208,6.11516333,1.24102037,14.5052053,115.741406,1.04102237,21,1771147873368484,-13.1562114,0.362643988,-6.38866961,90.1733398,49.184082,-0.344056596,825,30,5.37672091,-4.88195562,0.857350015,-7.70572592,7.946133,8.95356655,11.5356739,0.382350078,0.109216641,-0.0714293858,2026-02-15T09:31:13.368Z
945.763733,1775.28855,0.920000017,-0.814443588,1.46632278,5.56146049,-4.24853992,6.11624622,1.25104431,14.5254902,116.059341,1.042659,21,1771147873377510,-17.2077966,0.480415973,-6.23670105,89.7364426,49.184082,-0.344056262,825,30,5.37022066,-4.94384193,0.853138252,-7.55403431,7.97496096,9.1231823,11.4735286,0.381173489,0.109608837,-0.134493911,2026-02-15T09:31:13.377Z
945.773682,1775.30659,0.920000017,1.16376519,-2.12054563,6.49963903,-3.31036139,6.1173296,1.26100925,14.5458949,116.377105,1.04429621,21,1771147873386535,-19.792823,0.138906295,-5.75493755,89.2995605,49.184082,-0.344055929,825,30,5.36378479,-5.00548697,0.850026001,-7.36808151,8.00381208,9.29279327,11.4090834,0.379994846,0.110001718,-0.194758884,2026-02-15T09:31:13.386Z
945.783691,1775.32456,0.920000017,1.40816391,-2.21458912,7.03933001,-2.77067018,6.11840582,1.24864049,14.6116714,116.630178,1.04615544,21,1771147873395534,-19.3252864,-0.0669907142,-5.33389654,88.8639221,49.184082,-0.344055596,825,30,5.38186359,-4.9759531,0.849665771,-7.17267947,8.03259911,9.46173191,11.4169098,0.378038678,0.110653774,-0.250151008,2026-02-15T09:31:13.395Z
945.793701,1775.34254,0.920000017,1.77126956,-1.90564799,7.68241358,-2.12758684,6.11756992,1.23627172,14.677448,116.883251,1.04801467,21,1771147873404769,-21.2743561,-0.1793391,-4.77875565,88.3755798,49.184082,-0.344055263,825,30,5.3999424,-4.94641924,0.850895667,-6.96988879,8.06140916,9.5356493,11.4337313,0.376082509,0.11130583,-0.300667643,2026-02-15T09:31:13.404Z
945.803711,1775.36052,0.920000017,1.73586261,-1.09463489,8.14570999,-1.66429079,6.11472368,1.22390296,14.7432246,117.136324,1.0498739,21,1771147873414251,-25.0241945,0.380422957,-4.20846149,87.8318787,49.184082,-0.344054929,825,30,5.4180212,-4.91688585,0.849892309,-6.73862912,8.09024192,9.50970459,11.4637454,0.37412634,0.111957887,-0.345560989,2026-02-15T09:31:13.414Z
945.813721,1775.37849,0.920000017,0.74945122,-1.9296174,8.36997986,-1.44002056,6.11178064,1.2115342,14.8090012,117.389397,1.05173313,21,1771147873423746,-30.2195623,0.950055294,-3.24427229,87.2855072,49.184082,-0.344054595,825,30,5.43610001,-4.88735199,0.84324363,-6.46265448,8.11909709,9.47894478,11.4924733,0.372170171,0.112609943,-0.382783601,2026-02-15T09:31:13.423Z
945.823730,1775.39653,0.920000017,-0.56118536,-1.84406602,9.10237122,-0.707629323,6.10882854,1.19916543,14.8747778,117.642469,1.05359236,21,1771147873433268,-36.2414352,1.77682446,-2.54225485,86.7374649,49.184082,-0.34405426,825,30,5.45417881,-4.85781813,0.829618508,-6.13064439,8.14806286,9.4480896,11.4857264,0.370214003,0.113261999,-0.411684597,2026-02-15T09:31:13.433Z
945.833679,1775.41456,0.920000017,-1.7903403,-2.00979781,9.7453537,-0.0646465048,6.10587597,1.18679667,14.9405544,117.895542,1.05545158,21,1771147873442792,-40.8270454,2.27598175,-1.64047104,86.1894226,49.184082,-0.344053925,825,30,5.47225809,-4.82828426,0.809249135,-5.74331366,8.17704987,9.41723442,11.4317479,0.368257834,0.113914055,-0.432702539,2026-02-15T09:31:13.442Z
945.843689,1775.43253,0.920000017,-2.7559762,-2.26898551,9.87455559,0.0645548105,6.10293293,1.17442791,15.006331,118.148615,1.05731081,21,1771147873452286,-42.3647098,3.03545302,-0.808155141,85.6430511,49.184082,-0.344053592,825,30,5.49033689,-4.7987504,0.782721567,-5.32776821,8.20597056,9.38647366,11.3348759,0.366301665,0.114566112,-0.444937772,2026-02-15T09:31:13.452Z
945.853699,1775.45051,0.920000017,-4.37409735,-1.43217051,10.832408,1.02240765,6.09998941,1.16205914,15.0721076,118.401688,1.05917004,21,1771147873461780,-41.7041071,3.44445985,-0.0364745412,85.0966797,49.184082,-0.344053258,825,30,5.5084157,-4.76921701,0.750355608,-4.90783101,8.23491249,9.35571194,11.2045543,0.364345496,0.115218168,-0.449160555,2026-02-15T09:31:13.461Z
945.863708,1775.46849,0.920000017,-5.00553226,-1.28579497,11.6898813,1.87988102,6.09704638,1.14969038,15.1378842,118.654761,1.06102927,21,1771147873471274,-40.0842865,3.44358006,1.00896618,84.5503082,49.184082,-0.344052924,825,30,5.5264945,-4.73968315,0.715949004,-4.49928094,8.26387539,9.32495117,11.017592,0.362389328,0.115870224,-0.444307407,2026-02-15T09:31:13.471Z
945.873718,1775.48646,0.920000017,-3.93150687,-1.37352455,12.2163754,2.40637469,6.09410286,1.13732162,15.2036607,118.907834,1.0628885,21,1771147873480769,-38.2049179,3.37290328,2.11433614,84.0039368,49.184082,-0.34405259,825,30,5.54457331,-4.71014929,0.681900184,-4.10822598,8.29285901,9.29418945,10.8100583,0.360433159,0.11652228,-0.42870074,2026-02-15T09:31:13.480Z
945.883728,1775.50444,0.920000017,-2.29310513,-0.326635212,11.1910744,1.38107395,6.09115982,1.12495286,15.2694373,119.160907,1.06474773,21,1771147873490263,-37.0350469,3.27628695,2.88667215,83.4575653,49.184082,-0.344052256,825,30,5.56265211,-4.68061543,0.648687138,-3.73239887,8.3218631,9.26342773,10.6435146,0.35847699,0.117174337,-0.403716337,2026-02-15T09:31:13.490Z
945.893738,1775.52511,0.920000017,-0.394929111,1.20750701,10.4006042,0.590603948,6.0877099,1.11258409,15.3352139,119.41398,1.06660696,21,1771147873500256,-43.0631679,5.01699585,3.98745633,83.1126938,49.184082,-0.34405191,825,30,5.58073092,-4.65108204,0.607252686,-3.33226909,8.35097628,9.21700764,10.5378494,0.356520821,0.117826393,-0.369373872,2026-02-15T09:31:13.500Z
945.903687,1775.55191,0.920000017,3.50170064,2.55952024,10.193943,0.383942127,6.08310127,1.10021533,15.4009905,119.667053,1.06846619,21,1771147873511343,-51.0242922,6.63486818,4.55166988,83.2403183,49.184082,-0.344051537,825,30,5.59880972,-4.62154818,0.548701627,-2.8594553,8.38010899,9.13438988,10.501881,0.354564653,0.118478449,-0.326461845,2026-02-15T09:31:13.511Z
