T,D,PDOP,acc_x,acc_y,acc_z,acc_z_,altitude,amp_pitch,amp_roll,cadence,d_stroke,gpsTimeAccuracyNs,gpstimeUs,gyro_x,gyro_y,gyro_z,heading,latitude,longitude,motif_id,nSat,pic_acc,pic_down,pitch,roll,speed,speed_gps,speed_i,t_acc,t_down,yaw,time
923.590942,1667.25501,0.860000014,-0.378492236,-0.121127605,9.44312477,-0.366875321,2.37745094,1.34410874,8.95266319,48.8222865,1.10310454,21,1771147753813479,-1.57598068,0.0537660019,3.3745166,97.6365814,49.1841316,-0.344089569,495,30.8638306,2.12434816,-9.84937763,0.025475327,2.4908526,4.13002925,0.391495913,1.41756587,0.283172402,2.3059873,1.60165283,2026-02-15T09:29:13.813Z
923.600952,1667.26161,0.860000014,-0.260548383,-0.612321615,9.80426311,-0.00573756965,2.37907958,1.34461918,8.95372951,48.8437954,1.10407756,21,1771147753822527,-1.75908014,0.00414636603,3.38018659,102.369957,49.1841316,-0.34408955,495,30.7733555,2.12411618,-9.8483429,0.0251858048,2.50751074,4.15282268,0.431558132,1.43104739,0.281898055,2.28860984,1.63539337,2026-02-15T09:29:13.822Z
923.610962,1667.26822,0.860000014,-0.202729344,-0.841364682,9.92983723,0.119836539,2.38070917,1.34512962,8.95479583,48.8653043,1.10505057,21,1771147753831581,-0.845626313,0.0939779399,3.50385468,107.106682,49.1841316,-0.344089531,495,30.6828175,2.1238842,-9.84730721,0.0246961001,2.52052602,4.1756606,0.471648723,1.44886591,0.280623707,2.27123237,1.66977939,2026-02-15T09:29:13.831Z
923.620972,1667.2748,0.860000014,-0.173025519,-0.669603467,9.56528854,-0.244711861,2.38233328,1.34564006,8.95586215,48.8868132,1.10602359,21,1771147753840604,1.08072129,0.186723279,3.56062436,111.827339,49.1841316,-0.344089512,495,30.5925865,2.12365222,-9.84627247,0.0232935188,2.51934246,4.19844914,0.511603236,1.46881611,0.27934936,2.25385491,1.7050676,2026-02-15T09:29:13.840Z
923.630981,1667.28138,0.860000014,-0.217062548,-0.208649918,9.54504204,-0.264958769,2.38395762,1.3461505,8.95692847,48.9083221,1.10699661,21,1771147753849626,1.38645733,0.164292322,3.56881224,116.547997,49.1841316,-0.344089494,495,30.5023537,2.12342024,-9.84523678,0.0215402634,2.50701713,4.22126556,0.551557839,1.48986297,0.278075013,2.23647745,1.74068004,2026-02-15T09:29:13.849Z
923.640991,1667.28797,0.860000014,-0.146533802,-0.199766144,9.74956799,-0.0604322478,2.38558173,1.34666095,8.95799478,48.929831,1.10796962,21,1771147753858649,0.511803887,0.093097268,3.53159926,121.268654,49.1841316,-0.344089475,495,30.4121227,2.12318802,-9.84420204,0.0202549178,2.49753935,4.24410975,0.591512382,1.50934372,0.276800665,2.21909998,1.77614728,2026-02-15T09:29:13.858Z
923.650940,1667.29455,0.860000014,-0.134449661,-0.360096276,9.7577877,-0.0522130951,2.38720584,1.34717139,8.9590611,48.9513399,1.10894264,21,1771147753867673,-0.831724557,0.0215705164,3.46952991,125.989342,49.1841316,-0.344089456,495,30.321888,2.12295604,-9.8431673,0.0196783938,2.49914238,4.26698171,0.631467164,1.53153022,0.275526318,2.20172252,1.81133245,2026-02-15T09:29:13.867Z
923.660950,1667.30115,0.860000014,-0.145632401,-0.254769951,9.64418507,-0.165815696,2.38883424,1.34768183,8.96012742,48.9728488,1.10991565,21,1771147753876720,-1.73168468,0.0408535622,3.40768861,130.722717,49.1841316,-0.344089437,495,30.2314148,2.12272406,-9.84213161,0.0193666717,2.51194254,4.28994287,0.671529412,1.55402297,0.274251971,2.18434505,1.84568529,2026-02-15T09:29:13.876Z
923.670959,1667.30776,0.860000014,-0.188340589,-0.279115409,9.75331402,-0.0566866286,2.39046407,1.34819227,8.96119374,48.9943577,1.11088867,21,1771147753885774,-2.69458588,0.0640735771,3.3006909,135.459427,49.1841316,-0.344089418,495,30.1408768,2.12249207,-9.84109688,0.018842661,2.53404761,4.31294796,0.711619914,1.57611931,0.272977623,2.16696759,1.87919499,2026-02-15T09:29:13.885Z
923.680969,1667.31435,0.860000014,-0.119663887,0.366024971,9.93354321,0.123542979,2.39208817,1.34870271,8.96226006,49.0158666,1.11186168,21,1771147753894797,-3.74396205,0.107789932,3.30444273,140.180084,49.1841316,-0.344089399,495,30.0506439,2.12226009,-9.84006214,0.0179840789,2.56621141,4.33590255,0.751574457,1.59668662,0.271703276,2.14959012,1.91218845,2026-02-15T09:29:13.894Z
923.690979,1667.32093,0.860000014,-0.0363028347,0.630795896,9.76127625,-0.048724547,2.39361405,1.34921315,8.96332638,49.0373755,1.1128347,21,1771147753902647,-5.98073256,0.0861043586,3.24711426,142.234909,49.1841316,-0.344089384,495,30.0285378,2.12202811,-9.83902645,0.0170156594,2.61479835,4.35888458,0.768265843,1.61974836,0.270428928,2.13221266,1.94491399,2026-02-15T09:29:13.902Z
923.700989,1667.32751,0.860000014,0.0576347299,0.857028008,9.78771305,-0.0222875215,2.39501667,1.34972359,8.96439269,49.0588844,1.11380772,21,1771147753909029,-9.09096891,-0.030046728,3.11549489,140.954178,49.1841316,-0.344089372,495,30.0916672,2.12179613,-9.83799171,0.0167362109,2.69009847,4.381894,0.755849719,1.64580737,0.269154581,2.1148352,1.97669536,2026-02-15T09:29:13.909Z
923.710938,1667.3341,0.860000014,0.211784765,0.635965347,9.8806591,0.0706591383,2.39641833,1.35023403,8.96545901,49.0803933,1.11478073,21,1771147753915400,-12.9068755,-0.216945998,3.07301784,139.65065,49.1841316,-0.344089361,495,30.1553802,2.12156415,-9.83695698,0.0179772891,2.80064675,4.4049308,0.743234754,1.67540726,0.267880234,2.09745773,2.00779645,2026-02-15T09:29:13.915Z
923.720947,1667.34068,0.860000014,0.411254495,0.989828527,9.90402794,0.0940274373,2.39782,1.35074448,8.96652533,49.1019022,1.11575375,21,1771147753921771,-16.3089366,-0.338214679,2.99118515,138.347076,49.1841316,-0.34408935,495,30.2190933,2.12133193,-9.83592129,0.0207497945,2.94656675,4.42799507,0.730619431,1.71028579,0.266605886,2.08008027,2.03808828,2026-02-15T09:29:13.921Z
923.730957,1667.34728,0.860000014,0.503583431,1.13476062,9.81020451,0.000203957505,2.39922547,1.35125492,8.96759165,49.1234111,1.11672676,21,1771147753928160,-20.028339,-0.454250458,2.90404543,137.039993,49.1841316,-0.344089338,495,30.28298,2.12109995,-9.83488655,0.0247076883,3.12805775,4.45114891,0.717970133,1.75222402,0.265331539,2.0627028,2.0675361,2026-02-15T09:29:13.928Z
923.740967,1667.35389,0.860000014,0.390526384,0.34514764,9.8886404,0.078639552,2.4006319,1.35176536,8.96865797,49.14492,1.11769978,21,1771147753934554,-24.8437179,-0.417001658,2.57551152,135.73201,49.1841316,-0.344089327,495,30.3469105,2.12086797,-9.83385181,0.0290597021,3.35219874,4.47434676,0.705311954,1.79730039,0.264057191,2.04532534,2.09490719,2026-02-15T09:29:13.934Z
923.750977,1667.36047,0.860000014,0.0408913679,-0.496362776,9.79355049,-0.0164496154,2.40203357,1.3522758,8.96972429,49.1664289,1.11867279,21,1771147753940924,-26.70841,-0.278534299,2.40503464,134.428436,49.1841316,-0.344089315,495,30.4106236,2.12063599,-9.83281612,0.0325333137,3.60971697,4.49749347,0.692696631,1.83808997,0.262782844,2.02794787,2.11978479,2026-02-15T09:29:13.940Z
923.760986,1667.36706,0.860000014,-0.277683467,-1.02816892,9.41425419,-0.395746559,2.40343547,1.35278624,8.97079061,49.1879378,1.11964581,21,1771147753947296,-24.5906391,-0.13994178,2.41258447,133.124878,49.1841316,-0.344089304,495,30.4743385,2.12040401,-9.83178139,0.0346229787,3.86595162,4.52066764,0.680081367,1.86612873,0.261508497,2.01057041,2.14384943,2026-02-15T09:29:13.947Z
923.770935,1667.37364,0.860000014,-0.494046181,-1.02009022,9.36355686,-0.446443766,2.40483713,1.35329668,8.97185692,49.2094467,1.12061883,21,1771147753953668,-22.044811,-0.135711372,2.55446953,131.82132,49.1841316,-0.344089293,495,30.5380497,2.12017202,-9.8307457,0.036008269,4.10032002,4.54386933,0.667466044,1.88274146,0.260234149,1.99319294,2.16881208,2026-02-15T09:29:13.953Z
923.780945,1667.38023,0.860000014,-0.653152764,-1.21328294,9.35949421,-0.450506419,2.40623879,1.35380712,8.97292324,49.2309556,1.12159184,21,1771147753960039,-18.3195817,-0.427808114,2.68258997,130.517746,49.1841316,-0.344089281,495,30.6017647,2.11994004,-9.82971096,0.0388216982,4.30196319,4.56709874,0.654850662,1.8915639,0.258959802,1.97581548,2.19497121,2026-02-15T09:29:13.960Z
923.790955,1667.38683,0.860000014,-0.950940549,-0.561516523,9.30237865,-0.507622004,2.40764427,1.35431757,8.97398956,49.2524645,1.12256486,21,1771147753966427,-14.2647841,-0.759579134,2.80383707,129.210663,49.1841316,-0.34408927,495,30.6656494,2.11970806,-9.82867622,0.0447512266,4.46474583,4.59041839,0.642201483,1.89481283,0.257685454,1.95843802,2.22237599,2026-02-15T09:29:13.966Z
923.800964,1667.39343,0.860000014,-1.45683014,-0.256999344,8.76927662,-1.04072416,2.40905094,1.35482801,8.97505588,49.2739734,1.12353787,21,1771147753972821,-12.0095839,-1.12829156,2.73172066,127.902664,49.1841316,-0.344089258,495,30.7295799,2.11947608,-9.82764053,0.05418044,4.5959952,4.61378249,0.629543245,1.88755538,0.256411107,1.94106055,2.25002695,2026-02-15T09:29:13.972Z
923.810974,1667.40002,0.860000014,-2.12607837,-1.3078264,8.77420712,-1.03579366,2.4104526,1.35533845,8.9761222,49.2954823,1.12451089,21,1771147753979192,-10.3041973,-1.3297839,2.52980276,126.599106,49.1841316,-0.344089247,495,30.7932949,2.11924386,-9.8266058,0.0664598088,4.70744694,4.63709521,0.616927922,1.86239634,0.25513676,1.92368309,2.27630792,2026-02-15T09:29:13.979Z
923.820984,1667.4066,0.860000014,-2.87318444,-1.84667909,9.42178059,-0.388219804,2.41185427,1.35584889,8.97718852,49.3169912,1.12548391,21,1771147753985564,-6.88709193,-1.09525579,2.41524735,125.295547,49.1841316,-0.344089236,495,30.857008,2.11901188,-9.82557106,0.0785720313,4.79330288,4.66043578,0.604312599,1.81365214,0.253862412,1.90630562,2.30100849,2026-02-15T09:29:13.985Z
923.830933,1667.41319,0.860000014,-4.35940456,-1.9237864,9.80895996,-0.00104025286,2.41325545,1.35635933,8.97825483,49.3385001,1.12645692,21,1771147753991938,-2.13520605,-0.41073297,2.39547912,123.992828,49.1841316,-0.344089224,495,30.9206963,2.1187799,-9.82453537,0.0861380693,4.83862788,4.6838043,0.591704845,1.73814804,0.252588065,1.88892816,2.32518527,2026-02-15T09:29:13.991Z
923.840942,1667.41977,0.860000014,-7.48348331,-2.09871626,9.55147362,-0.258526921,2.41451907,1.35686977,8.97932115,49.360009,1.12742994,21,1771147753999324,2.65927518,0.753311137,2.08749049,122.979668,49.1841316,-0.34408921,495,30.9755383,2.11854792,-9.82350063,0.0844325093,4.83603339,4.70720097,0.581667006,1.61089845,0.251313718,1.87155069,2.34757975,2026-02-15T09:29:13.999Z
923.850952,1667.42637,0.860000014,-10.5487566,-2.46977186,9.04111481,-0.768885911,2.41531086,1.35738021,8.98038747,49.3815179,1.12840295,21,1771147754010220,7.30071582,1.72077301,1.62752458,122.963409,49.1841316,-0.344089188,495,31,2.11831594,-9.8224659,0.0720788804,4.78630462,4.73068876,0.580474377,1.3727938,0.25003937,1.85417323,2.36613894,2026-02-15T09:29:14.010Z
923.860962,1667.43298,0.860000014,-10.7240143,-2.95697379,8.68456364,-1.12543654,2.41572189,1.35789065,8.98145379,49.4030268,1.12937597,21,1771147754023924,11.955385,1.32344169,1.30229009,123.748611,49.1841316,-0.34408916,495,31,2.11808395,-9.82143021,0.0568707186,4.69014075,4.75422156,0.58639431,1.0269578,0.248765023,1.83679577,2.38077531,2026-02-15T09:29:14.023Z
923.870972,1667.43956,0.860000014,-9.51124001,-1.80340946,8.60735512,-1.20264494,2.4161315,1.3584011,8.98252011,49.4245357,1.13034898,21,1771147754037580,16.8311026,0.437546643,0.980561294,124.531143,49.1841316,-0.344089131,495,31,2.11785197,-9.82039547,0.0480786126,4.54632537,4.77770285,0.592294157,0.678505798,0.247490675,1.8194183,2.39217689,2026-02-15T09:29:14.037Z
923.880981,1667.44615,0.860000014,-7.55705929,-0.358600646,8.49129677,-1.31870389,2.41654134,1.35891154,8.98358643,49.4460446,1.131322,21,1771147754051237,19.0027195,-0.788139564,0.416651219,125.313683,49.1841316,-0.344089103,495,31,2.11761999,-9.81935978,0.0498358376,4.36732051,4.80121248,0.598194063,0.377387146,0.246216328,1.80204084,2.39915339,2026-02-15T09:29:14.051Z
923.890991,1667.45273,0.860000014,-5.39289951,0.0654243082,9.40939522,-0.4006055,2.41695094,1.35942198,8.98465274,49.4675535,1.13229502,21,1771147754064895,15.5129492,-1.59613689,-0.463044529,126.096214,49.1841316,-0.344089074,495,31,2.11738801,-9.81832504,0.0617495074,4.1949276,4.82475051,0.604093909,0.149793384,0.244941981,1.78466337,2.39891737,2026-02-15T09:29:14.064Z
923.900940,1667.45931,0.860000014,-4.26350927,0.375515074,9.5108223,-0.299177974,2.41736078,1.35993242,8.98571906,49.4890624,1.13326803,21,1771147754078552,9.51454114,-1.14305473,-1.44238488,126.878761,49.1841316,-0.344089046,495,31,2.11715579,-9.81729031,0.0755173756,4.06912779,4.84831712,0.609993756,0.00196478072,0.243667633,1.76728591,2.38934488,2026-02-15T09:29:14.078Z
923.910950,1667.46592,0.860000014,-4.33679819,-0.582024574,9.95317078,0.14317064,2.41777158,1.36044286,8.98678538,49.5105713,1.13424105,21,1771147754092245,3.62560022,0.349240341,-2.20111767,127.663414,49.1841316,-0.344089017,495,31,2.11692381,-9.81625462,0.0794898276,4.0034625,4.87197575,0.615909517,0,0.242393286,1.74990844,2.37114883,2026-02-15T09:29:14.092Z
923.920959,1667.47252,0.860000014,-4.54462767,-0.048738163,10.045516,0.235515922,2.41818261,1.3609533,8.9878517,49.5320802,1.13521406,21,1771147754105949,-0.283132478,2.61239156,-2.96495203,128.448608,49.1841316,-0.344088989,495,31,2.11669183,-9.81521988,0.0647071505,3.98674741,4.89567991,0.62182945,0,0.241118938,1.73253098,2.34534741,2026-02-15T09:29:14.105Z
923.930969,1667.47911,0.860000014,-5.00589657,-2.01025438,9.33359051,-0.476409584,2.41859245,1.36146374,8.98891802,49.5535891,1.13618708,21,1771147754119606,-3.87610997,4.38341642,-3.70792619,129.23114,49.1841316,-0.34408896,495,31,2.11645985,-9.81418514,0.0297580688,4.00753178,4.91933241,0.627729297,0,0.239844591,1.71515351,2.31201382,2026-02-15T09:29:14.119Z
923.940979,1667.48569,0.860000014,-5.56325626,-4.11318827,8.53023052,-1.27977037,2.41900206,1.36197418,8.98998434,49.575098,1.13716009,21,1771147754133263,-2.81383781,4.71623867,-4.24205623,130.013687,49.1841316,-0.344088932,495,31,2.11622787,-9.81314945,-0.0156974291,4.04094368,4.94301366,0.633629262,0,0.238570244,1.69777605,2.27230009,2026-02-15T09:29:14.133Z
923.950989,1667.49227,0.860000014,-5.80349207,-3.85550165,8.25945282,-1.55054808,2.41941166,1.36248463,8.99105066,49.5966069,1.13813311,21,1771147754146920,3.53772657,3.5172124,-4.1736619,130.796219,49.1841316,-0.344088903,495,31,2.11599588,-9.81211472,-0.0568186669,4.0372968,4.96672371,0.639529049,0,0.237295896,1.68039859,2.23026289,2026-02-15T09:29:14.146Z
923.960938,1667.49886,0.860000014,-5.60394144,-3.82790494,8.57659626,-1.23340428,2.4198215,1.36299507,8.99211697,49.6181158,1.13910613,21,1771147754160577,11.6318871,1.42680349,-3.9175214,131.578766,49.1841316,-0.344088875,495,31,2.1157639,-9.81107998,-0.0816677255,3.96106947,4.99046259,0.645428956,0,0.236021549,1.66302112,2.18959947,2026-02-15T09:29:14.160Z
923.970947,1667.50544,0.860000014,-5.4494915,-1.24709451,9.27336311,-0.536637127,2.42023134,1.36350551,8.99318329,49.6396247,1.14007914,21,1771147754174235,19.9652449,0.0908205647,-3.80208046,132.361298,49.1841316,-0.344088846,495,31,2.11553192,-9.81004429,-0.089254956,3.80327857,5.01423049,0.651328802,0,0.234747202,1.64564366,2.15103855,2026-02-15T09:29:14.174Z
923.980957,1667.51204,0.860000014,-4.56933308,1.44899559,10.0166206,0.206619963,2.42064214,1.36401595,8.99424961,49.6611336,1.14105216,21,1771147754187928,21.1125339,-0.169375933,-3.91849864,133.144928,49.1841316,-0.344088818,495,31,2.1152997,-9.80900955,-0.0888638381,3.59809568,5.03809142,0.657297313,0,0.233472854,1.62826619,2.11247389,2026-02-15T09:29:14.187Z
923.990967,1667.51865,0.860000014,-2.80762362,3.86240888,10.9623823,1.15238214,2.42110705,1.36452639,8.99531593,49.6826425,1.14202517,21,1771147754201042,15.9406553,1.16813133,-4.53181213,131.897583,49.1841316,-0.344088745,495,31,2.11506772,-9.80797386,-0.0938526284,3.41301004,5.06199849,0.7693699,0,0.232198507,1.61088873,2.07026361,2026-02-15T09:29:14.201Z
924.000977,1667.52523,0.860000014,-1.8385762,3.83847237,10.6150322,0.805032134,2.42166233,1.36503683,8.99638225,49.7041514,1.14299819,21,1771147754213106,2.77824538,3.43482414,-5.37849819,127.180038,49.1841316,-0.344088595,495,31,2.11483574,-9.80693913,-0.116856003,3.31957103,5.08585364,1.06251955,0,0.230924159,1.59351126,2.02075627,2026-02-15T09:29:14.213Z
924.010986,1667.53182,0.860000014,-2.04001164,3.63453698,10.8493643,1.03936386,2.42224836,1.36554727,8.99744857,49.7256603,1.1439712,21,1771147754224831,-10.5578385,5.10799503,-6.24956461,121.296371,49.1841316,-0.344088421,495,31,2.11460376,-9.80590439,-0.159536556,3.35849591,5.10973788,1.4165709,0,0.229649812,1.5761338,1.96266844,2026-02-15T09:29:14.224Z
924.020935,1667.5384,0.860000014,-2.67190194,0.163805425,9.45235062,-0.357650131,2.42283487,1.36605772,8.99851488,49.7471692,1.14494422,21,1771147754236556,-21.9538809,5.28751476,-7.01570253,115.411003,49.1841316,-0.344088246,495,31,2.11437178,-9.8048687,-0.211780828,3.52190269,5.13365128,1.77071106,0,0.228375465,1.55875634,1.89600137,2026-02-15T09:29:14.236Z
924.030945,1667.54499,0.860000014,-3.81595039,-2.16042161,9.1644125,-0.645587742,2.42342091,1.36656816,8.9995812,49.7686781,1.14591724,21,1771147754248281,-23.3396057,3.03789855,-7.5656566,109.525604,49.1841316,-0.344088071,495,31,2.1141398,-9.80383396,-0.253378234,3.74814231,5.15759402,2.12485266,0,0.227101117,1.54137887,1.82316839,2026-02-15T09:29:14.248Z
924.040955,1667.55159,0.860000014,-3.67786908,-2.28585672,9.88671589,0.0767157674,2.42400885,1.3670786,9.00064752,49.790187,1.14689025,21,1771147754260037,-16.7269497,1.66481719,-7.37950936,103.624382,49.1841316,-0.344087896,495,31,2.11390781,-9.80279922,-0.276875567,3.94831183,5.18163055,2.47994661,0,0.22582677,1.52400141,1.74851456,2026-02-15T09:29:14.260Z
924.050964,1667.55819,0.860000014,-2.89652514,-2.66715026,10.3813238,0.571323216,2.42459702,1.36758904,9.00171384,49.8116959,1.14786327,21,1771147754271803,-7.14661988,1.1780895,-7.31800706,97.7189865,49.1841316,-0.344087721,495,31,2.11367583,-9.80176353,-0.291077461,4.06758741,5.20571363,2.83529234,0,0.224552422,1.50662394,1.67509852,2026-02-15T09:29:14.271Z
924.060974,1667.56478,0.860000014,-2.27307463,-3.76303482,10.6346798,0.824679434,2.4251833,1.36809948,9.00278016,49.8332048,1.14883628,21,1771147754283527,2.27544203,1.85395905,-7.26699402,91.8336182,49.1841316,-0.344087546,495,31,2.11344385,-9.8007288,-0.306226211,4.09187359,5.22974448,3.18943262,0,0.223278075,1.48924648,1.6022449,2026-02-15T09:29:14.283Z
924.070984,1667.57136,0.860000014,-1.93529546,-3.65145445,10.2940855,0.484085381,2.42575312,1.36860992,9.00384648,49.8547137,1.1498093,21,1771147754295051,13.9127568,2.95604066,-7.01695467,86.4002533,49.1841316,-0.344087373,495,31,2.11321163,-9.79969406,-0.330258114,4.01095491,5.25380476,3.5229423,0,0.222003728,1.47186901,1.53089606,2026-02-15T09:29:14.295Z
924.080933,1667.57795,0.860000014,-2.29979563,-4.33687449,9.96714115,0.1571403,2.42621803,1.36912036,9.00491279,49.8762226,1.15078231,21,1771147754305308,22.6185002,3.93582029,-6.63893459,83.817955,49.1841316,-0.34408721,495,31,2.11297965,-9.79865837,-0.364897634,3.82733081,5.27789454,3.72632265,0,0.22072938,1.45449155,1.46226829,2026-02-15T09:29:14.305Z
924.090942,1667.58453,0.860000014,-2.67777324,-1.38102782,9.5309124,-0.279088169,2.42657709,1.3696308,9.00597911,49.8977315,1.15175533,21,1771147754314281,32.9623742,3.99266422,-6.31244776,84.1203156,49.1841316,-0.344087058,495,31,2.11274767,-9.79762363,-0.404501087,3.54974799,5.30201402,3.79804087,0,0.219455033,1.43711408,1.39757296,2026-02-15T09:29:14.314Z
924.100952,1667.59113,0.860000014,-3.16014838,0.183224618,9.33351231,-0.476487964,2.42693686,1.37014125,9.00704543,49.9192404,1.15272835,21,1771147754323279,34.3049659,3.09685199,-6.36827705,84.4234848,49.1841316,-0.344086905,495,31,2.11251569,-9.79658794,-0.43991844,3.21374604,5.32622814,3.86995149,0,0.218180685,1.41973662,1.33423146,2026-02-15T09:29:14.323Z
924.110962,1667.59774,0.860000014,-2.34995818,3.28979111,10.1768217,0.366821289,2.42729712,1.37065169,9.00811175,49.9407493,1.15370136,21,1771147754332284,28.0892926,1.60282732,-7.16720031,84.7268677,49.1841316,-0.344086752,495,31,2.11228371,-9.79555321,-0.4634012,2.90204879,5.35048936,3.9419136,0,0.216906338,1.40235916,1.26662399,2026-02-15T09:29:14.332Z
924.120972,1667.60432,0.860000014,-1.60161006,3.01751065,10.0666342,0.25663361,2.42765617,1.37116213,9.00917807,49.9622582,1.15467438,21,1771147754341257,13.3577673,0.588731386,-8.48846242,85.0292282,49.1841316,-0.344086599,495,31,2.11205173,-9.79451847,-0.474343443,2.69508627,5.3746982,4.01363134,0,0.215631991,1.38498169,1.18841572,2026-02-15T09:29:14.341Z
924.130981,1667.61091,0.860000014,-0.601839423,2.39917684,10.3465137,0.536512911,2.42801499,1.37167257,9.01024439,49.9837671,1.15564739,21,1771147754350231,-3.68023825,0.0975621443,-9.7998306,85.3315811,49.1841316,-0.344086447,495,31,2.11181974,-9.79348278,-0.477769176,2.6468288,5.39893701,4.08534908,0,0.214357643,1.36760423,1.09705708,2026-02-15T09:29:14.350Z
924.140991,1667.61749,0.860000014,-0.0908873603,1.19749594,10.0985203,0.288519621,2.42837405,1.37218301,9.01131071,50.005276,1.15662041,21,1771147754359204,-17.5820378,0.533098961,-10.9719331,85.633934,49.1841316,-0.344086295,495,31,2.11158776,-9.79244804,-0.480921539,2.75310395,5.42320591,4.15706682,0,0.213083296,1.35022676,0.993293894,2026-02-15T09:29:14.359Z
924.150940,1667.62408,0.860000014,-0.573781788,-0.707281947,8.89896774,-0.911032557,2.42873287,1.37269345,9.01237702,50.0267849,1.15759342,21,1771147754368178,-27.2824173,1.20361197,-11.9855855,85.9362946,49.1841316,-0.344086142,495,31,2.11135554,-9.79141331,-0.489647201,2.97854155,5.44750514,4.22878504,0,0.211808949,1.3328493,0.877921912,2026-02-15T09:29:14.368Z
924.160950,1667.63068,0.860000014,-1.41029167,-1.99115849,7.88898134,-1.92101896,2.42909265,1.37320389,9.01344334,50.0482938,1.15856644,21,1771147754377177,-30.9613249,1.43317431,-12.5141798,86.2394638,49.1841316,-0.344085989,495,31,2.11112356,-9.79037762,-0.502817145,3.26945818,5.47190021,4.30069637,0,0.210534601,1.31547183,0.755545174,2026-02-15T09:29:14.377Z
924.170959,1667.63728,0.860000014,-1.89230263,-3.62473536,7.85353899,-1.95646155,2.42945266,1.37371434,9.01450966,50.0698027,1.15953946,21,1771147754386181,-29.6929073,1.0062981,-12.6823599,86.5428467,49.1841316,-0.344085836,495,31,2.11089158,-9.78934288,-0.515004688,3.57243962,5.49634327,4.37265778,0,0.209260254,1.29809437,0.629686207,2026-02-15T09:29:14.386Z
924.180969,1667.64387,0.860000014,-1.73219609,-3.93729806,8.44756126,-1.36243904,2.42981625,1.37422478,9.01557598,50.0913116,1.16051247,21,1771147754395190,-15.7970589,0.490457364,-12.3374825,86.8395844,49.1841316,-0.344085683,495,30.9983845,2.1106596,-9.78830814,-0.522479951,3.79963485,5.5207342,4.443573,0,0.207985906,1.28071691,0.504709854,2026-02-15T09:29:14.395Z
924.190979,1667.65045,0.860000014,-1.16224158,-2.86753964,9.21460819,-0.595392108,2.43032885,1.37473522,9.0166423,50.1128205,1.16148549,21,1771147754405340,-8.47772043,0.668421401,-12.1516966,86.9568176,49.1841316,-0.344085504,495,30.945137,2.11042762,-9.78727245,-0.528269563,3.92085473,5.54515607,4.48884726,0,0.206711559,1.26333944,0.382384321,2026-02-15T09:29:14.405Z
924.200989,1667.65704,0.860000014,-0.503263772,-1.65882742,8.79201031,-1.01799023,2.43101978,1.37524566,9.01770862,50.1343294,1.1624585,21,1771147754416857,-1.62170239,1.18226736,-12.1268001,86.8590622,49.1841316,-0.344085295,495,30.8300552,2.11019564,-9.78623772,-0.537516483,3.97126925,5.56960906,4.50341272,0,0.205437212,1.24596198,0.261110388,2026-02-15T09:29:14.416Z
924.210938,1667.66362,0.860000014,-0.503165126,-0.959118664,8.95483017,-0.855170131,2.43171096,1.3757561,9.01877493,50.1558383,1.16343152,21,1771147754428375,2.6395608,1.74136886,-12.0595093,86.7609558,49.1841316,-0.344085086,495,30.7148685,2.10996366,-9.78520298,-0.552208937,3.96615836,5.59409338,4.51792669,0,0.204162864,1.22858451,0.139559371,2026-02-15T09:29:14.428Z
924.220947,1667.6702,0.860000014,-0.787797272,0.0339220688,8.31232548,-1.49767482,2.4324019,1.37626654,9.01984125,50.1773472,1.16440453,21,1771147754439894,4.68738743,1.8024927,-12.2320024,86.6628494,49.1841316,-0.344084876,495,30.5996819,2.10973167,-9.78416729,-0.569910652,3.92956934,5.61860941,4.53244019,0,0.202888517,1.21120705,0.0182211452,2026-02-15T09:29:14.439Z
924.230957,1667.67681,0.860000014,-0.772712409,0.102604471,8.79597187,-1.01402867,2.43309474,1.37677698,9.02090757,50.1988562,1.16537755,21,1771147754451443,5.19948711,1.30607525,-12.4979241,86.564476,49.1841316,-0.344084666,495,30.4841862,2.10949969,-9.78313255,-0.585440747,3.8801857,5.64322339,4.5469923,0,0.201614169,1.19382958,-0.105306557,2026-02-15T09:29:14.451Z
924.240967,1667.68341,0.860000014,-1.01543975,0.569322288,8.18157578,-1.62842464,2.43378854,1.37728742,9.02197389,50.2203651,1.16635057,21,1771147754463001,4.12295904,0.807463104,-12.5866117,86.4660187,49.1841316,-0.344084456,495,30.3686066,2.10926747,-9.78209686,-0.595998172,3.83361885,5.6678872,4.56155539,0,0.200339822,1.17645212,-0.230606865,2026-02-15T09:29:14.463Z
924.250977,1667.69,0.860000014,-0.731900811,-0.363982111,8.32271004,-1.4872905,2.43447971,1.37779787,9.02304021,50.241874,1.16732358,21,1771147754474520,3.47783645,0.563707518,-12.7128737,86.3679123,49.1841316,-0.344084247,495,30.2534199,2.10903549,-9.78106213,-0.60284615,3.79565509,5.69249992,4.57606888,0,0.199065475,1.15907465,-0.356981495,2026-02-15T09:29:14.474Z
924.260986,1667.69658,0.860000014,-0.222076148,-2.3250258,8.18529892,-1.62470186,2.43517065,1.37830831,9.02410653,50.2633829,1.1682966,21,1771147754486039,4.5148555,0.229427183,-12.7242048,86.2697983,49.1841316,-0.344084037,495,30.1382332,2.10880351,-9.78002739,-0.606806327,3.75572555,5.71714541,4.59058237,0,0.197791127,1.14169719,-0.484042858,2026-02-15T09:29:14.486Z
924.270935,1667.70316,0.860000014,0.0686233491,-3.26533484,8.60568237,-1.20431781,2.43590283,1.37881875,9.02517284,50.2848918,1.16926961,21,1771147754497234,13.2743494,0.308802594,-12.4718568,86.1604538,49.1841316,-0.344083833,495,30.0564957,2.10857153,-9.7789917,-0.609511329,3.66631337,5.74182404,4.60980129,0,0.19651678,1.12431973,-0.610668158,2026-02-15T09:29:14.497Z
924.280945,1667.70975,0.860000014,0.181711718,-5.73776293,8.28796673,-1.52203381,2.43675923,1.37932919,9.02623916,50.3064007,1.17024263,21,1771147754507452,25.8664177,0.507926596,-11.6979845,86.0171432,49.1841316,-0.344083644,495,30.0759029,2.10833955,-9.77795696,-0.613590022,3.47086155,5.7665363,4.64324856,0,0.195242433,1.10694226,-0.731403218,2026-02-15T09:29:14.507Z
924.290955,1667.71635,0.860000014,1.17809725,-4.49200773,7.59516478,-2.21483588,2.43771052,1.37983963,9.02730548,50.3279096,1.17121565,21,1771147754516967,46.117688,0.654570201,-10.4882873,85.8480225,49.1841316,-0.344083465,495,30.1710453,2.10810757,-9.77692223,-0.619396117,3.11139081,5.7913491,4.68743324,0,0.193968085,1.0895648,-0.842232241,2026-02-15T09:29:14.516Z
924.300964,1667.72296,0.860000014,2.04304028,-3.30947995,7.93142319,-1.87857723,2.43866253,1.38035007,9.0283718,50.3494185,1.17218866,21,1771147754526487,65.5310074,0.24414634,-9.10386059,85.6787796,49.1841316,-0.344083286,495,30.2662544,2.10787559,-9.77588654,-0.623886352,2.55374097,5.81621406,4.73164845,0,0.192693738,1.07218733,-0.940100905,2026-02-15T09:29:14.526Z
924.310974,1667.72954,0.860000014,2.32006073,0.332095534,7.99468136,-1.81531894,2.43961143,1.38086051,9.02943812,50.3709274,1.17316168,21,1771147754535976,80.5285737,-0.489897758,-7.94521298,85.5101166,49.1841316,-0.344083108,495,30.3611431,2.1076436,-9.7748518,-0.622655214,1.82408244,5.84102955,4.7757144,0,0.19141939,1.05480987,-1.02525746,2026-02-15T09:29:14.535Z
924.320984,1667.73612,0.860000014,2.10058427,3.55218744,8.69690323,-1.11309755,2.44056034,1.38137096,9.03050444,50.3924363,1.17413469,21,1771147754545465,87.1396302,-2.29261676,-6.88328293,85.3414459,49.1841316,-0.34408293,495,30.4560299,2.10741162,-9.77381706,-0.60874743,0.986527241,5.8658803,4.81977987,0,0.190145043,1.0374324,-1.09932244,2026-02-15T09:29:14.545Z
924.330933,1667.74271,0.860000014,0.227161735,8.22160912,10.6424894,0.832488894,2.44150925,1.3818814,9.03157076,50.4139452,1.17510771,21,1771147754554954,67.8458479,-2.91803888,-6.74050713,85.1727829,49.1841316,-0.344082752,496,30.5509167,2.1071794,-9.77278137,-0.582558274,0.20770069,5.89076678,4.86384583,0,0.188870696,1.02005494,-1.16778967,2026-02-15T09:29:14.554Z
924.340942,1667.74929,0.860000014,-0.443555057,7.80476379,10.7586851,0.948684454,2.44245815,1.38239184,9.03263707,50.4354541,1.17608072,21,1771147754564442,45.2901223,-2.85381601,-7.09762745,85.0041199,49.1841316,-0.344082573,496,30.6458035,2.10694742,-9.77174664,-0.553726844,-0.357536907,5.91568965,4.9079113,0,0.187596348,1.00267748,-1.23691111,2026-02-15T09:29:14.564Z
924.350952,1667.75589,0.860000014,-0.0714714602,5.67266607,10.7287121,0.918712139,2.44340968,1.38290228,9.03370339,50.456963,1.17705374,21,1771147754573956,24.4339793,-2.71509708,-7.39268585,84.8349915,49.1841316,-0.344082395,496,30.7409458,2.10671544,-9.77071095,-0.525908768,-0.705918919,5.94071651,4.95209551,0,0.186322001,0.985300011,-1.30929055,2026-02-15T09:29:14.573Z
924.360962,1667.7625,0.860000014,0.600860953,2.94874358,10.501689,0.691688895,2.44436169,1.38341272,9.03476971,50.4784719,1.17802676,21,1771147754583477,12.4144702,-2.69787249,-7.42562842,84.6657562,49.1841316,-0.344082216,496,30.8361568,2.10648346,-9.76967621,-0.498870241,-0.890040049,5.96579871,4.99631119,0,0.185047653,0.967922547,-1.38330968,2026-02-15T09:29:14.583Z
924.370972,1667.76908,0.860000014,1.51209116,0.273134768,9.87358093,0.063580066,2.44531035,1.38392316,9.03583603,50.4999808,1.17899977,21,1771147754592965,9.16562414,-3.11977924,-7.00077534,84.4970932,49.1841316,-0.344082038,496,30.9310436,2.10625148,-9.76864147,-0.469808339,-0.997819683,5.9908339,5.04037714,0,0.183773306,0.950545082,-1.45536929,2026-02-15T09:29:14.592Z
924.380981,1667.77567,0.860000014,1.96496201,-1.02047467,9.99594212,0.185941711,2.44491768,1.3844336,9.03690235,50.5214897,1.17997279,21,1771147754603265,14.5029182,-3.99543481,-6.12224886,84.2078705,49.1841316,-0.344081843,496,30.9909153,2.1060195,-9.76760578,-0.43426271,-1.116073,6.01590768,5.06600857,0.0608364611,0.182498959,0.933167618,-1.52091611,2026-02-15T09:29:14.603Z
924.390991,1667.78225,0.860000014,1.82453787,-1.22795177,10.6265068,0.816505969,2.44257784,1.38494404,9.03796867,50.5429986,1.1809458,21,1771147754614738,24.1865948,-4.96744043,-4.69285224,83.7436981,49.1841316,-0.344081625,496,30.9999733,2.10578752,-9.76657104,-0.38948733,-1.30937898,6.04102071,5.06488895,0.190894886,0.181224611,0.915790153,-1.5749319,2026-02-15T09:29:14.614Z
924.400940,1667.78884,0.860000014,0.270143598,0.38836959,11.3160362,1.50603616,2.43989158,1.38545449,9.03903498,50.5645075,1.18191882,21,1771147754626421,33.5566234,-5.60953691,-3.20049369,83.2484131,49.1841316,-0.344081402,496,31,2.10555553,-9.76553631,-0.336333786,-1.59954099,6.06617376,5.05901432,0.315590277,0.179950264,0.898412689,-1.61460604,2026-02-15T09:29:14.626Z
924.410950,1667.79544,0.860000014,-1.21154153,1.81047571,11.9664526,2.15645242,2.43719721,1.38596493,9.0401013,50.5860164,1.18289183,21,1771147754638136,38.0236939,-5.71536911,-2.12739581,82.7517166,49.1841316,-0.344081178,496,31,2.10532331,-9.76450062,-0.279765016,-1.95707159,6.09143521,5.05311012,0.382808123,0.178675916,0.881035225,-1.64122473,2026-02-15T09:29:14.638Z
924.420959,1667.80204,0.860000014,-1.59867501,2.11177993,11.9168882,2.10688734,2.43450093,1.38647537,9.04116762,50.6075253,1.18386485,21,1771147754649859,36.0503029,-5.66014967,-1.54242086,82.2546692,49.1841316,-0.344080955,496,31,2.10509133,-9.76346588,-0.222942643,-2.32708985,6.11675613,5.04720163,0.396279241,0.177401569,0.86365776,-1.65955876,2026-02-15T09:29:14.649Z
924.430969,1667.80863,0.860000014,-1.27492929,1.25342,11.4509001,1.6408993,2.43181372,1.38698581,9.04223394,50.6290342,1.18483787,21,1771147754661541,31.5832347,-5.59180054,-1.27602221,81.7593002,49.1841316,-0.344080732,496,31,2.10485935,-9.76243114,-0.166737941,-2.66491711,6.14203334,5.04131365,0.395929042,0.176127222,0.846280296,-1.6736366,2026-02-15T09:29:14.661Z
924.440979,1667.81521,0.860000014,-0.867290318,-0.35906443,11.1535606,1.34356022,2.42912674,1.38749625,9.04330026,50.6505431,1.18581088,21,1771147754673225,28.7486461,-5.97587767,-1.00591206,81.2639313,49.1841316,-0.344080509,496,31,2.10462737,-9.76139545,-0.108954103,-2.96626841,6.16735343,5.03542519,0.407481342,0.174852874,0.828902832,-1.68503383,2026-02-15T09:29:14.673Z
924.450989,1667.8218,0.860000014,-0.284549057,-1.63491547,11.0796003,1.26959944,2.42643952,1.38800669,9.04436658,50.672052,1.1867839,21,1771147754684907,29.6384471,-6.74840627,-0.440481453,80.7685699,49.1841316,-0.344080286,496,31,2.10439539,-9.76036072,-0.0453909912,-3.25792345,6.19271718,5.02953672,0.433831854,0.173578527,0.811525367,-1.69225598,2026-02-15T09:29:14.684Z
924.460938,1667.83028,0.860000014,0.0934187621,-1.88307405,11.240448,1.43044782,2.42430639,1.38851713,9.04543289,50.6935609,1.18775691,21,1771147754696439,34.887549,-7.36608101,0.308698678,80.3838196,49.1841316,-0.344080072,496,30.9870243,2.10416341,-9.75932503,0.0255422454,-3.58219967,6.21812537,5.01517677,0.481452256,0.17230418,0.794147903,-1.69291912,2026-02-15T09:29:14.696Z
924.470947,1667.84598,0.860000014,0.543480098,-0.915329933,11.7618885,1.95188785,2.42428112,1.38902758,9.04649921,50.7150698,1.18872993,21,1771147754707397,41.0675369,-7.75644821,0.911082894,80.4201965,49.1841316,-0.344079889,496,30.9246464,2.10393143,-9.75829029,0.101079216,-3.96157449,6.243579,4.96855974,0.542107364,0.171029832,0.776770438,-1.6868291,2026-02-15T09:29:14.707Z
924.480957,1667.86792,0.860000014,0.817910433,1.03193641,12.1201754,2.31017447,2.42606521,1.38953802,9.04756553,50.7365787,1.18970294,21,1771147754717891,44.7408218,-7.54380763,1.07903294,80.8180542,49.1841316,-0.344079732,496,30.8197117,2.10369945,-9.75725555,0.177506893,-4.39017978,6.2691475,4.89413834,0.618603508,0.169755485,0.759392974,-1.67688905,2026-02-15T09:29:14.717Z
924.490967,1667.88988,0.860000014,0.800104797,2.63491249,12.186511,2.37651038,2.42785025,1.39004846,9.04863185,50.7580876,1.19067596,21,1771147754728392,42.8008646,-6.80223645,0.58990448,81.2161942,49.1841316,-0.344079576,496,30.7146988,2.10346746,-9.75621986,0.249167196,-4.82746135,6.29478157,4.81966496,0.704470486,0.168481137,0.74201551,-1.66855246,2026-02-15T09:29:14.728Z
924.500977,1667.91176,0.860000014,-0.290236712,3.88092065,12.3036318,2.49363136,2.42962933,1.3905589,9.04969817,50.7795965,1.19164898,21,1771147754738857,24.3751334,-6.4708585,0.0208160272,81.6129837,49.1841316,-0.34407942,496,30.6100445,2.10323524,-9.75518513,0.315466311,-5.16292378,6.32037686,4.74544334,0.78909473,0.16720679,0.724638045,-1.66550461,2026-02-15T09:29:14.738Z
924.510986,1667.93365,0.860000014,-1.82307422,2.95475268,11.5892143,1.77921355,2.43140864,1.39106934,9.05076449,50.8011054,1.19262199,21,1771147754749323,8.9058763,-6.5977978,-0.587709904,82.0097656,49.1841316,-0.344079264,496,30.5053902,2.10300326,-9.75415039,0.380746467,-5.32909128,6.34602112,4.67122221,0.833915316,0.165932443,0.707260581,-1.66833927,2026-02-15T09:29:14.749Z
924.520935,1667.95553,0.860000014,-5.41805267,2.60528016,11.7090054,1.8990047,2.43318772,1.39157978,9.05183081,50.8226143,1.19359501,21,1771147754759789,-2.1122358,-6.75446783,-0.993021149,82.4065552,49.1841316,-0.344079108,496,30.4007339,2.10277128,-9.7531147,0.447849929,-5.36321883,6.37171532,4.5970006,0.823004709,0.164658095,0.689883117,-1.67628394,2026-02-15T09:29:14.759Z
924.530945,1667.97741,0.860000014,-7.41470671,0.389646202,11.0646935,1.25469267,2.4349668,1.39209022,9.05289712,50.8441232,1.19456802,21,1771147754770254,-11.1425254,-7.11602568,-1.4499885,82.8033524,49.1841316,-0.344078952,496,30.2960796,2.1025393,-9.75207996,0.51713296,-5.29705369,6.39746061,4.52277899,0.683646509,0.163383748,0.672505652,-1.68848485,2026-02-15T09:29:14.770Z
924.540955,1667.99935,0.860000014,-8.92837811,-1.99690986,11.0615664,1.25156593,2.43675065,1.39260066,9.05396344,50.8656321,1.19554104,21,1771147754780747,-13.7757185,-6.37110236,-1.76919894,83.20121,49.1841316,-0.344078796,496,30.191143,2.10230732,-9.75104523,0.584506433,-5.17259689,6.42332735,4.44835806,0.474110729,0.1621094,0.655128188,-1.70456353,2026-02-15T09:29:14.780Z
924.550964,1668.02131,0.860000014,-9.74101734,-2.50426006,9.37038231,-0.439618379,2.43853569,1.39311111,9.05502976,50.887141,1.19651405,21,1771147754791249,-10.6200123,-5.04758401,-1.76850589,83.59935,49.1841316,-0.344078639,496,30.086132,2.10207534,-9.75000954,0.641547506,-5.05072927,6.44926583,4.37388468,0.212456338,0.160835053,0.637750723,-1.7222348,2026-02-15T09:29:14.791Z
924.560974,1668.04319,0.860000014,-8.49438477,-2.87356973,9.39243412,-0.417565852,2.4409523,1.39362155,9.05609608,50.9086499,1.19748707,21,1771147754801007,-4.68313579,-4.39348041,-1.75101473,83.8649597,49.1841316,-0.344078493,496,30.0156116,2.10184336,-9.7489748,0.688703586,-4.97431713,6.47517057,4.31344843,0.000257196711,0.159560706,0.620373259,-1.73981514,2026-02-15T09:29:14.801Z
924.570984,1668.06508,0.860000014,-7.02785969,-2.73869491,8.33886528,-1.47113514,2.44439459,1.39413199,9.0571624,50.9301588,1.19846009,21,1771147754809626,1.87751898,-3.70950787,-2.1047819,83.919426,49.1841316,-0.344078363,496,30.0000343,2.10161138,-9.74793911,0.729175672,-4.96033467,6.5011305,4.27520084,0,0.158286358,0.602995795,-1.75907705,2026-02-15T09:29:14.809Z
924.580933,1668.08696,0.860000014,-6.68520164,-2.43292093,8.4581728,-1.35182798,2.44812727,1.39464243,9.05822872,50.9516677,1.1994331,21,1771147754817922,7.97909043,-2.47794725,-2.54188606,83.9141769,49.1841316,-0.344078236,496,30,2.10137939,-9.74690437,0.760266861,-5.00989292,6.52714674,4.2432313,0,0.157012011,0.58561833,-1.78243102,2026-02-15T09:29:14.817Z
924.590942,1668.10884,0.860000014,-6.50959206,0.0763963759,7.79537201,-2.01462865,2.45186043,1.39515287,9.05929503,50.9731766,1.20040612,21,1771147754826218,12.4048205,-1.33728379,-2.75485895,83.9087906,49.1841316,-0.34407811,496,30,2.10114717,-9.74586964,0.779329955,-5.11169144,6.55322053,4.2112751,0,0.155737664,0.568240866,-1.80888787,2026-02-15T09:29:14.826Z
924.600952,1668.13079,0.860000014,-4.87445927,3.45902896,8.83490658,-0.975093842,2.45560336,1.39566331,9.06036135,50.9946855,1.20137913,21,1771147754834537,11.8802153,-0.544306156,-2.99379201,83.9033813,49.1841316,-0.344077984,496,30,2.10091519,-9.74483395,0.788732581,-5.23300063,6.57942329,4.17923307,0,0.154463316,0.550863402,-1.83760192,2026-02-15T09:29:14.834Z
924.610962,1668.15274,0.860000014,-4.40966511,4.48374605,9.89492226,0.0849222243,2.45934939,1.39617375,9.06142767,51.0161944,1.20235215,21,1771147754842861,3.46430529,0.863221958,-3.47364606,83.8979797,49.1841316,-0.344077857,496,30,2.10068321,-9.74379921,0.787146423,-5.30968943,6.60570476,4.14716721,0,0.153188969,0.533485937,-1.86990523,2026-02-15T09:29:14.842Z
924.620972,1668.17463,0.860000014,-3.80586219,6.70654821,8.49572754,-1.31427276,2.46308279,1.3966842,9.06249399,51.0377033,1.20332516,21,1771147754851157,-8.51531055,2.48068493,-3.87650087,83.8925934,49.1841316,-0.344077731,496,30,2.10045123,-9.74276447,0.770435449,-5.28440164,6.63195818,4.11521101,0,0.151914621,0.516108473,-1.90662204,2026-02-15T09:29:14.851Z
924.630981,1668.19651,0.860000014,-3.38808393,6.16205025,8.74920559,-1.06079495,2.46681595,1.39719464,9.06356031,51.0592122,1.20429818,21,1771147754859452,-22.0606215,3.78250094,-4.12260216,83.8871994,49.1841316,-0.344077605,496,30,2.10021925,-9.74172878,0.739143737,-5.13160517,6.65827377,4.08325481,0,0.150640274,0.498731008,-1.94657973,2026-02-15T09:29:14.859Z
924.640991,1668.21839,0.860000014,-3.05918145,5.2668252,9.46423912,-0.34576121,2.47054911,1.39060765,9.06579601,51.4171332,1.20611155,21,1771147754867749,-35.0410797,4.11862502,-3.97983319,83.881813,49.1841316,-0.344077479,496,30,2.11946654,-9.74131966,0.699675034,-4.84631214,6.68465274,4.05129862,0,0.15008433,0.489072375,-1.98705168,2026-02-15T09:29:14.867Z
924.650940,1668.24027,0.860000014,-2.51288342,2.39335942,9.1861639,-0.623836637,2.4742825,1.37685382,9.06921254,52.1147559,1.2087735,21,1771147754876045,-43.042895,4.67024549,-3.4428243,83.8764267,49.1841316,-0.344077353,496,30,2.15838385,-9.74154091,0.655507568,-4.45391951,6.71109641,4.0193429,0,0.150253813,0.487208053,-2.02435706,2026-02-15T09:29:14.876Z
924.660950,1668.26222,0.860000014,-2.99704218,-0.698214591,8.33300495,-1.47699583,2.47802544,1.3631,9.07262906,52.8123787,1.21143544,21,1771147754884364,-32.0505542,5.18703552,-1.56273371,83.8710251,49.1841316,-0.344077227,496,30,2.19730091,-9.74176311,0.606271765,-4.07876515,6.73767731,3.9873004,0,0.150423297,0.485343731,-2.04936958,2026-02-15T09:29:14.884Z
924.670959,1668.28417,0.860000014,-3.45145154,-0.399603277,9.4949894,-0.315011442,2.48177123,1.34934617,9.07604559,53.5100015,1.21409739,21,1771147754892688,-14.8938044,5.45493107,0.115922787,83.8656311,49.1841316,-0.3440771,496,30.0000057,2.23621821,-9.74198437,0.553115151,-3.8441887,6.76434457,3.95525217,0,0.150592781,0.483479409,-2.05660476,2026-02-15T09:29:14.892Z
924.680969,1668.30606,0.860000014,-3.40543199,-0.141341522,8.07071018,-1.73929024,2.484864,1.33559234,9.07946212,54.2076243,1.21675934,21,1771147754900545,0.458860346,5.56332113,1.51518979,83.9018173,49.1841316,-0.34407696,496,30.0211315,2.27513528,-9.74220657,0.498077382,-3.77212053,6.79098992,3.99023509,0,0.150762265,0.481615087,-2.04845386,2026-02-15T09:29:14.900Z
924.690979,1668.32794,0.860000014,-3.75052953,1.19627774,7.35891438,-2.45108581,2.48687148,1.32183852,9.08287864,54.905247,1.21942128,21,1771147754907663,12.6546434,5.43275082,3.21278707,84.0083771,49.1841316,-0.344076796,496,30.0780258,2.31405258,-9.74242783,0.4431513,-3.83768346,6.81770495,4.1385603,0,0.150931749,0.479750765,-2.02482877,2026-02-15T09:29:14.907Z
924.700989,1668.34982,0.860000014,-4.06008959,2.91673565,9.51034069,-0.299659491,2.4885211,1.30808469,9.08629517,55.6028698,1.22208323,21,1771147754914534,20.0044617,5.4698701,4.78277078,84.1381607,49.1841316,-0.344076624,496,30.1467228,2.35296965,-9.74264908,0.388691195,-4.00085533,6.84449094,4.32427597,0,0.151101232,0.477886443,-1.98488236,2026-02-15T09:29:14.914Z
924.710938,1668.37171,0.860000014,-4.28712368,3.58492327,9.67502785,-0.1349722,2.49017048,1.29433087,9.0897117,56.3004926,1.22474518,21,1771147754921405,20.600895,6.2026868,6.0066713,84.2679977,49.1841316,-0.344076452,496,30.2154369,2.39188695,-9.74287128,0.330030366,-4.20492204,6.87134911,4.51005554,0,0.151270716,0.476022121,-1.93066017,2026-02-15T09:29:14.921Z
924.720947,1668.39359,0.860000014,-4.20037365,3.43904233,9.13212013,-0.677880406,2.49181962,1.28057704,9.09312822,56.9981153,1.22740712,21,1771147754928277,17.3848813,7.17663197,7.07461334,84.3978195,49.1841316,-0.34407628,496,30.284153,2.43080401,-9.74309254,0.263203783,-4.39468126,6.89828092,4.69583511,0,0.1514402,0.474157799,-1.86532276,2026-02-15T09:29:14.928Z
924.730957,1668.41553,0.860000014,-3.3127172,1.65551162,7.76615095,-2.04384947,2.49347305,1.26682322,9.09654475,57.6957381,1.23006907,21,1771147754935167,13.2199632,7.56416163,7.87885714,84.5279922,49.1841316,-0.344076107,496,30.3530521,2.46972132,-9.74331474,0.189573611,-4.54757651,6.92536032,4.88211441,0,0.151609684,0.472293477,-1.79063227,2026-02-15T09:29:14.935Z
924.740967,1668.43749,0.860000014,-2.38341975,-0.48638764,8.65408897,-1.15591109,2.49512815,1.25306939,9.09996127,58.3933609,1.23273101,21,1771147754942062,14.0449396,7.60436092,8.82401093,84.6582642,49.1841316,-0.344075935,496,30.4220028,2.50863838,-9.743536,0.113804995,-4.68376795,6.95253558,5.06852579,0,0.151779168,0.470429155,-1.70719948,2026-02-15T09:29:14.942Z
924.750977,1668.45937,0.860000014,-2.21911478,-0.814413309,8.7808075,-1.02919292,2.4967773,1.23931557,9.1033778,59.0909837,1.23539296,21,1771147754948934,21.0489925,6.86917762,10.0689783,84.7880859,49.1841316,-0.344075763,496,30.4907188,2.54755545,-9.7437582,0.0415114909,-4.85910059,6.9796963,5.25430536,0,0.151948652,0.468564833,-1.61282063,2026-02-15T09:29:14.948Z
924.760986,1668.48125,0.860000014,-2.18130398,0.583686411,7.82699585,-1.98300433,2.49842644,1.22556174,9.10679433,59.7886064,1.23805491,21,1771147754955805,30.062288,5.7713672,11.3000027,84.9179153,49.1841316,-0.344075591,496,30.559433,2.58647275,-9.74397945,-0.0216242272,-5.11445153,7.00693572,5.44008446,0,0.152118135,0.466700512,-1.50607398,2026-02-15T09:29:14.955Z
924.770935,1668.50314,0.860000014,-1.83706558,1.36198318,8.41698074,-1.3930192,2.50007582,1.21180791,9.11021085,60.4862292,1.24071685,21,1771147754962677,33.6207252,4.74437284,12.103352,85.0477371,49.1841316,-0.344075419,496,30.628149,2.62538981,-9.74420166,-0.0744708702,-5.43450261,7.03425513,5.62586355,0,0.152287619,0.46483619,-1.38845675,2026-02-15T09:29:14.962Z
924.780945,1668.52502,0.860000014,-1.18980205,0.912323415,8.41041374,-1.39958668,2.50172472,1.19805409,9.11362738,61.183852,1.2433788,21,1771147754969548,34.6807016,4.15565699,12.4896193,85.1775589,49.1841316,-0.344075247,496,30.6968651,2.66430712,-9.74442291,-0.118930477,-5.77567142,7.06165597,5.81164312,0,0.152457103,0.462971868,-1.26561374,2026-02-15T09:29:14.969Z
924.790955,1668.54696,0.860000014,-0.763591349,0.505925179,8.80660629,-1.00339401,2.50337815,1.18430026,9.1170439,61.8814747,1.24604075,21,1771147754976439,36.302902,4.17306536,12.8675129,85.3077393,49.1841316,-0.344075074,496,30.7657661,2.70322418,-9.74464512,-0.160533377,-6.13023528,7.08921347,5.9979229,0,0.152626587,0.461107546,-1.13895361,2026-02-15T09:29:14.976Z
924.800964,1668.56892,0.860000014,-0.452196509,1.60489213,8.13621998,-1.6737808,2.50503302,1.17054644,9.12046043,62.5790975,1.24870269,21,1771147754983333,38.5191623,4.3811387,13.2876933,85.4380035,49.1841316,-0.344074901,496,30.834713,2.74214149,-9.74486637,-0.203262144,-6.50397502,7.11687493,6.18433428,0,0.152796071,0.459243224,-1.00830623,2026-02-15T09:29:14.983Z
924.810974,1668.5908,0.860000014,-0.639718711,2.46852279,8.29267693,-1.51732361,2.5066824,1.15679261,9.12387696,63.2767203,1.25136464,21,1771147754990205,37.3426062,4.58921261,13.5137303,85.5678329,49.1841316,-0.344074729,496,30.903429,2.78105855,-9.74508858,-0.248071157,-6.88290806,7.14452791,6.37011337,0,0.152965554,0.457378902,-0.874428749,2026-02-15T09:29:14.990Z
924.820984,1668.61269,0.860094905,-0.894780219,2.69922352,8.56975651,-1.24024415,2.50834346,1.14303879,9.12729348,63.9743431,1.25402658,21,1771147754997561,32.4798817,4.26489355,13.3639967,85.7240677,49.1841316,-0.34407454,496,30.9627552,2.81997585,-9.74530983,-0.292296913,-7.2316562,7.17226726,6.55294514,0,0.153135038,0.45551458,-0.740171958,2026-02-15T09:29:14.997Z
924.830933,1668.63457,0.86083436,-0.768266261,1.35481298,8.18716335,-1.62283683,2.51008463,1.12928496,9.13071001,64.6719658,1.25668853,21,1771147755008206,26.9329359,3.79657842,13.1330829,86.0597382,49.1841316,-0.344074229,496,30.9582825,2.85889292,-9.74553108,-0.332809059,-7.53022119,7.2000942,6.71575594,0,0.153304522,0.453650258,-0.607008847,2026-02-15T09:29:15.008Z
924.840942,1668.65645,0.862237573,-0.0180134755,2.25200152,8.55509663,-1.25490403,2.51190877,1.11553113,9.13412653,65.3695886,1.25935048,21,1771147755022237,22.7943545,2.60347952,13.1169516,86.5801544,49.1841316,-0.344073794,496,30.8881226,2.89781022,-9.74575329,-0.364783933,-7.77863513,7.22801006,6.8579545,0,0.153474006,0.451785936,-0.47588665,2026-02-15T09:29:15.022Z
924.850952,1668.67839,0.86364454,-0.0978535414,3.79713178,8.63995934,-1.17004073,2.51373816,1.10177731,9.13754306,66.0672114,1.26201242,21,1771147755036307,16.1282736,1.78894808,12.8491428,87.1019745,49.1841316,-0.344073358,496,30.8177738,2.93672729,-9.74597454,-0.386728612,-7.97309081,7.25609137,7.00053501,0,0.15364349,0.449921614,-0.346181543,2026-02-15T09:29:15.036Z
924.860962,1668.70035,0.865052462,-0.531973958,3.83920717,8.12722015,-1.68277991,2.51556826,1.08802348,9.14095959,66.7648341,1.26467437,21,1771147755050386,5.14402773,1.15383307,12.0931635,87.6241608,49.1841316,-0.344072922,496,30.7473774,2.97564459,-9.74619675,-0.401431261,-8.07940213,7.28428433,7.14321709,0,0.153812973,0.448057292,-0.221587994,2026-02-15T09:29:15.050Z
924.870972,1668.72223,0.866455615,-0.384405166,2.4179275,8.16486263,-1.64513803,2.5173924,1.07426966,9.14437611,67.4624569,1.26733631,21,1771147755064418,-7.88439213,0.309335205,11.1372384,88.144577,49.1841316,-0.344072487,496,30.6772194,3.01456165,-9.746418,-0.408735918,-8.06565124,7.31247419,7.28541374,0,0.153982457,0.44619297,-0.105553884,2026-02-15T09:29:15.064Z
924.880981,1668.74412,0.867858827,-0.089543663,1.5717392,8.37726307,-1.43273771,2.51921654,1.06051583,9.14779264,68.1600797,1.26999826,21,1771147755078449,-18.1666096,-0.45633168,10.5435235,88.6649857,49.1841316,-0.344072052,496,30.6070595,3.05347896,-9.74664021,-0.407997926,-7.93547328,7.34075746,7.42761135,0,0.154151941,0.444328649,0.00274127852,2026-02-15T09:29:15.078Z
924.890991,1668.766,0.86926198,-0.442105889,1.81292117,7.806499,-2.00350142,2.52104068,1.04676201,9.15120916,68.8577025,1.27266021,21,1771147755092481,-27.2443516,-0.821393034,10.2200299,89.1854019,49.1841316,-0.344071617,496,30.5368996,3.09239602,-9.74686146,-0.401613769,-7.7085959,7.36913522,7.56980896,0,0.154321425,0.442464327,0.106456193,2026-02-15T09:29:15.092Z
924.900940,1668.78788,0.870665193,-0.732307315,3.63616419,7.65535069,-2.15464973,2.52286482,1.03300818,9.15462569,69.5553252,1.27532215,21,1771147755106513,-37.7248308,-0.93874107,9.64928322,89.7058258,49.1841316,-0.344071182,496,30.4667435,3.13131332,-9.74708366,-0.392768429,-7.38212359,7.39760855,7.712008,0,0.154490909,0.440600005,0.206313673,2026-02-15T09:29:15.106Z
924.910950,1668.80982,0.87207216,-0.265950441,4.15800905,7.68044138,-2.12955904,2.52469373,1.01925436,9.15804222,70.252948,1.2779841,21,1771147755120583,-53.6358884,-1.34556365,8.51971797,90.2276382,49.1841316,-0.344070746,496,30.3963947,3.17023039,-9.74730492,-0.381360023,-6.92584304,7.42625536,7.85458899,0,0.154660392,0.438735683,0.297075543,2026-02-15T09:29:15.120Z
924.920959,1668.83178,0.873480082,1.30103731,3.42796493,7.17070532,-2.63929486,2.52652431,1.00550053,9.16145874,70.9505708,1.28064605,21,1771147755134662,-72.4794188,-2.19261936,7.04900798,90.7498169,49.1841316,-0.34407031,496,30.3259964,3.20914769,-9.74752712,-0.363690497,-6.29597358,7.45502053,7.99726963,0,0.154829876,0.436871361,0.374850398,2026-02-15T09:29:15.134Z
924.930969,1668.85367,0.874883235,1.91598833,0.794179976,7.66949129,-2.14050913,2.52834821,0.991746704,9.16487527,71.6481936,1.28330799,21,1771147755148693,-88.054986,-2.98138411,5.65505641,91.2702408,49.1841316,-0.344069875,496,30.2558384,3.24806476,-9.74774837,-0.337843863,-5.494048,7.48378672,8.13946724,0,0.15499936,0.435007039,0.438305469,2026-02-15T09:29:15.148Z
924.940979,1668.87555,0.876286447,1.93444884,-2.37035918,8.5717783,-1.23822236,2.53017235,0.977992879,9.1682918,72.3458163,1.28596994,21,1771147755162725,-96.0671077,-3.34835338,4.5178622,91.7906494,49.1841316,-0.34406944,496,30.1856804,3.28698206,-9.74797058,-0.306224268,-4.57429672,7.51265216,8.28166485,0,0.155168844,0.433142717,0.4891149,2026-02-15T09:29:15.162Z
924.950989,1668.89743,0.8776896,1.53686237,-4.31861925,8.73331165,-1.07668865,2.53199673,0.964239053,9.17170832,73.0434391,1.28863188,21,1771147755176757,-94.3151512,-2.99241859,3.66264447,92.3110657,49.1841316,-0.344069005,496,30.1155205,3.32589912,-9.74819183,-0.274553081,-3.62332279,7.54161764,8.42386246,0,0.155338328,0.431278395,0.529973376,2026-02-15T09:29:15.176Z
924.960938,1668.91931,0.879089653,0.378704846,-4.4892149,10.1000443,0.290044248,2.53381872,0.950485227,9.17512485,73.7410619,1.29129383,21,1771147755190784,-84.1511719,-2.12774152,3.03218675,92.8310242,49.1841316,-0.34406857,497,30.0454311,3.36481643,-9.74841404,-0.248820163,-2.72640849,7.57068379,8.56589031,4.00289123e-05,0.155507812,0.429414073,0.563619675,2026-02-15T09:29:15.190Z
924.970947,1668.9412,0.879234135,-0.180156812,-4.521451,10.5708542,0.760854006,2.53484106,0.936731402,9.17854137,74.4386846,1.29395578,21,1771147755202659,-70.5048236,-1.52783588,2.42596987,93.164238,49.1841316,-0.344068202,497,30.003437,3.40373349,-9.74863529,-0.230557185,-1.95381657,7.59985153,8.63873482,0.0164564742,0.155677295,0.427549751,0.590886782,2026-02-15T09:29:15.202Z
924.980957,1668.96314,0.877651095,-0.629679382,-3.96364069,11.0594807,1.24948049,2.53476524,0.922977576,9.1819579,75.1363074,1.29661772,21,1771147755211606,-56.1941504,-1.34535503,1.89070872,93.2413559,49.1841316,-0.344067925,497,30,3.44265079,-9.74885654,-0.216204352,-1.32086999,7.62920024,8.61656475,0.0857533075,0.155846779,0.425685429,0.612451728,2026-02-15T09:29:15.211Z
924.990967,1668.9851,0.875913143,-0.215539053,-2.70515728,11.0907221,1.2807219,2.5345912,0.909223751,9.18537443,75.8339302,1.29927967,21,1771147755220295,-44.1572229,-2.16755625,1.58858476,93.2956543,49.1841316,-0.344067655,497,30,3.48156786,-9.74907875,-0.198657002,-0.819601609,7.65867311,8.58590698,0.138460555,0.156016263,0.423821107,0.629831249,2026-02-15T09:29:15.220Z
925.000977,1669.00698,0.874181032,0.792789817,-0.839804947,11.2126074,1.40260684,2.53441811,0.895469925,9.18879095,76.531553,1.30194162,21,1771147755228955,-36.6376174,-3.66029262,1.37830237,93.3497696,49.1841316,-0.344067387,497,30,3.52048516,-9.7493,-0.169538908,-0.416058153,7.68814938,8.55535316,0.20583747,0.156185747,0.421956785,0.644650188,2026-02-15T09:29:15.228Z
925.010986,1669.02886,0.872448981,2.15822887,1.28132772,11.6710949,1.86109459,2.53424501,0.881716099,9.19220748,77.2291757,1.30460356,21,1771147755237616,-40.8116001,-6.15516094,0.234635829,93.4038849,49.1841316,-0.344067119,497,30,3.55940223,-9.74952221,-0.120497372,-0.0291693992,7.71772916,8.52479935,0.309100128,0.156355231,0.420092464,0.652701435,2026-02-15T09:29:15.237Z
925.020935,1669.05075,0.870716929,3.82453036,2.04953265,11.8670559,2.05705571,2.53407168,0.867962274,9.195624,77.9267985,1.30726551,21,1771147755246277,-50.4840301,-7.23009768,-1.00601045,93.4580002,49.1841316,-0.34406685,497,30,3.59831953,-9.74974346,-0.0532267012,0.429659077,7.74741276,8.49424648,0.461818372,0.156524714,0.418228142,0.648823182,2026-02-15T09:29:15.246Z
925.030945,1669.07263,0.868984878,4.39601755,0.465227067,11.6291304,1.81912994,2.53389859,0.854208448,9.19904053,78.6244213,1.30992745,21,1771147755254937,-58.8456348,-6.76445078,-1.86765623,93.5121155,49.1841316,-0.344066582,497,30,3.6372366,-9.74996567,0.0166800282,0.975733345,7.77720064,8.46369267,0.672133683,0.156694198,0.41636382,0.634473063,2026-02-15T09:29:15.254Z
925.040955,1669.09457,0.867248118,4.21885967,-1.33846188,11.1116781,1.30167806,2.53372478,0.840454622,9.20245706,79.322044,1.3125894,21,1771147755263620,-61.6743982,-5.67153859,-2.26446327,93.5663757,49.1841316,-0.344066313,497,30,3.6761539,-9.75018692,0.0788046332,1.57773178,7.80717342,8.43305683,0.901225407,0.156863682,0.414499498,0.613834559,2026-02-15T09:29:15.263Z
925.050964,1669.11653,0.865510166,3.31420565,-3.43769479,10.6256733,0.815672934,2.53355098,0.826700797,9.20587358,80.0196668,1.31525135,21,1771147755272310,-57.4124719,-4.32255979,-2.10340226,93.6206741,49.1841316,-0.344066043,497,30,3.71507096,-9.75040913,0.128729779,2.17259598,7.8372726,8.40239906,1.12197381,0.157033166,0.412635176,0.592016132,2026-02-15T09:29:15.272Z
925.060974,1669.13841,0.863778114,2.49238491,-4.81632519,10.203557,0.393557072,2.53337789,0.812946971,9.20929011,80.7172896,1.31791329,21,1771147755280970,-46.0565422,-3.52977246,-1.80164002,93.6747894,49.1841316,-0.344065775,497,30,3.75398827,-9.75063038,0.167949272,2.68938094,7.8673744,8.37184429,1.30825629,0.15720265,0.410770854,0.572511441,2026-02-15T09:29:15.280Z
925.070984,1669.16029,0.862046063,0.948615372,-4.58843422,10.2245541,0.414553255,2.53320456,0.799193146,9.21270663,81.4149124,1.32057524,21,1771147755289631,-28.8377749,-3.04184361,-1.19947447,93.7289047,49.1841316,-0.344065506,497,30,3.79290533,-9.75085258,0.200772925,3.06340332,7.89758059,8.34129143,1.46342184,0.157372133,0.408906532,0.557523442,2026-02-15T09:29:15.289Z
925.080933,1669.18218,0.860604227,-0.53850019,-4.04400826,10.4029226,0.592921853,2.53285289,0.78543932,9.21612316,82.1125351,1.32323718,21,1771147755298568,-14.2690552,-2.90910218,-0.712187092,93.7536087,49.1841316,-0.344065233,497,30.0172806,3.8318224,-9.75107384,0.230679538,3.27998715,7.927891,8.30341434,1.56225904,0.157541617,0.40704221,0.547917996,2026-02-15T09:29:15.298Z
925.090942,1669.20406,0.860000014,-1.9076246,-3.13350844,10.7041426,0.894142509,2.53198671,0.771685494,9.21953969,82.8101579,1.32589913,21,1771147755308305,-1.55792592,-2.88389433,-0.322484046,93.6934128,49.1841316,-0.344064945,497,30.0844421,3.8707397,-9.75129604,0.259616378,3.35910661,7.95830553,8.24440002,1.60653426,0.157711101,0.405177888,0.542747796,2026-02-15T09:29:15.308Z
925.100952,1669.226,0.860000014,-3.78033733,-0.647420108,11.5773144,1.7673136,2.53074574,0.757931669,9.22295621,83.5077807,1.32856108,21,1771147755318647,11.2948897,-2.51112392,0.170772727,93.5716248,49.1841316,-0.344064646,497,30.1878586,3.90965676,-9.7515173,0.28656696,3.31053195,7.98890594,8.16994095,1.60144786,0.157880585,0.403313566,0.541987574,2026-02-15T09:29:15.318Z
925.110962,1669.24796,0.860000014,-6.13362837,1.71073818,12.3146276,2.50462747,2.52950382,0.744177843,9.22637274,84.2054034,1.33122302,21,1771147755328996,14.9989196,-1.44882785,0.217106683,93.4497604,49.1841316,-0.344064347,497,30.2913475,3.94857407,-9.75173855,0.306352584,3.17920924,8.01963194,8.09542847,1.5293824,0.158050069,0.401449244,0.543924853,2026-02-15T09:29:15.328Z
925.120972,1669.26984,0.860000014,-9.75078869,3.96381116,11.6798935,1.86989331,2.52826619,0.730424018,9.22978926,84.9030262,1.33388497,21,1771147755339310,5.64281043,0.405425032,-0.537704526,93.3283081,49.1841316,-0.344064049,497,30.3944874,3.98749113,-9.75196075,0.311555622,3.07614611,8.05035665,8.02116871,1.37362748,0.158219553,0.399584922,0.54231981,2026-02-15T09:29:15.339Z
925.130981,1669.29173,0.860000014,-8.91981697,4.34152412,10.2651367,0.455136508,2.52702832,0.716670192,9.23320579,85.600649,1.33654692,21,1771147755349624,-6.53283492,0.116942983,-1.23806565,93.2068634,49.1841316,-0.344063751,497,30.4976254,4.0264082,-9.75218201,0.308947755,3.0806512,8.08118347,7.9469099,1.08964384,0.158389036,0.397720601,0.533446213,2026-02-15T09:29:15.349Z
925.140991,1669.31361,0.860000014,-6.29502392,5.98324442,10.7331591,0.923158824,2.52579069,0.702916366,9.23662232,86.2982718,1.33920886,21,1771147755359937,-21.5160015,-1.043624,-1.95356871,93.0854111,49.1841316,-0.344063453,497,30.6007633,4.06532574,-9.75240421,0.313582296,3.22083142,8.11211169,7.87265062,0.838690834,0.15855852,0.395856279,0.517500133,2026-02-15T09:29:15.359Z
925.150940,1669.33549,0.860000014,-4.63996315,4.98649168,10.5511036,0.74110359,2.5245533,0.689162541,9.24003884,86.9958945,1.34187081,21,1771147755370251,-38.7623847,-1.41043733,-2.75859774,92.963974,49.1841316,-0.344063155,497,30.7039032,4.1042428,-9.75262547,0.325914267,3.52370594,8.14314061,7.79839087,0.684152019,0.158728004,0.393991957,0.493821475,2026-02-15T09:29:15.370Z
925.160950,1669.35743,0.860000014,-3.61135173,2.40151381,10.7813225,0.971322119,2.52331233,0.675408715,9.24345537,87.6935173,1.34453275,21,1771147755380592,-54.7354415,-0.82297293,-3.51758454,92.8421936,49.1841316,-0.344062856,497,30.8073177,4.14315987,-9.75284767,0.337073269,3.99066115,8.17435319,7.72393131,0.59175613,0.158897488,0.392127635,0.46247488,2026-02-15T09:29:15.380Z
925.170959,1669.37939,0.860000014,-2.95816827,0.0449530035,11.3862715,1.57627094,2.52207041,0.661654889,9.24687189,88.3911401,1.3471947,21,1771147755390941,-61.2730716,0.86812165,-3.65549159,92.720314,49.1841316,-0.344062556,497,30.9107971,4.18207693,-9.75306892,0.336855989,4.57010593,8.20568736,7.64942646,0.537602522,0.159066972,0.390263313,0.426645163,2026-02-15T09:29:15.390Z
925.180969,1669.40127,0.860000014,-2.90178442,-3.30757356,11.1894989,1.37949884,2.5214653,0.647901064,9.25028842,89.0887628,1.34985665,21,1771147755401687,-61.2162154,3.42271432,-3.48892323,92.539711,49.1841316,-0.344062246,497,30.9822292,4.22099447,-9.75329113,0.315416728,5.18195472,8.23701335,7.60201693,0.50781773,0.159236455,0.388398991,0.390958332,2026-02-15T09:29:15.401Z
