T,D,PDOP,acc_x,acc_y,acc_z,acc_z_,altitude,amp_pitch,amp_roll,cadence,d_stroke,gpsTimeAccuracyNs,gpstimeUs,gyro_x,gyro_y,gyro_z,heading,latitude,longitude,motif_id,nSat,pic_acc,pic_down,pitch,roll,speed,speed_gps,speed_i,t_acc,t_down,yaw,time
1157.037842,1794.78644,0.959999979,0.0148340352,-1.01008058,10.2716656,0.461665034,2.1352644,0.254347096,4.40513486,75.2407276,0.569907499,21,1771148103614227,21.2580123,0.947160859,1.2671332,104.427193,49.1841812,-0.344087765,831,30,2.03200531,-0.54975611,-0.155589545,0.223579283,3.40939676,0.792523861,2.6350957,0.429207865,0.144653558,1.65169436,2026-02-15T09:35:03.614Z
1157.047852,1794.78823,0.959999979,0.0416645482,-0.946645319,10.2330189,0.423018903,2.13478994,0.254593483,4.36601963,75.700962,0.572168845,21,1771148103623720,23.1396071,0.676805845,1.27709329,103.075691,49.1841812,-0.344087737,831,30,2.10368729,-0.555277705,-0.163701812,0.00181022949,3.43157709,0.781244755,2.64336397,0.429734231,0.143776282,1.66440307,2026-02-15T09:35:03.623Z
1157.057861,1794.79002,0.959999979,0.11574474,-1.02030134,10.2031736,0.39317295,2.13431525,0.254839869,4.32690441,76.1611964,0.574430191,21,1771148103633215,24.8996023,0.33323471,1.35672072,101.72419,49.1841812,-0.344087709,831,30,2.17536902,-0.560799241,-0.168745412,-0.238160058,3.45383609,0.769965589,2.65273688,0.430260596,0.142899007,1.67755968,2026-02-15T09:35:03.633Z
1157.067871,1794.79183,0.959999979,0.287365377,-1.02900076,10.1654396,0.355439603,2.13383603,0.255086256,4.28778918,76.6214308,0.576691537,21,1771148103642799,26.7853657,-0.080062911,1.24093039,100.359879,49.1841812,-0.34408768,831,30,2.24705076,-0.566320837,-0.170008025,-0.496341952,3.47638477,0.758579671,2.66490279,0.430786961,0.142021731,1.6905347,2026-02-15T09:35:03.642Z
1157.077881,1794.79362,0.959999979,0.337489873,-0.848339021,9.95986176,0.149861157,2.13335991,0.255332642,4.24867396,77.0816652,0.578952883,21,1771148103652319,28.7445604,0.0321532034,1.18046117,99.0046921,49.1841812,-0.344087652,831,30,2.31873274,-0.571842372,-0.169769267,-0.77373022,3.49886076,0.747269809,2.68334474,0.431313327,0.141144455,1.70262955,2026-02-15T09:35:03.652Z
1157.087891,1794.79541,0.959999979,0.294746786,-0.896499217,9.97510147,0.165100679,2.13288498,0.255579029,4.20955873,77.5418996,0.581214229,21,1771148103661813,30.3775959,0.108070817,1.25562477,97.6531754,49.1841812,-0.344087624,831,30,2.39041448,-0.577363968,-0.170470069,-1.0690605,3.52135244,0.735990524,2.70362972,0.431839692,0.14026718,1.71479847,2026-02-15T09:35:03.661Z
1157.097900,1794.7972,0.959999979,0.2514925,-0.800881684,10.1253481,0.315347999,2.13241029,0.255825415,4.17044351,78.0021339,0.583475575,21,1771148103671308,31.5304448,0.311985509,1.27254417,96.3016739,49.1841812,-0.344087595,831,30,2.46209621,-0.582885504,-0.172569293,-1.37830427,3.54391959,0.724711478,2.72239951,0.432366058,0.139389904,1.72742706,2026-02-15T09:35:03.671Z
1157.107788,1794.79899,0.959999979,0.203736663,-0.706673503,10.2761021,0.466102034,2.13193583,0.256071802,4.13132828,78.4623683,0.585736921,21,1771148103680802,31.8637258,0.390905149,1.35217791,94.9501801,49.1841812,-0.344087567,831,30,2.53377819,-0.588407099,-0.176123645,-1.69883325,3.56656183,0.713432312,2.73985216,0.432892423,0.138512628,1.74069818,2026-02-15T09:35:03.680Z
1157.117798,1794.80077,0.959999979,0.210995421,-0.361327529,10.4726353,0.662635148,2.13146138,0.256318189,4.09221306,78.9226027,0.587998267,21,1771148103690297,31.0102493,0.0662148399,1.43498065,93.6006927,49.1841812,-0.344087539,831,30,2.60545993,-0.593928635,-0.178408576,-2.01290037,3.58927778,0.702150762,2.75543826,0.433418788,0.137635353,1.75461998,2026-02-15T09:35:03.690Z
1157.127808,1794.80256,0.959999979,0.388454616,0.326156408,10.4215431,0.611542463,2.1310401,0.256564575,4.05309783,79.3828371,0.590259613,21,1771148103699961,26.5999757,-0.404991876,1.54275378,92.6569138,49.1841812,-0.344087512,831,30,2.67714167,-0.599450231,-0.176718629,-2.30069177,3.61206694,0.69037205,2.77135067,0.433945154,0.136758077,1.76949361,2026-02-15T09:35:03.699Z
1157.137817,1794.80435,0.959999979,0.509525061,0.816227019,10.3268423,0.516841471,2.1307869,0.256810962,4.01398261,79.8430715,0.592520959,21,1771148103710161,21.1634428,-0.749706756,1.70765353,92.9969482,49.1841812,-0.344087489,831,30,2.7488234,-0.604971766,-0.170952448,-2.53930219,3.63492842,0.677020371,2.7937161,0.434471519,0.135880801,1.78572899,2026-02-15T09:35:03.710Z
1157.147827,1794.80614,0.959999979,0.56201911,0.832334876,10.1769819,0.366981536,2.13058019,0.257057348,3.97486738,80.3033059,0.594782305,21,1771148103720507,14.4718874,-0.819524458,1.96416135,93.6877213,49.1841812,-0.344087468,831,30,2.82050538,-0.610493362,-0.16311429,-2.71733751,3.65786138,0.663239002,2.82044322,0.434997885,0.135003526,1.80406891,2026-02-15T09:35:03.720Z
1157.157837,1794.80793,0.959999979,0.584221363,0.483339041,10.0938015,0.283800781,2.13037324,0.257303735,3.93575216,80.7635403,0.59704365,21,1771148103730854,7.59402753,-0.678900992,2.25611923,94.3784943,49.1841812,-0.344087446,832,30,2.89218712,-0.616014898,-0.155628788,-2.82759294,3.68086493,0.649457633,2.84902145,0.43552425,0.13412625,1.8251483,2026-02-15T09:35:03.730Z
1157.167847,1794.80972,0.959999979,0.644687891,0.0457040295,10.0754642,0.265464038,2.13016629,0.257550121,3.89663693,81.2237746,0.599304996,21,1771148103741201,1.71583321,-0.467009677,2.54799109,95.0692673,49.1841812,-0.344087424,832,30,2.96386886,-0.621536493,-0.149903791,-2.87412549,3.70393817,0.635676205,2.87834116,0.436050615,0.133248974,1.849144,2026-02-15T09:35:03.741Z
1157.177856,1794.8115,0.959999979,0.8134045,-0.0485830829,10.062499,0.252499104,2.12995934,0.257796508,3.8575217,81.684009,0.601566342,21,1771148103751547,-2.25240392,-0.255117301,2.80572938,95.7600327,49.1841812,-0.344087403,832,30,3.03555083,-0.627058029,-0.146297435,-2.87143111,3.72708027,0.621894777,2.90977441,0.436576981,0.132371699,1.8758874,2026-02-15T09:35:03.751Z
1157.187866,1794.81329,0.959999979,0.77730459,0.127459377,10.0446854,0.234684974,2.1297524,0.258042894,3.81840648,82.1442434,0.603827688,21,1771148103761894,-4.93793696,-0.246965949,3.06155984,96.4508057,49.1841812,-0.344087381,832,30,3.10723257,-0.632579625,-0.143789506,-2.83550141,3.75029027,0.608113289,2.94719348,0.437103346,0.131494423,1.90519647,2026-02-15T09:35:03.761Z
1157.197876,1794.8151,0.959999979,0.437691838,0.441088349,10.1237526,0.313752621,2.1295433,0.258289281,3.77929125,82.6044778,0.606089034,21,1771148103772337,-7.51483119,-0.352292978,3.38696966,97.1481171,49.1841812,-0.344087359,832,30,3.17891431,-0.638101161,-0.14079562,-2.77328579,3.77378778,0.594201446,2.98317228,0.437629711,0.130617148,1.93740925,2026-02-15T09:35:03.772Z
1157.207886,1794.81689,0.959999979,0.251498371,0.712433815,10.0781145,0.26811412,2.12933612,0.258535667,3.74017603,83.0647122,0.60835038,21,1771148103782712,-10.6652424,-0.485308418,3.78201764,97.8407745,49.1841812,-0.344087338,832,30,3.25059628,-0.643622756,-0.136611053,-2.68245881,3.79719519,0.580382407,3.00681229,0.438156077,0.129739872,1.97322113,2026-02-15T09:35:03.782Z
1157.217896,1794.81868,0.959999979,0.325544566,1.29773951,9.6776886,-0.132312089,2.12912917,0.258782054,3.7010608,83.5249466,0.610611726,21,1771148103793058,-14.2588116,-0.627298986,4.07843385,98.5315628,49.1841812,-0.344087316,832,30,3.32227802,-0.649144351,-0.131052756,-2.55794271,3.82060443,0.566600859,3.02375354,0.438682442,0.128862596,2.01248648,2026-02-15T09:35:03.793Z
1157.227905,1794.82047,0.959999979,0.270388156,1.17319894,9.5311842,-0.278816581,2.12890267,0.25902844,3.66194558,83.985181,0.612873072,21,1771148103802446,-21.0296536,-0.290152077,4.49916079,99.5058441,49.1841812,-0.344087293,832,30,3.39395976,-0.654665887,-0.126471627,-2.38163966,3.84407767,0.574017048,3.04342243,0.439208808,0.127985321,2.05533465,2026-02-15T09:35:03.802Z
1157.237793,1794.82226,0.959999979,0.11815834,0.225168839,9.46738529,-0.342615247,2.12865758,0.259274827,3.62283035,84.4454154,0.615134418,21,1771148103810924,-27.0671841,0.0773952167,4.97799147,100.749001,49.1841812,-0.344087269,832,30,3.46564174,-0.660187483,-0.125395563,-2.1384619,3.8676144,0.601535797,3.06133214,0.439735173,0.127108045,2.1032516,2026-02-15T09:35:03.810Z
1157.247803,1794.82405,0.959999979,0.0952563584,-0.628566682,9.27018452,-0.539815962,2.12840891,0.259521213,3.58371513,84.9056497,0.617395764,21,1771148103819216,-26.9275419,0.214210003,5.16463295,102.047295,49.1841812,-0.344087244,832,30,3.53732347,-0.665709019,-0.126851508,-1.86875109,3.89121332,0.6331774,3.07363733,0.440261538,0.126230769,2.15391433,2026-02-15T09:35:03.819Z
1157.257812,1794.82584,0.959999979,0.0293198396,-0.687077761,9.50341225,-0.306588501,2.12816,0.2597676,3.5445999,85.3658841,0.61965711,21,1771148103827508,-24.2050569,0.394585012,5.1146153,103.345596,49.1841812,-0.344087219,832,30,3.60900521,-0.671230614,-0.129891631,-1.61332435,3.91487377,0.664818823,3.08523319,0.440787904,0.125353494,2.20526067,2026-02-15T09:35:03.827Z
1157.267822,1794.82762,0.959999979,0.000370082213,0.0460585281,9.49362469,-0.316375732,2.12791133,0.260013986,3.50548468,85.8261185,0.621918456,21,1771148103835800,-21.2239055,0.332879096,4.98054291,104.643898,49.1841812,-0.344087195,832,30,3.68068695,-0.67675215,-0.133525701,-1.38638664,3.93859484,0.696460366,3.09457687,0.441314269,0.124476218,2.25568787,2026-02-15T09:35:03.835Z
1157.277832,1794.82941,0.959999979,0.066502437,0.308459014,9.16367912,-0.646321058,2.12766266,0.260260373,3.46636945,86.2863529,0.624179802,21,1771148103844092,-19.7595312,0.22593914,4.89165841,105.942192,49.1841812,-0.34408717,832,30,3.75236893,-0.682273746,-0.136317589,-1.18166225,3.96237566,0.72810185,3.10301966,0.441840635,0.123598942,2.30500115,2026-02-15T09:35:03.844Z
1157.287842,1794.8312,0.959999979,0.151225418,0.613035262,9.27013206,-0.539868712,2.12741375,0.26050676,3.42725423,86.7465873,0.626441147,21,1771148103852384,-18.5181759,0.261213129,4.69459218,107.240486,49.1841812,-0.344087145,832,30,3.82405066,-0.687795281,-0.138750802,-0.990454387,3.98621534,0.759743392,3.11399349,0.442367,0.122721667,2.3528866,2026-02-15T09:35:03.852Z
1157.297852,1794.83299,0.959999979,0.180407599,0.569402933,9.28805828,-0.521941841,2.12716508,0.260753146,3.388139,87.2068217,0.628702493,21,1771148103860675,-17.1326472,0.398897475,4.52913564,108.53878,49.1841812,-0.34408712,832,30,3.8957324,-0.693316877,-0.142047955,-0.812372359,4.01011305,0.791384935,3.12814529,0.442893365,0.121844391,2.39896046,2026-02-15T09:35:03.860Z
1157.307861,1794.83478,0.959999979,0.120008871,0.889645934,9.27363586,-0.536364377,2.12691641,0.260999533,3.34902377,87.6670561,0.630963839,21,1771148103868967,-15.8985941,0.678438778,4.39958009,109.837082,49.1841812,-0.344087096,832,30,3.96741438,-0.698838413,-0.147430744,-0.647383296,4.03406793,0.823026419,3.1434447,0.443419731,0.120967115,2.44355985,2026-02-15T09:35:03.868Z
1157.317871,1794.83658,0.959999979,0.139772937,1.12832892,9.44286728,-0.367132664,2.12666512,0.261245919,3.30990855,88.1272905,0.633225185,21,1771148103877337,-14.9253941,0.930804208,4.23777995,111.147675,49.1841812,-0.344087071,832,30,4.03909636,-0.704360008,-0.155470336,-0.493418447,4.05830669,0.854967654,3.15665835,0.443946096,0.12008984,2.48670373,2026-02-15T09:35:03.877Z
1157.327881,1794.83838,0.959999979,0.214221939,0.789756179,9.45229816,-0.357702464,2.12641573,0.261492306,3.27079332,88.5875248,0.635486531,21,1771148103885652,-14.2614281,0.942070863,4.07289616,112.449509,49.1841812,-0.344087046,832,30,4.11077785,-0.709881544,-0.164825625,-0.347629928,4.0824395,0.886695445,3.17069295,0.444472462,0.119212564,2.52821577,2026-02-15T09:35:03.885Z
1157.337891,1794.84017,0.959999979,0.318200439,-0.00516872341,9.33356094,-0.476439804,2.12616682,0.261738692,3.2316781,89.0477592,0.637747877,21,1771148103893944,-13.0085113,0.870053114,3.94471991,113.747826,49.1841812,-0.344087021,832,30,4.18245983,-0.71540314,-0.173877053,-0.211419346,4.1065617,0.918337226,3.18750598,0.444998827,0.118335288,2.56826412,2026-02-15T09:35:03.893Z
1157.347900,1794.84195,0.958415806,0.44334206,-1.01249146,9.30063725,-0.509363294,2.12608838,0.261985079,3.19256287,89.5079936,0.640009223,21,1771148103901844,-9.8446831,0.903947036,3.71993294,114.268738,49.1841812,-0.344086998,832,30,4.25414133,-0.720924675,-0.182738569,-0.0972802337,4.13073753,0.926128685,3.20813159,0.445525192,0.117458013,2.6065489,2026-02-15T09:35:03.901Z
1157.357788,1794.84374,0.955099881,0.532469153,-1.31970727,9.33602142,-0.473979324,2.12619591,0.262231465,3.15344765,89.968228,0.642270569,21,1771148103909316,-4.22618363,0.944377318,3.37761008,113.939796,49.1841812,-0.344086975,832,30,4.32582331,-0.726446271,-0.192084037,-0.0261563218,4.15496659,0.907847285,3.23361986,0.446051558,0.116580737,2.64243355,2026-02-15T09:35:03.909Z
1157.367798,1794.84553,0.951410115,0.483596981,-1.10480523,9.22429466,-0.585706055,2.12634349,0.262477852,3.11433242,90.4284624,0.644531915,21,1771148103916696,1.86914664,0.947002908,3.03855243,113.427391,49.1841812,-0.344086953,832,30,4.39750528,-0.731967807,-0.201531703,-0.0143532265,4.17924774,0.883937359,3.26197625,0.446577923,0.115703462,2.6744847,2026-02-15T09:35:03.916Z
1157.377808,1794.84732,0.947720289,0.283908635,-1.0303899,9.28651142,-0.523488879,2.12649107,0.262724238,3.0752172,90.8886968,0.646793261,21,1771148103924075,8.51474861,1.01303246,2.66793195,112.915001,49.1841812,-0.344086931,832,30,4.46918678,-0.737489402,-0.211321999,-0.0661898533,4.20358043,0.860027313,3.28853951,0.447104288,0.114826186,2.70299108,2026-02-15T09:35:03.924Z
1157.387817,1794.84911,0.944030464,-0.0604725033,-0.873972714,9.46347237,-0.346527576,2.12663865,0.262970625,3.03610197,91.3489312,0.649054607,21,1771148103931455,14.1216353,1.09119745,2.35468694,112.402596,49.1841812,-0.344086909,832,30,4.54086876,-0.743010938,-0.221832502,-0.179234066,4.22796395,0.836117327,3.30790374,0.447630654,0.11394891,2.7280812,2026-02-15T09:35:03.931Z
1157.397827,1794.8509,0.940340638,-0.374901831,-0.298696578,9.57239914,-0.237601683,2.12678623,0.263217011,2.99698675,91.8091655,0.651315953,21,1771148103938835,16.2943014,1.06172198,2.18700558,111.890205,49.1841812,-0.344086887,832,30,4.61255074,-0.748532534,-0.23258674,-0.33115478,4.25239758,0.812207341,3.31493134,0.448157019,0.113071635,2.75076832,2026-02-15T09:35:03.938Z
1157.407837,1794.85269,0.936650813,-0.573728681,0.340221524,9.70203304,-0.107966989,2.12693405,0.263463398,2.95787152,92.2693999,0.653577299,21,1771148103946215,16.2689967,0.994126901,2.08892985,111.377808,49.1841812,-0.344086865,832,30,4.68423223,-0.75405407,-0.242856284,-0.493812521,4.27688063,0.788297355,3.31082026,0.448683385,0.112194359,2.77212762,2026-02-15T09:35:03.946Z
1157.417847,1794.85447,0.932961047,-0.735213995,0.6530357,9.74025726,-0.0697434694,2.12708139,0.263709784,2.9187563,92.7296343,0.655838645,21,1771148103953595,13.6555873,0.894988858,2.06045804,110.86541,49.1841812,-0.344086843,832,30,4.75591421,-0.759575665,-0.252293131,-0.643302211,4.30141243,0.76438731,3.29984268,0.44920975,0.111317083,2.79285446,2026-02-15T09:35:03.953Z
1157.427856,1794.85626,0.929271221,-0.767837763,0.744326949,9.77417278,-0.0358276926,2.12722898,0.263956171,2.87964107,93.1898687,0.65809999,21,1771148103960974,9.60999283,0.694572377,2.10164806,110.353012,49.1841812,-0.344086822,832,30,4.82759619,-0.765097201,-0.260232469,-0.759502196,4.32599236,0.740477324,3.28340683,0.449736115,0.110439808,2.81364483,2026-02-15T09:35:03.960Z
1157.437866,1794.85805,0.925581396,-0.633037269,0.688075125,9.82217121,0.0121710664,2.12737679,0.268406273,2.89620794,93.4399064,0.661107575,21,1771148103968354,5.25085548,0.448884407,2.18104713,109.840614,49.1841812,-0.3440868,832,30,4.87253571,-0.785724759,-0.265942978,-0.833712715,4.35061976,0.716567338,3.26620732,0.450779297,0.110467578,2.8350378,2026-02-15T09:35:03.968Z
1157.447876,1794.85986,0.921856642,-0.405710489,0.668299079,9.80388737,-0.00611304725,2.12752557,0.277082574,2.9687547,93.4786234,0.664865389,21,1771148103975804,1.11770399,0.366730857,2.22904926,109.323364,49.1841812,-0.344086777,832,30,4.89059019,-0.821538985,-0.270016679,-0.865504362,4.37552774,0.692430913,3.25427374,0.45234206,0.111405236,2.857067,2026-02-15T09:35:03.975Z
1157.457886,1794.86165,0.918156743,-0.307889551,0.542043924,9.84164333,0.0316428468,2.12767386,0.285758874,3.04130146,93.5173403,0.668623203,21,1771148103983203,-2.56615915,0.438461079,2.30087534,108.80957,49.1841812,-0.344086755,832,30,4.9086442,-0.85735327,-0.274039064,-0.858251295,4.4003162,0.66845566,3.25088399,0.453904822,0.112342893,2.87969488,2026-02-15T09:35:03.983Z
1157.467896,1794.86344,0.914466918,-0.384502292,0.136551753,10.0462503,0.236250356,2.12782145,0.294435175,3.11384822,93.5560572,0.672381016,21,1771148103990583,-5.32650384,0.41730695,2.3872837,108.297165,49.1841812,-0.344086733,832,30,4.92669868,-0.893167496,-0.278313623,-0.818813151,4.42508325,0.644545436,3.25129388,0.455467584,0.11328055,2.90311322,2026-02-15T09:35:03.990Z
1157.477905,1794.86534,0.91081959,-0.404755443,-0.299775064,10.0911493,0.281148851,2.1279645,0.303111475,3.18639499,93.5947742,0.67613883,21,1771148103998030,-6.35508179,0.263804118,2.39670112,107.790993,49.1841812,-0.344086711,832,30.000761,4.94475317,-0.928981781,-0.281715108,-0.760457317,4.4498952,0.62090826,3.24919175,0.457030346,0.114218208,2.92700985,2026-02-15T09:35:03.998Z
1157.487793,1794.87487,0.910000026,-0.233278409,-0.628192127,10.0556126,0.24561201,2.12779188,0.311787776,3.25894175,93.6334911,0.679896644,21,1771148104009929,-5.60669223,0.0969249007,2.38693007,107.698624,49.1841812,-0.344086685,832,30.0520573,4.96280766,-0.964796066,-0.283539169,-0.699975411,4.47475191,0.615412533,3.2466339,0.458593109,0.115155865,2.9511964,2026-02-15T09:35:04.009Z
1157.497803,1794.88662,0.910000026,0.0812638551,-0.750026762,10.1952467,0.385246307,2.12752795,0.320464076,3.33148851,93.672208,0.683654458,21,1771148104023118,-2.85283546,-0.0401813427,2.3073069,107.726196,49.1841812,-0.344086657,832,30.1180038,4.98086214,-1.00061035,-0.283823275,-0.657705786,4.4996526,0.615175128,3.25050211,0.460155871,0.116093523,2.97464507,2026-02-15T09:35:04.023Z
1157.507812,1794.89836,0.910000026,0.631219685,-0.621185601,10.2505255,0.440525144,2.12726426,0.329140377,3.40403527,93.710925,0.687412272,21,1771148104036307,1.23241822,-0.104318501,2.15788533,107.753769,49.1841812,-0.34408663,832,30.1839523,4.99891615,-1.03642452,-0.283101798,-0.649591844,4.52459695,0.614937723,3.26588475,0.461718633,0.11703118,2.99694997,2026-02-15T09:35:04.036Z
1157.517822,1794.91011,0.910000026,1.38548756,-0.734586358,10.1471796,0.337178886,2.12700057,0.337816677,3.47658203,93.7496419,0.691170086,21,1771148104049497,6.08879661,0.0195208725,1.95680355,107.781342,49.1841812,-0.344086602,832,30.2498989,5.01697063,-1.0722388,-0.282677622,-0.686138592,4.54958453,0.614700317,3.30113498,0.463281396,0.117968837,3.01750432,2026-02-15T09:35:04.049Z
1157.527832,1794.92185,0.910000026,1.82140243,-0.918212771,10.3837681,0.5737679,2.12673664,0.346492978,3.5491288,93.7883588,0.694927899,21,1771148104062686,9.14308155,0.109602986,1.75558407,107.808914,49.1841812,-0.344086575,832,30.3158455,5.03502512,-1.10805309,-0.283322173,-0.762208837,4.57461488,0.614462972,3.36342128,0.464844158,0.118906495,3.03604912,2026-02-15T09:35:04.062Z
1157.537842,1794.9336,0.910000026,2.49557281,-1.04116654,10.517086,0.707085311,2.12647271,0.355169278,3.62167556,93.8270758,0.698685713,21,1771148104075875,12.6516417,0.143695118,1.55420252,107.836487,49.1841812,-0.344086547,832,30.3817921,5.05307961,-1.14386737,-0.284587259,-0.871059046,4.59968763,0.614225566,3.44100476,0.46640692,0.119844152,3.05258289,2026-02-15T09:35:04.075Z
1157.547852,1794.94534,0.910000026,3.34749889,-0.829339564,10.5442648,0.734264195,2.12620902,0.363845579,3.69422232,93.8657927,0.702443527,21,1771148104089065,16.5931597,-0.151360159,1.31693401,107.864067,49.1841812,-0.34408652,832,30.4477406,5.07113409,-1.17968166,-0.284549359,-1.01713522,4.62480239,0.613988101,3.54231475,0.467969683,0.12078181,3.06692488,2026-02-15T09:35:04.089Z
1157.557861,1794.95709,0.910000026,4.20948267,-0.17285271,10.3976212,0.587620854,2.12594533,0.372521879,3.76676908,93.9045096,0.706201341,21,1771148104102254,20.0702075,-0.516187979,1.01122235,107.891632,49.1841812,-0.344086492,832,30.5136871,5.0891881,-1.21549582,-0.281213096,-1.20029016,4.64995881,0.613750696,3.67352144,0.469532445,0.121719467,3.07855282,2026-02-15T09:35:04.102Z
1157.567871,1794.96895,0.910000026,4.86202574,0.106798626,10.1968451,0.386844158,2.12567902,0.38119818,3.83931584,93.9432266,0.709959155,21,1771148104115568,21.3839802,-0.773502081,0.827022851,107.919472,49.1841812,-0.344086465,832,30.5802574,5.10724258,-1.25131011,-0.274769686,-1.40736525,4.67539532,0.613511026,3.83466979,0.471095207,0.122657124,3.08773418,2026-02-15T09:35:04.115Z
1157.577881,1794.98072,0.910000026,4.81374311,0.851917624,9.91843987,0.108439513,2.12541461,0.38987448,3.9118626,93.9819435,0.713716969,21,1771148104128793,20.294843,-0.509801933,0.677197492,107.947113,49.1841812,-0.344086437,832,30.6463852,5.12529707,-1.2871244,-0.268360718,-1.61555071,4.70070325,0.613272965,4.01793095,0.47265797,0.123594782,3.09524722,2026-02-15T09:35:04.128Z
1157.587891,1794.99247,0.910000026,3.89995265,0.40593192,10.3273058,0.517305493,2.12515068,0.398550781,3.98440937,94.0206604,0.717474782,21,1771148104141982,16.7953086,-0.246843809,0.45774141,107.974693,49.1841812,-0.344086409,832,30.7123337,5.14335155,-1.32293868,-0.264582455,-1.8008035,4.72598339,0.61303556,4.19787771,0.474220732,0.124532439,3.10091531,2026-02-15T09:35:04.141Z
1157.597900,1795.00421,0.910000026,3.06098199,-1.41829848,10.4826851,0.672684968,2.12488699,0.407227081,4.05695613,94.0593774,0.721232596,21,1771148104155173,11.4926108,-0.277472711,0.0635999083,108.002258,49.1841812,-0.344086382,832,30.7782803,5.16140604,-1.35875297,-0.261963269,-1.94207939,4.75130373,0.612798154,4.34341508,0.475783494,0.125470096,3.10351756,2026-02-15T09:35:04.155Z
1157.607788,1795.01596,0.910000026,2.59315753,1.47421563,8.7746706,-1.03532994,2.12462306,0.415903382,4.12950289,94.0980943,0.72499041,21,1771148104168362,10.2358461,0.0712052632,-0.687245301,108.029839,49.1841812,-0.344086354,832,30.8442268,5.17946005,-1.39456725,-0.260921841,-2.05193544,4.77666438,0.612560749,4.4588658,0.477346256,0.126407754,3.10036168,2026-02-15T09:35:04.168Z
1157.617798,1795.0277,0.910000026,1.51295352,5.52893686,9.10052299,-0.709477663,2.12435913,0.424579682,4.20204965,94.1368113,0.728748224,21,1771148104181551,7.34956935,-0.436264565,-1.39552277,108.057404,49.1841812,-0.344086327,832,30.9101715,5.19751453,-1.43038142,-0.25910073,-2.13979023,4.80206482,0.612323344,4.55534193,0.478909019,0.127345411,3.08996142,2026-02-15T09:35:04.181Z
1157.627808,1795.03945,0.910000026,1.58810329,1.6701647,10.1034021,0.293401331,2.1240952,0.433255983,4.27459641,94.1755282,0.732506038,21,1771148104194730,-4.45799175,-1.87286202,-1.96481923,108.085846,49.1841812,-0.344086299,832,30.9759426,5.21556902,-1.4661957,-0.247573352,-2.15429132,4.827505,0.612228453,4.61221758,0.480471781,0.128283069,3.07317887,2026-02-15T09:35:04.194Z
1157.637817,1795.05119,0.910000026,1.44525647,4.11429977,6.61597824,-3.19402242,2.12375641,0.441932283,4.34714317,94.2142451,0.736263852,21,1771148104205399,-11.7748626,-2.31082744,-2.15435899,108.328583,49.1841812,-0.344086266,832,30.9979553,5.2336235,-1.50200999,-0.226677419,-2.07324189,4.85298475,0.647344291,4.67148973,0.482034543,0.129220726,3.05260396,2026-02-15T09:35:04.205Z
1157.647827,1795.06294,0.910000026,2.25739741,-3.57708502,5.64102316,-4.16897726,2.12338376,0.450608584,4.41968994,94.2529621,0.740021665,21,1771148104214923,-13.0419798,-3.31062661,-3.64047899,108.669113,49.1841812,-0.34408623,832,31,5.25167799,-1.53782427,-0.19860247,-1.94928516,4.8785039,0.69852823,4.72525322,0.483597306,0.130158383,3.02366526,2026-02-15T09:35:04.214Z
1157.657837,1795.07468,0.910000026,3.53258729,0.266129136,9.9242897,0.114289232,2.1230073,0.459284884,4.4922367,94.291679,0.743779479,21,1771148104224330,-0.89076226,-2.19838168,-4.70030133,109.019653,49.1841812,-0.344086193,832,31,5.269732,-1.57363856,-0.171078876,-1.87963015,4.90406231,0.751357377,4.80792706,0.485160068,0.131096041,2.98200722,2026-02-15T09:35:04.224Z
1157.667847,1795.08643,0.910000026,4.42914438,0.496295273,8.60228252,-1.20771801,2.12263131,0.467961185,4.56478346,94.3303959,0.747537293,21,1771148104233737,0.139823391,-2.22026456,-4.93775958,109.370193,49.1841812,-0.344086157,832,31,5.28778648,-1.60945272,-0.149007305,-1.87587409,4.92965985,0.804186523,4.93590605,0.48672283,0.132033698,2.93386508,2026-02-15T09:35:04.233Z
1157.677856,1795.09817,0.910000026,4.35775185,0.558647513,8.69610596,-1.11389458,2.12225485,0.476637485,4.63733022,94.3691129,0.751295107,21,1771148104243145,-2.83452584,-2.9072612,-5.40319932,109.720734,49.1841812,-0.34408612,832,31,5.30584097,-1.64526701,-0.123392239,-1.86240312,4.95529644,0.857015729,5.09513781,0.488285593,0.132971356,2.88220907,2026-02-15T09:35:04.243Z
1157.687866,1795.10992,0.910000026,4.46748734,-1.09559655,9.62455559,-0.185444757,2.12187862,0.485313786,4.70987698,94.4078298,0.755052921,21,1771148104252551,-0.336443977,-3.47429283,-5.76549443,110.071274,49.1841812,-0.344086084,832,31,5.32389545,-1.6810813,-0.0915128382,-1.84657595,4.98097198,0.909844816,5.25046677,0.489848355,0.133909013,2.82641832,2026-02-15T09:35:04.252Z
1157.697876,1795.12177,0.910000026,3.77750611,-0.256583035,9.30769825,-0.502301753,2.12149858,0.493990086,4.78242374,94.4465467,0.758810735,21,1771148104262047,4.55146802,-3.59015909,-6.35554368,110.425133,49.1841812,-0.344086047,832,31,5.34194994,-1.71689558,-0.0562244842,-1.86765431,5.00692994,0.963174224,5.40844709,0.491411117,0.13484667,2.76586939,2026-02-15T09:35:04.262Z
1157.707886,1795.13355,0.910000026,3.20282912,1.45826387,9.38983345,-0.420166552,2.12112141,0.502666387,4.85497051,94.4852637,0.762568548,21,1771148104271480,9.21711158,-3.53336095,-7.18330089,110.776627,49.1841812,-0.344086011,832,31,5.36000395,-1.75270987,-0.0206419131,-1.93645267,5.03275383,1.01614773,5.54029345,0.492973879,0.135784328,2.69823719,2026-02-15T09:35:04.271Z
1157.717896,1795.1453,0.910000026,3.20413566,2.44880629,9.71790791,-0.0920926705,2.12074494,0.511342687,4.92751727,94.5239806,0.766326362,21,1771148104280887,7.68254598,-3.57856758,-7.33851144,111.127174,49.1841812,-0.344085974,832,31,5.37805843,-1.78852403,0.0148832599,-2.02086086,5.05854657,1.06897736,5.65041244,0.494536642,0.136721985,2.62569824,2026-02-15T09:35:04.280Z
1157.727905,1795.15704,0.910000026,3.37435794,1.55981135,9.58592987,-0.224070638,2.12036896,0.520018988,5.00006403,94.5626975,0.770084176,21,1771148104290294,5.3040691,-3.41577577,-7.10645341,111.477715,49.1841812,-0.344085938,833,31,5.39611292,-1.82433832,0.0498200617,-2.08571906,5.0843778,1.12180662,5.75973592,0.496099404,0.137659642,2.55354501,2026-02-15T09:35:04.290Z
1157.737793,1795.16879,0.910000026,3.37049341,-1.69617367,9.45166206,-0.358337969,2.12038612,0.528695288,5.07261079,94.6014145,0.77384199,21,1771148104300017,4.53259281,-3.02325505,-7.34877649,111.319839,49.1841812,-0.34408588,833,30.9786205,5.4141674,-1.8601526,0.0823770173,-2.1354516,5.11024788,1.20504642,5.87574051,0.497662166,0.1385973,2.48045848,2026-02-15T09:35:04.300Z
1157.747803,1795.18053,0.910000026,3.67746663,-0.635272443,9.92499828,0.11499805,2.12168884,0.537371589,5.14515755,94.6401314,0.777599804,21,1771148104310777,13.3359749,-2.36715293,-7.89505763,109.50074,49.1841812,-0.344085754,833,30.8873882,5.43222141,-1.89596689,0.109305953,-2.2246646,5.13615657,1.38765037,5.98930254,0.499224929,0.139534957,2.40431631,2026-02-15T09:35:04.310Z
1157.757812,1795.19227,0.910000026,3.94542885,1.53051853,9.43235207,-0.377648383,2.12334585,0.546047889,5.21770432,94.6788483,0.781357618,21,1771148104321822,19.4048934,-2.13645532,-8.342728,107.224724,49.1841812,-0.344085609,833,30.7769432,5.4502759,-1.93178117,0.131803157,-2.38817973,5.16210404,1.5975852,6.11303061,0.500787691,0.140472615,2.32320877,2026-02-15T09:35:04.321Z
1157.767822,1795.20402,0.910000026,4.08460712,1.61694086,9.3452673,-0.464732796,2.12500238,0.55472419,5.29025108,94.7175653,0.785115431,21,1771148104332866,22.459781,-2.32222635,-8.47060718,104.9487,49.1841812,-0.344085465,833,30.6664982,5.46833038,-1.96759534,0.154073908,-2.59728397,5.18809032,1.80751979,6.24542361,0.502350453,0.141410272,2.23922473,2026-02-15T09:35:04.332Z
1157.777832,1795.21576,0.910000026,3.7674098,1.01486754,9.87487507,0.0648743063,2.12665892,0.56340049,5.36279784,94.7562822,0.788873245,21,1771148104343910,21.9994301,-2.27781343,-8.55013628,102.672691,49.1841812,-0.34408532,833,30.5560532,5.48638487,-2.00340962,0.177051878,-2.81936545,5.21411544,2.01745462,6.38177519,0.503913216,0.142347929,2.15420443,2026-02-15T09:35:04.343Z
1157.787842,1795.22751,0.910000026,3.47777987,0.967073143,9.33625603,-0.473744035,2.12831569,0.572076791,5.4353446,94.7949991,0.792631059,21,1771148104354955,25.2965998,-1.86335476,-8.85194538,100.396667,49.1841812,-0.344085175,833,30.4456062,5.50443935,-2.03922391,0.197739538,-3.05559882,5.24017947,2.22738934,6.50561555,0.505475978,0.143285587,2.06728037,2026-02-15T09:35:04.354Z
1157.797852,1795.23925,0.910000026,3.54004693,0.895119369,9.61541748,-0.194583386,2.12997246,0.580753091,5.50789136,94.8337161,0.796388873,21,1771148104366000,27.3413935,-1.55941213,-9.94022966,98.1206512,49.1841812,-0.34408503,833,30.3351631,5.52249336,-2.07503819,0.214837075,-3.31852933,5.26628247,2.43732405,6.61805061,0.50703874,0.144223244,1.97341259,2026-02-15T09:35:04.366Z
1157.807861,1795.251,0.910000026,3.07843876,0.550200522,9.72460079,-0.0853992254,2.13162923,0.589429391,5.58043812,94.872433,0.800146687,21,1771148104377044,29.1465117,-1.72368517,-10.1729809,95.844635,49.1841812,-0.344084885,833,30.2247162,5.54054785,-2.11085248,0.231237349,-3.6007021,5.29242453,2.64725852,6.73186347,0.508601503,0.145160902,1.87294352,2026-02-15T09:35:04.377Z
1157.817871,1795.26286,0.910000026,2.69202399,-0.106299303,10.0179462,0.207945675,2.1333015,0.598105692,5.65298489,94.9111499,0.803904501,21,1771148104388194,28.4668728,-2.09376231,-10.6710976,93.5470581,49.1841812,-0.344084739,833,30.113224,5.55860233,-2.14666677,0.250307768,-3.88848464,5.3188538,2.85918188,6.82819882,0.510164265,0.146098559,1.76882238,2026-02-15T09:35:04.388Z
1157.827881,1795.27463,0.910000026,2.42417717,0.59246099,9.27952385,-0.53047657,2.13442636,0.606781992,5.72553165,94.9498669,0.807662315,21,1771148104399180,31.0206446,-1.98983515,-11.3024275,91.6200943,49.1841812,-0.344084592,833,30.0197124,5.57665682,-2.18248105,0.27070532,-4.18564452,5.34514603,3.05117607,6.90993844,0.511727027,0.147036216,1.65905888,2026-02-15T09:35:04.399Z
1157.837891,1795.28638,0.910000026,1.93825436,1.14686143,9.71050644,-0.0994938612,2.13325596,0.615458293,5.79807841,94.9885838,0.811420128,21,1771148104409760,32.3778055,-1.56299834,-11.9777814,91.2161865,49.1841812,-0.344084438,833,30.000082,5.5947113,-2.21829534,0.288450078,-4.50233405,5.3714064,3.16355515,6.98149106,0.513289789,0.147973874,1.54276812,2026-02-15T09:35:04.409Z
1157.847900,1795.29812,0.910000026,1.58423185,2.27830267,9.94533539,0.135335445,2.13147712,0.624134593,5.87062517,95.0273007,0.815177942,21,1771148104420239,31.4146115,-1.12346806,-12.4385284,91.2152176,49.1841812,-0.344084282,833,30,5.61276531,-2.25410938,0.301867179,-4.8209802,5.3977059,3.25493622,7.03511508,0.514852552,0.148911531,1.42080346,2026-02-15T09:35:04.420Z
1157.857788,1795.30987,0.910000026,1.5952239,1.1238935,9.57844925,-0.231550828,2.12969565,0.632810894,5.94317193,95.0660177,0.818935756,21,1771148104430717,26.3450791,-1.13496235,-12.6488944,91.2159653,49.1841812,-0.344084126,833,30,5.6308198,-2.28992367,0.313286113,-5.11300091,5.42404501,3.34622788,7.07623015,0.516415314,0.149849188,1.29395817,2026-02-15T09:35:04.430Z
1157.867798,1795.32161,0.910000026,1.96462667,1.61654937,9.37724209,-0.43275848,2.12791443,0.641487194,6.01571869,95.1047346,0.82269357,21,1771148104441196,22.5216902,-0.670418855,-12.881954,91.2167053,49.1841812,-0.34408397,833,30,5.64887428,-2.32573795,0.322306469,-5.35711486,5.45042351,3.43752003,7.11708371,0.517978076,0.150786846,1.16642958,2026-02-15T09:35:04.441Z
1157.877808,1795.33336,0.910000026,2.47362041,1.26863229,9.63722515,-0.172775373,2.12613297,0.650163495,6.08826546,95.1434515,0.826451384,21,1771148104451675,18.8777291,-0.484812761,-13.3615312,91.2174454,49.1841812,-0.344083813,833,30,5.66692877,-2.36155224,0.328077901,-5.56392768,5.47684167,3.52881217,7.17107337,0.519540839,0.151724503,1.03534249,2026-02-15T09:35:04.451Z
1157.887817,1795.3451,0.910000026,2.81179547,1.10410464,9.10416603,-0.705833972,2.1243515,0.658839795,6.16081222,95.1821685,0.830209198,21,1771148104462154,16.2793907,-0.584342349,-13.7588795,91.2181854,49.1841812,-0.344083657,833,30,5.68498325,-2.39736652,0.333417988,-5.73955435,5.50329958,3.62010407,7.24309958,0.521103601,0.152662161,0.899874666,2026-02-15T09:35:04.462Z
1157.897827,1795.35685,0.910000026,2.58822656,0.870327413,8.90158749,-0.908412457,2.12257004,0.667516096,6.23335898,95.2208854,0.833967011,21,1771148104472632,12.9157848,-0.982561364,-13.9721733,91.2189255,49.1841812,-0.344083501,833,30,5.70303726,-2.43318081,0.341242924,-5.8854042,5.52979733,3.71139622,7.32685284,0.522666363,0.153599818,0.76135571,2026-02-15T09:35:04.472Z
1157.907837,1795.36859,0.910000026,2.5799911,1.04815066,9.34477139,-0.465228707,2.12078881,0.676192396,6.30590574,95.2596023,0.837724825,21,1771148104483111,11.528061,-1.1654946,-14.2492535,91.2196655,49.1841812,-0.344083345,833,30,5.72109175,-2.46899509,0.351971832,-6.00751095,5.556335,3.80268836,7.40198584,0.524229126,0.154537475,0.62038759,2026-02-15T09:35:04.483Z
1157.917847,1795.38034,0.910000026,2.68304372,0.521710515,8.63501263,-1.17498767,2.11900759,0.684868697,6.3784525,95.2983193,0.841482639,21,1771148104493591,11.1042467,-1.07124629,-14.5251287,91.2203903,49.1841812,-0.344083189,833,30.0000057,5.73914623,-2.50480938,0.363145085,-6.12056416,5.58291268,3.89397955,7.47633325,0.525791888,0.155475133,0.476657387,2026-02-15T09:35:04.493Z
1157.927856,1795.39208,0.910000026,2.75836444,1.35778666,8.5269804,-1.28302026,2.11818695,0.693544997,6.45099926,95.3370362,0.845240453,21,1771148104503559,13.4405635,-0.745966028,-14.785223,91.1259384,49.1841812,-0.34408302,833,30.0485802,5.75720072,-2.54062366,0.372221122,-6.24317681,5.60953047,3.97995377,7.55391256,0.52735465,0.15641279,0.330247679,2026-02-15T09:35:04.503Z
1157.937866,1795.40383,0.910000026,2.58781075,-0.0581301786,9.14297295,-0.667027354,2.11813641,0.702221298,6.52354603,95.3757531,0.848998267,21,1771148104513120,13.9345972,-0.67058736,-14.9945759,90.9552612,49.1841812,-0.344082841,833,30.136055,5.7752552,-2.57643795,0.379296614,-6.37992147,5.6361884,4.06166983,7.63369195,0.528917412,0.157350447,0.181492932,2026-02-15T09:35:04.513Z
1157.947876,1795.41568,0.910000026,2.0708971,0.637890935,8.7682972,-1.04170346,2.11823201,0.710897598,6.59609279,95.4144701,0.852756081,21,1771148104522693,17.0566707,-0.469655104,-15.2707141,90.7684402,49.1841812,-0.344082658,833,30.2317734,5.79330921,-2.61225224,0.384991285,-6.53474185,5.66313939,4.14334822,7.70680671,0.530480175,0.158288105,0.0303127748,2026-02-15T09:35:04.522Z
1157.957886,1795.42746,0.910000026,2.13532186,1.22825205,9.7114954,-0.0985050872,2.1183269,0.719573899,6.66863955,95.453187,0.856513894,21,1771148104532203,18.8510427,-0.739881772,-15.4775438,90.58284,49.1841812,-0.344082477,833,30.3268642,5.8113637,-2.64806628,0.391034393,-6.71411393,5.68995112,4.22448015,7.76086959,0.532042937,0.159225762,-0.123279525,2026-02-15T09:35:04.532Z
1157.967896,1795.43921,0.910000026,2.38653636,1.9226048,9.7846632,-0.0253372621,2.11842179,0.728250199,6.74118631,95.4919039,0.860271708,21,1771148104541686,18.8187601,-0.74015143,-15.6107143,90.3977432,49.1841812,-0.344082296,833,30.4216976,5.82941818,-2.68388057,0.398427331,-6.90227896,5.7167305,4.30539131,7.8169772,0.533605699,0.16016342,-0.278569807,2026-02-15T09:35:04.541Z
1157.977905,1795.45095,0.910000026,2.57061052,2.23202109,9.30804348,-0.501956582,2.11851668,0.7369265,6.81373307,95.5306209,0.864029522,21,1771148104551169,16.2119767,-0.810160366,-15.4711228,90.2126465,49.1841812,-0.344082115,833,30.5165272,5.84747267,-2.71969485,0.406171669,-7.07724905,5.74354988,4.38630199,7.88182666,0.535168462,0.161101077,-0.433826687,2026-02-15T09:35:04.551Z
1157.987793,1795.4627,0.910000026,2.61173916,2.13399887,9.73992443,-0.0700759813,2.11861134,0.7456028,6.88627984,95.5693378,0.867787336,21,1771148104560652,11.1442107,-1.01289139,-15.3286824,90.0275574,49.1841812,-0.344081934,833,30.6113605,5.86552715,-2.75550914,0.415389013,-7.21557099,5.77040964,4.46721268,7.95379045,0.536731224,0.162038734,-0.589553664,2026-02-15T09:35:04.560Z
1157.997803,1795.47444,0.910000026,2.3104558,2.08200073,9.44219017,-0.36781022,2.11870623,0.754279101,6.9588266,95.6080547,0.87154515,21,1771148104570135,6.05274173,-0.942376234,-15.1881381,89.842453,49.1841812,-0.344081754,833,30.706192,5.88358116,-2.79132342,0.425156157,-7.30149647,5.7973095,4.54812336,8.02591976,0.538293986,0.162976392,-0.741989583,2026-02-15T09:35:04.570Z
1158.007812,1795.48619,0.910000026,1.77799177,1.84223461,9.30409622,-0.505904555,2.11880088,0.762955401,7.03137336,95.6467717,0.875302964,21,1771148104579618,0.826982532,-0.936278264,-15.0477999,89.6573639,49.1841812,-0.344081573,833,30.8010235,5.90163565,-2.82713771,0.434540287,-7.33588685,5.82424956,4.62903404,8.08676965,0.539856749,0.163914049,-0.89302246,2026-02-15T09:35:04.579Z
1158.017822,1795.49793,0.910000026,1.37999964,2.04369736,9.67312908,-0.136871383,2.11889577,0.771631702,7.10392012,95.6854886,0.879060777,21,1771148104589101,-4.27676085,-0.726727919,-14.9092605,89.4723282,49.1841812,-0.344081392,833,30.8958321,5.91969013,-2.86295199,0.442848221,-7.31867952,5.85122977,4.70993567,8.12812583,0.541419511,0.164851707,-1.0426623,2026-02-15T09:35:04.589Z
1158.027832,1795.50967,0.910000026,0.698200941,1.95262837,9.29216957,-0.517830491,2.11898088,0.780308002,7.17646688,95.7242055,0.882818591,21,1771148104598498,-10.844711,-0.446073348,-14.7654413,89.3130035,49.1841812,-0.344081212,833,30.9809399,5.93774462,-2.89876628,0.448707876,-7.24317785,5.87825004,4.78710604,8.15503453,0.542982273,0.165789364,-1.19089175,2026-02-15T09:35:04.598Z
1158.037842,1795.52142,0.910000026,0.339618444,1.9148885,8.98646545,-0.823534906,2.11899996,0.788984303,7.24901364,95.7629225,0.886576405,21,1771148104607301,-17.5290304,-0.443545836,-14.4892259,89.3287125,49.1841812,-0.344081038,833,31,5.95579863,-2.93458056,0.453151642,-7.10148012,5.90531026,4.83887863,8.15741196,0.544545036,0.166727021,-1.33702373,2026-02-15T09:35:04.607Z
1158.047852,1795.53316,0.910000026,0.115055092,1.89577651,9.58370781,-0.226292148,2.11899996,0.797660603,7.32156041,95.8016394,0.890334219,21,1771148104615934,-24.6438332,-0.0921391317,-14.2098235,89.3949356,49.1841812,-0.344080865,833,31,5.97385311,-2.97039485,0.455827915,-6.89083086,5.93241031,4.88332081,8.14713202,0.546107798,0.167664679,-1.48037935,2026-02-15T09:35:04.615Z
1158.057861,1795.54491,0.910000026,0.0241786875,1.8862139,9.19739819,-0.612602592,2.11899996,0.806336904,7.39410717,95.8403563,0.894092033,21,1771148104624567,-31.4096237,0.189448587,-13.8607803,89.4611511,49.1841812,-0.344080693,833,31,5.9919076,-3.0062089,0.45534047,-6.61080403,5.95955005,4.92776299,8.12914436,0.54767056,0.168602336,-1.62059374,2026-02-15T09:35:04.624Z
1158.067871,1795.55677,0.910000026,-0.281036735,1.47638035,8.94381046,-0.866190135,2.11899996,0.815013204,7.46665393,95.8790733,0.897849847,21,1771148104633281,-38.3145739,0.261948649,-13.3725088,89.5279999,49.1841812,-0.344080519,833,31,6.00996208,-3.04202318,0.453085336,-6.26248956,5.98698682,4.97262669,8.10833917,0.549233322,0.169539993,-1.75662496,2026-02-15T09:35:04.633Z
1158.077881,1795.56854,0.910000026,-1.01485491,0.937069297,9.16141224,-0.648587883,2.11899996,0.818077868,7.52019387,95.8776115,0.902287627,21,1771148104641938,-43.9682234,0.472967322,-12.8840391,89.5943909,49.1841812,-0.344080346,833,31,6.02227592,-3.05662799,0.449413313,-5.85144953,6.01427991,5.01718998,8.07703891,0.549330761,0.17014872,-1.88777725,2026-02-15T09:35:04.641Z
1158.087891,1795.58029,0.910000026,-1.81236076,0.577533007,9.21031666,-0.599683881,2.11899996,0.815738186,7.5554291,95.8374553,0.907380257,21,1771148104650572,-47.1869568,0.962243193,-12.4651463,89.660614,49.1841812,-0.344080174,833,31,6.02906132,-3.05080652,0.442241882,-5.39610277,6.04153819,5.06163263,8.0199324,0.548017005,0.170440666,-2.01439749,2026-02-15T09:35:04.650Z
1158.097900,1795.59203,0.910000026,-1.52069938,0.707125843,9.44759083,-0.362409681,2.11899996,0.813398505,7.59066433,95.7972991,0.912472886,21,1771148104659204,-51.9136559,0.899191411,-11.2156563,89.7268372,49.1841812,-0.344080001,833,31,6.03584671,-3.04498506,0.432944117,-4.9010602,6.06883505,5.10607529,7.93498654,0.546703249,0.170732611,-2.13267991,2026-02-15T09:35:04.659Z
1158.107788,1795.60378,0.910000026,-0.0506515354,-0.286003709,9.28972244,-0.520277798,2.11899996,0.811058824,7.62589956,95.7571428,0.917565516,21,1771148104667836,-54.0394223,1.11258214,-10.5737441,89.7930527,49.1841812,-0.344079829,833,31,6.04263258,-3.03916359,0.422771811,-4.36534183,6.09617058,5.15051651,7.86107901,0.545389492,0.171024557,-2.24284672,2026-02-15T09:35:04.667Z
1158.117798,1795.61552,0.910000026,0.21307978,-1.90222156,9.51587009,-0.294130564,2.11899996,0.808719142,7.66113479,95.7169866,0.922658146,21,1771148104676470,-54.0352838,1.67172568,-9.94659193,89.8592758,49.1841812,-0.344079657,833,31,6.04941797,-3.03334212,0.408866551,-3.82549553,6.12354425,5.19495869,7.84161574,0.544075736,0.171316503,-2.34535133,2026-02-15T09:35:04.676Z
1158.127808,1795.62727,0.910000026,0.113454111,-2.65866065,8.65989494,-1.15010571,2.11899996,0.806379461,7.69637002,95.6768304,0.927750775,21,1771148104685102,-52.7667467,2.30259853,-9.38862937,89.9254837,49.1841812,-0.344079484,833,31,6.05620337,-3.02752066,0.389017364,-3.29200032,6.15095591,5.23940134,7.83211823,0.54276198,0.171608449,-2.44193582,2026-02-15T09:35:04.685Z
1158.137817,1795.63901,0.910000026,-0.447368801,-3.42192674,10.3667526,0.556752086,2.11899686,0.80403978,7.73160525,95.6366742,0.932843405,21,1771148104693738,-49.203067,3.07064034,-8.83088707,89.9910583,49.1841812,-0.344079312,833,31,6.06298876,-3.02169919,0.362181117,-2.78263147,6.17840526,5.2837944,7.81942259,0.541448224,0.171900395,-2.53294723,2026-02-15T09:35:04.693Z
1158.147827,1795.65076,0.910000026,-1.27338314,-5.3721571,10.0492859,0.239285409,2.11794949,0.801700098,7.76684048,95.5965179,0.937936034,21,1771148104703411,-42.7694449,3.39785155,-8.12652928,89.8460388,49.1841812,-0.344079114,833,31,6.06977463,-3.01587772,0.329871808,-2.32318643,6.20589201,5.31216574,7.7869672,0.540134467,0.172192341,-2.61765501,2026-02-15T09:35:04.703Z
1158.157837,1795.6625,0.910000026,-2.49196744,-6.3047061,10.9453087,1.13530815,2.11576724,0.799360417,7.80207571,95.5563617,0.943028664,21,1771148104714210,-30.3876661,3.36698687,-7.68180617,89.4721069,49.1841812,-0.34407889,833,31,6.07656002,-3.01005626,0.296080469,-1.9576975,6.23341581,5.32312155,7.72541674,0.538820711,0.172484286,-2.69662174,2026-02-15T09:35:04.714Z
1158.167847,1795.67425,0.910000026,-2.50590634,-4.82193708,11.2430058,1.43300545,2.11333752,0.797020736,7.83731094,95.5162055,0.948121293,21,1771148104725255,-14.9842932,2.92048378,-7.32785744,89.0482559,49.1841812,-0.344078659,833,31,6.08334541,-3.00423479,0.264671609,-1.73098391,6.26097634,5.3302784,7.62088718,0.537506955,0.172776232,-2.77159857,2026-02-15T09:35:04.725Z
1158.177856,1795.68599,0.910000026,-3.0591259,-3.72186995,11.1782017,1.36820161,2.11090779,0.794681054,7.87254617,95.4760493,0.953213923,21,1771148104736299,-1.15292832,2.87480084,-6.79169976,88.6243973,49.1841812,-0.344078429,833,31,6.09013081,-2.99841332,0.235723618,-1.65042584,6.2885733,5.33743525,7.51717916,0.536193199,0.173068178,-2.84212557,2026-02-15T09:35:04.736Z
1158.187866,1795.69774,0.910000026,-2.94904757,-1.10172284,10.7685003,0.958500087,2.10847783,0.792341373,7.9077814,95.435893,0.958306553,21,1771148104747344,6.37686104,3.00262238,-6.17236266,88.200531,49.1841812,-0.344078199,833,31,6.09691668,-2.99259186,0.206364549,-1.67655664,6.3162063,5.34459209,7.39488402,0.534879443,0.173360124,-2.90687962,2026-02-15T09:35:04.747Z
1158.197876,1795.70959,0.910000026,-2.5519259,0.310130715,11.9734201,2.16341949,2.10602498,0.790001692,7.94301663,95.3957368,0.963399182,21,1771148104758493,7.3946248,4.08630719,-5.23226449,87.7726669,49.1841812,-0.344077966,833,31,6.10370207,-2.98677039,0.170949197,-1.74535172,6.34413702,5.35181665,7.27804562,0.533565686,0.17365207,-2.96384255,2026-02-15T09:35:04.758Z
1158.207886,1795.72137,0.910000026,-2.24296546,-0.0486450791,10.9803019,1.17030191,2.10358858,0.787662011,7.97825186,95.3555806,0.968491812,21,1771148104769568,2.61699949,5.27568632,-4.50777728,87.3476486,49.1841812,-0.344077735,833,31,6.11048746,-2.98094893,0.124179125,-1.79533767,6.371917,5.35899305,7.17693589,0.53225193,0.173944016,-3.01249174,2026-02-15T09:35:04.769Z
1158.217896,1795.73312,0.910000026,-2.15693402,1.83870614,11.1232491,1.31324887,2.10115862,0.785322329,8.01348709,95.3154243,0.973584441,21,1771148104780612,-0.838635189,6.45254076,-3.94314182,86.9237823,49.1841812,-0.344077505,833,31,6.11727285,-2.97512746,0.0655895038,-1.80420414,6.39965668,5.36615038,7.08822553,0.530938174,0.174235961,-3.05470238,2026-02-15T09:35:04.780Z
1158.227905,1795.74486,0.910000026,-1.96427941,1.84278989,12.5820036,2.77200294,2.09872866,0.782982648,8.04872232,95.2752681,0.978677071,21,1771148104791657,-6.14012677,6.59394758,-3.20344647,86.4999237,49.1841812,-0.344077274,833,31,6.12405825,-2.96930599,0.000420068207,-1.76931867,6.42743069,5.37330723,7.00377268,0.529624418,0.174527907,-3.09039688,2026-02-15T09:35:04.791Z
1158.237793,1795.75661,0.910000026,-0.551846445,2.11104608,11.2911806,1.48117983,2.09542918,0.780642967,8.08395755,95.2351119,0.9837697,21,1771148104802666,-15.2393148,5.1394139,-2.05177533,86.354393,49.1841812,-0.344077056,833,31,6.13084412,-2.96348453,-0.0589070904,-1.66123155,6.45523901,5.34885311,6.9267205,0.528310661,0.174819853,-3.11696901,2026-02-15T09:35:04.802Z
1158.247803,1795.76835,0.910000026,1.45968997,0.797346354,12.0494213,2.23942089,2.09107137,0.778303285,8.11919278,95.1949557,0.98886233,21,1771148104813631,-18.2283278,3.6396654,-1.51606992,86.5477295,49.1841812,-0.344076854,833,31,6.13762951,-2.95766306,-0.102766949,-1.49407122,6.48308107,5.28591394,6.90209235,0.526996905,0.175111799,-3.13479344,2026-02-15T09:35:04.813Z
1158.257812,1795.7801,0.910000026,3.48235488,1.27561653,11.4096966,1.59969604,2.08646989,0.775963604,8.15442801,95.1547994,0.99395496,21,1771148104824588,-17.1780235,2.9859323,-1.38618016,86.8189163,49.1841812,-0.344076655,833,31,6.1444149,-2.95184159,-0.135865801,-1.31720709,6.51095662,5.21413136,6.95033315,0.525683149,0.175403745,-3.14929116,2026-02-15T09:35:04.824Z
1158.267822,1795.79184,0.910000026,4.23584223,1.87862825,11.2371197,1.42711937,2.08186841,0.773623923,8.18966324,95.1146432,0.999047589,21,1771148104835543,-16.2996861,2.83997,-1.21185305,87.0901031,49.1841812,-0.344076455,833,31,6.15120029,-2.94602013,-0.164967619,-1.14997759,6.53886529,5.14234877,7.07116051,0.524369393,0.175695691,-3.1622695,2026-02-15T09:35:04.835Z
1158.277832,1795.80359,0.910000026,3.49166441,2.80940247,10.531951,0.721951008,2.07726693,0.771284241,8.22489847,95.074487,1.00414022,21,1771148104846499,-15.1818172,3.36464102,-0.844946158,87.3612976,49.1841812,-0.344076256,833,31,6.15798616,-2.94019866,-0.19595786,-0.992718155,6.56680673,5.07056618,7.21821149,0.523055636,0.175987636,-3.17254525,2026-02-15T09:35:04.846Z
1158.287842,1795.81533,0.910000026,1.56491315,2.36781049,12.0418997,2.2318995,2.07266545,0.76894456,8.2601337,95.0343308,1.00923285,21,1771148104857454,-17.1665387,4.11144473,-0.593336582,87.6324844,49.1841812,-0.344076057,833,31,6.16477156,-2.93437719,-0.233298178,-0.831143846,6.59478056,4.99878311,7.33734962,0.52174188,0.176279582,-3.17973087,2026-02-15T09:35:04.857Z
1158.297852,1795.82707,0.910000026,0.383244336,1.8855511,12.3733521,2.56335163,2.06806421,0.766604879,8.29536893,94.9941745,1.01432548,21,1771148104868411,-18.3027927,4.19256454,-0.547265505,87.9036789,49.1841812,-0.344075858,833,31,6.17155695,-2.92855573,-0.27477761,-0.653971702,6.62278644,4.92700052,7.38623954,0.520428124,0.176571528,-3.18542838,2026-02-15T09:35:04.868Z
1158.307861,1795.83882,0.910000026,-0.0366681814,0.00311802747,12.1987581,2.38875818,2.06346273,0.764265197,8.33060416,94.9540183,1.01941811,21,1771148104879366,-17.4808691,3.57996946,-0.604531536,88.1748734,49.1841812,-0.344075659,833,31,6.17834234,-2.92273426,-0.313599377,-0.475231961,6.65082402,4.85521793,7.39239581,0.519114368,0.176863474,-3.19118203,2026-02-15T09:35:04.879Z
1158.317871,1795.85068,0.910000026,0.834508836,-0.496292323,11.9809446,2.17094398,2.05881763,0.761925516,8.36583939,94.9138621,1.02451074,21,1771148104890427,-13.6352922,2.23451281,-0.836990463,88.4486237,49.1841812,-0.344075458,833,31,6.18512774,-2.91691279,-0.34263687,-0.319821689,6.67915887,4.78275537,7.38366858,0.517800611,0.17715542,-3.19838374,2026-02-15T09:35:04.890Z
1158.327881,1795.86245,0.910000026,2.39679241,0.159371033,11.3781185,1.56811762,2.0561204,0.759585835,8.40107462,94.8737059,1.02960337,21,1771148104899955,-7.31914961,1.01500346,-1.0161302,88.6758118,49.1841812,-0.344075285,833,31,6.1919136,-2.91109133,-0.358862681,-0.21518242,6.70733566,4.72985506,7.40664329,0.516486855,0.177447366,-3.20764117,2026-02-15T09:35:04.899Z
1158.337891,1795.8742,0.910000026,4.44026709,-0.521076679,10.9258308,1.11583006,2.05690336,0.757246153,8.43630985,94.8335496,1.034696,21,1771148104906819,-1.82792077,-0.101251065,-1.21339261,88.8213501,49.1841812,-0.344075162,833,31,6.198699,-2.90526986,-0.36342158,-0.169518272,6.73546681,4.71166182,7.4858572,0.515173099,0.177739311,-3.21877886,2026-02-15T09:35:04.906Z
1158.347900,1795.88594,0.910000026,5.81152678,-0.0912003294,9.4002018,-0.409798205,2.05851912,0.754906472,8.47154508,94.7933934,1.03978863,21,1771148104913051,2.53322817,-0.537465183,-1.3758062,88.9474335,49.1841812,-0.34407505,833,31,6.20548439,-2.89944839,-0.360229033,-0.173062414,6.763628,4.70176077,7.63805398,0.513859343,0.178031257,-3.23171301,2026-02-15T09:35:04.913Z
1158.357788,1795.89769,0.910000026,6.0172739,-1.48539722,10.6741915,0.864191532,2.06013846,0.752566791,8.50678031,94.7532372,1.04488126,21,1771148104919279,5.28747683,-0.74920111,-1.47108666,89.0734406,49.1841812,-0.344074939,833,31,6.21226978,-2.89362693,-0.353722702,-0.212615346,6.79181927,4.69189548,7.84080946,0.512545587,0.178323203,-3.24610748,2026-02-15T09:35:04.919Z
1158.367798,1795.90943,0.910000026,5.75904036,-1.14000285,10.8787537,1.06875288,2.0617578,0.75022711,8.54201554,94.713081,1.04997389,21,1771148104925507,7.61769118,-1.01645443,-1.7547275,89.19944,49.1841812,-0.344074828,833,31,6.21905565,-2.88780546,-0.344904259,-0.2770668,6.82004006,4.68202972,8.04675106,0.51123183,0.178615149,-3.26221943,2026-02-15T09:35:04.925Z
1158.377808,1795.92118,0.910000026,5.44050264,1.37033188,11.4095774,1.59957707,2.06337714,0.747887428,8.57725077,94.6729247,1.05506651,21,1771148104931736,6.21210762,-2.70395428,-1.79441091,89.3254471,49.1841812,-0.344074716,833,31,6.22584105,-2.881984,-0.326328551,-0.346154905,6.8482902,4.67216396,8.24163184,0.509918074,0.178907095,-3.27994761,2026-02-15T09:35:04.931Z
1158.387817,1795.93292,0.910000026,4.91986704,2.28029656,10.4550877,0.6450876,2.06499672,0.745547747,8.612486,94.6327685,1.06015914,21,1771148104937964,-0.987947117,-3.82221509,-1.46861158,89.4514465,49.1841812,-0.344074605,833,31,6.23262644,-2.87616253,-0.29373497,-0.372285043,6.87656938,4.66229868,8.42339874,0.508604318,0.17919904,-3.29624837,2026-02-15T09:35:04.937Z
1158.397827,1795.94467,0.910000026,4.25108814,-0.109963037,9.56210232,-0.247898445,2.06661582,0.743208066,8.64772123,94.5926123,1.06525177,21,1771148104944193,-11.1105958,-4.63932501,-0.951450279,89.577446,49.1841812,-0.344074493,833,31,6.23941183,-2.8703413,-0.251472531,-0.311900622,6.9048773,4.65243292,8.58491272,0.507290562,0.179490986,-3.30833939,2026-02-15T09:35:04.944Z
1158.407837,1795.95641,0.910000026,4.04529047,-1.20697045,9.76646709,-0.0435330458,2.0682354,0.740868384,8.68295646,94.552456,1.0703444,21,1771148104950421,-16.1425627,-4.6415256,-0.607232292,89.7034454,49.1841812,-0.344074382,833,31,6.2461977,-2.86451983,-0.205113568,-0.175792308,6.93321369,4.64256763,8.7210269,0.505976805,0.179782932,-3.31612688,2026-02-15T09:35:04.950Z
1158.417847,1795.96816,0.910000026,3.90741014,-1.16184533,9.16512966,-0.644870818,2.06985474,0.738528703,8.71819169,94.5122998,1.07543703,21,1771148104956649,-17.0931464,-3.99602104,-0.386091491,89.8294525,49.1841812,-0.344074271,833,31,6.25298309,-2.85869837,-0.161964821,-0.00978052339,6.96157826,4.63270187,8.84866039,0.504663049,0.180074878,-3.32108973,2026-02-15T09:35:04.956Z
1158.427856,1795.9799,0.910000026,3.61102247,0.0218759719,9.24467087,-0.565330029,2.07147408,0.736189022,8.75342692,94.4721436,1.08052966,21,1771148104962877,-18.1263127,-3.43354458,0.0768438813,89.955452,49.1841812,-0.344074159,833,31,6.25976849,-2.8528769,-0.12485524,0.166148654,6.98997079,4.62283611,8.97033903,0.503349293,0.180366824,-3.32263281,2026-02-15T09:35:04.962Z
1158.437866,1795.99165,0.910000026,3.44203711,-0.382093489,9.66034126,-0.149658754,2.07309341,0.73384934,8.78866215,94.4319874,1.08562229,21,1771148104969106,-22.5568381,-3.46112806,0.629047162,90.081459,49.1841812,-0.344074048,833,31,6.26655388,-2.84705544,-0.0904153705,0.369387558,7.01839098,4.61297035,9.08042466,0.502035537,0.18065877,-3.31910411,2026-02-15T09:35:04.969Z
1158.447876,1796.0035,0.910000026,3.48770761,-1.69649255,8.93433571,-0.875664353,2.07472801,0.731509659,8.82389738,94.3918311,1.09071492,21,1771148104975393,-26.35933,-3.97896932,1.28463522,90.2086487,49.1841812,-0.344073936,834,31,6.27333927,-2.84123397,-0.0532486512,0.613748253,7.04710801,4.60301113,9.1836169,0.50072178,0.180950715,-3.30954184,2026-02-15T09:35:04.975Z
1158.457886,1796.01528,0.910000026,3.64628386,-2.54668665,8.44336224,-1.36663842,2.07635188,0.729169978,8.85913261,94.3516749,1.09580755,21,1771148104981639,-26.7850805,-4.54904086,1.71505031,90.3349915,49.1841812,-0.344073824,834,31,6.28012514,-2.8354125,-0.0106474337,0.879213038,7.07566081,4.59311819,9.28770763,0.499408024,0.181242661,-3.29455597,2026-02-15T09:35:04.981Z
1158.467896,1796.02703,0.910000026,3.9587853,-1.49484336,7.85589457,-1.95410562,2.07797146,0.726830296,8.89436784,94.3115187,1.10090018,21,1771148104987867,-25.6672704,-4.54726935,2.10710702,90.4610062,49.1841812,-0.344073713,834,31,6.28691053,-2.82959104,0.0347897155,1.14121346,7.10416323,4.58325243,9.39674689,0.498094268,0.181534607,-3.27546193,2026-02-15T09:35:04.987Z
1158.477905,1796.03877,0.910000026,4.16962433,-0.726503134,7.60201025,-2.20799041,2.07959056,0.724490615,8.92960307,94.2713625,1.10599281,21,1771148104994096,-26.7590117,-4.08423182,2.62000003,90.586998,49.1841812,-0.344073601,834,31,6.29369593,-2.82376957,0.0779028579,1.40309451,7.13269213,4.57338715,9.51622059,0.496780512,0.181826553,-3.25184697,2026-02-15T09:35:04.994Z
1158.487793,1796.05052,0.910000026,4.27546883,-0.623006284,7.98515463,-1.82484591,2.08049273,0.722150934,8.9648383,94.2312062,1.11108544,21,1771148105002694,-30.4940739,-3.62565526,3.32386249,90.7254639,49.1841812,-0.344073414,834,30.9794884,6.30048132,-2.8179481,0.116885155,1.69256671,7.16124767,4.62556076,9.64392405,0.495466755,0.182118499,-3.22179503,2026-02-15T09:35:05.002Z
1158.497803,1796.06226,0.910000026,4.44521093,-2.10199094,8.39483166,-1.41516924,2.07991743,0.719811253,9.00007353,94.19105,1.11617807,21,1771148105016173,-34.2584782,-3.65340798,3.93254429,90.8896027,49.1841812,-0.34407307,834,30.9167156,6.30726719,-2.81212664,0.153244822,2.01599523,7.18982951,4.80555582,9.77288322,0.494152999,0.182410445,-3.18555134,2026-02-15T09:35:05.016Z
1158.507812,1796.07401,0.910000026,4.37823439,-2.553339,8.28303909,-1.52696145,2.07895899,0.717471571,9.03530876,94.1508938,1.1212707,21,1771148105030920,-34.178652,-3.51275599,4.48338293,91.0603943,49.1841812,-0.344072685,834,30.8429871,6.31405258,-2.80630517,0.189041361,2.35784736,7.21843757,5.01869392,9.9069527,0.492839243,0.18270239,-3.14351543,2026-02-15T09:35:05.030Z
1158.517822,1796.08575,0.910000026,4.18634415,-2.45306754,8.28798008,-1.5220201,2.07800055,0.71513189,9.07054399,94.1107376,1.12636333,21,1771148105045666,-32.108159,-3.23230287,4.93384422,91.2312012,49.1841812,-0.344072301,834,30.7692585,6.32083797,-2.8004837,0.222735098,2.68896811,7.24707168,5.23183203,10.0375642,0.491525487,0.182994336,-3.09647739,2026-02-15T09:35:05.045Z
1158.527832,1796.0975,0.910000026,4.05259562,-2.13731575,8.87119198,-0.938808382,2.07704186,0.712792209,9.10577922,94.0705813,1.13145596,21,1771148105060411,-29.8537369,-2.31867171,6.26870269,91.4019928,49.1841812,-0.344071916,834,30.6955261,6.32762337,-2.79466224,0.250467335,2.9984863,7.27573171,5.44496965,10.1602534,0.49021173,0.183286282,-3.0405258,2026-02-15T09:35:05.060Z
1158.537842,1796.10924,0.910000026,3.6377399,-2.62150359,8.31445503,-1.49554563,2.07608342,0.710452527,9.14101445,94.0304251,1.13654859,21,1771148105075157,-27.9029821,-1.37270854,7.27703781,91.5727921,49.1841812,-0.344071532,834,30.6217976,6.33440876,-2.78884077,0.26891084,3.28699766,7.30441753,5.65810823,10.2772028,0.488897974,0.183578228,-2.97286809,2026-02-15T09:35:05.075Z
1158.547852,1796.12099,0.910000026,2.75932002,-1.73769796,8.79737091,-1.01262927,2.07512474,0.708112846,9.17624968,93.9902689,1.14164122,21,1771148105089903,-24.9141977,-0.726957883,7.821619,91.7435837,49.1841812,-0.344071147,834,30.5480671,6.34119463,-2.7830193,0.279399777,3.55082983,7.33312902,5.87124586,10.3783549,0.487584218,0.183870174,-2.89744917,2026-02-15T09:35:05.089Z
1158.557861,1796.13273,0.910000026,2.05863476,-0.882727683,8.99320316,-0.816796958,2.0741663,0.705773165,9.21148491,93.9501126,1.14673385,21,1771148105104649,-24.6161159,-0.602800229,8.5932496,91.9143753,49.1841812,-0.344070763,834,30.4743385,6.34798002,-2.77719784,0.286041478,3.79823835,7.36186607,6.08438444,10.447171,0.486270462,0.18416212,-2.81545114,2026-02-15T09:35:05.104Z
1158.567871,1796.14459,0.910000026,1.96269214,-1.11848867,8.58466244,-1.22533846,2.0731988,0.703433483,9.24672014,93.9099564,1.15182648,21,1771148105119534,-28.3388587,-0.62230628,9.44433478,92.086792,49.1841812,-0.344070374,834,30.39991,6.35476542,-2.77137637,0.292161131,4.06277307,7.3909011,6.29954147,10.4903866,0.484956706,0.184454065,-2.72534706,2026-02-15T09:35:05.119Z
1158.577881,1796.15636,0.910000026,2.59699416,-2.09747672,8.57102203,-1.23897851,2.07223773,0.701093802,9.28195537,93.8698002,1.15691911,21,1771148105134321,-31.6761535,-0.475839099,10.3222889,92.258049,49.1841812,-0.344069989,834,30.3259792,6.36155081,-2.7655549,0.297645786,4.36257157,7.41976772,6.51326036,10.53001,0.483642949,0.184746011,-2.62660611,2026-02-15T09:35:05.134Z
1158.587891,1796.16811,0.910000026,3.14636517,-3.17706156,7.91986275,-1.89013791,2.07127929,0.698754121,9.3171906,93.829644,1.16201174,21,1771148105149067,-30.6196291,0.120474296,10.9326489,92.4288483,49.1841812,-0.344069604,834,30.2522488,6.36833668,-2.75973344,0.299417973,4.67374134,7.4485815,6.7263999,10.5923384,0.482329193,0.185037957,-2.52043215,2026-02-15T09:35:05.149Z
1158.597900,1796.17985,0.910000026,2.57076645,-2.98350787,8.01304626,-1.79695368,2.07032084,0.696414439,9.35242583,93.7894877,1.16710437,21,1771148105163812,-25.6866559,1.03404555,11.3171575,92.5996475,49.1841812,-0.34406922,834,30.1785202,6.37512207,-2.75391197,0.293646574,4.95497408,7.47742027,6.93953848,10.6740901,0.481015437,0.185329903,-2.4092898,2026-02-15T09:35:05.163Z
1158.607788,1796.1916,0.910000026,1.7670331,-3.32108116,8.00709915,-1.80290163,2.06936216,0.694074758,9.38766106,93.7493315,1.17219699,21,1771148105178558,-21.1333269,1.92526903,11.8067681,92.7704391,49.1841812,-0.344068835,834,30.1047878,6.38190746,-2.74809051,0.278680525,5.19168351,7.50628433,7.15267706,10.7351753,0.479701681,0.185621849,-2.29237118,2026-02-15T09:35:05.178Z
