T,D,PDOP,acc_x,acc_y,acc_z,acc_z_,altitude,amp_pitch,amp_roll,cadence,d_stroke,gpsTimeAccuracyNs,gpstimeUs,gyro_x,gyro_y,gyro_z,heading,latitude,longitude,motif_id,nSat,pic_acc,pic_down,pitch,roll,speed,speed_gps,speed_i,t_acc,t_down,yaw,time
1061.520020,2040.62807,1.04999995,1.32965958,0.751036048,10.0981932,0.288192838,7.56833935,0.875955661,6.62637497,41.7608105,1.11643882,21,1771147976333670,3.04667464,-0.734484483,1.89414914,47.038578,49.1842651,-0.344082642,862,27.3395443,4.51443863,-0.219776511,-0.32610136,0.949521137,4.32230672,0.966335416,4.61598511,1.04050771,0.0204553806,1.77294755,2026-02-15T09:32:56.333Z
1061.530029,2040.63788,1.04999995,1.39044321,0.584576607,10.1480455,0.338045299,7.56845427,0.88227914,6.72010052,42.139214,1.11784825,21,1771147976345148,3.7769883,-0.660893425,1.84422943,47.5916862,49.1842651,-0.344082618,862,27.4543324,4.54858637,-0.242460728,-0.319131627,0.915432595,4.34549289,0.90600282,4.66087222,1.03236804,0.0223158774,1.79162096,2026-02-15T09:32:56.345Z
1061.540039,2040.6477,1.04999995,1.33069539,0.0351402238,10.0990334,0.289032638,7.56856918,0.88860262,6.81382608,42.5176175,1.11925768,21,1771147976356627,4.82756658,-0.587999145,1.77120376,48.1447678,49.1842651,-0.344082594,862,27.5691147,4.58273411,-0.265144944,-0.312893608,0.872446704,4.36871816,0.845672965,4.70772861,1.02422836,0.0241763742,1.80968014,2026-02-15T09:32:56.356Z
1061.549927,2040.65751,1.04999995,1.16936588,-0.320661992,10.0984306,0.288430095,7.56868362,0.894926099,6.90755163,42.896021,1.12066711,21,1771147976368105,7.13902529,-0.502136882,1.56781137,48.6978569,49.1842651,-0.34408257,862,27.683897,4.61688185,-0.287829161,-0.307381495,0.811949777,4.39198349,0.785343111,4.75271105,1.01608869,0.026036871,1.82656317,2026-02-15T09:32:56.368Z
1061.559937,2040.66733,1.04999995,0.992524087,-0.318965316,9.99685192,0.186851099,7.56879854,0.901249579,7.00127719,43.2744245,1.12207654,21,1771147976379584,10.4064171,-0.312699619,1.31948467,49.2509384,49.1842651,-0.344082547,862,27.7986813,4.65102959,-0.310513377,-0.303310382,0.724323937,4.41528953,0.725013375,4.79116975,1.00794902,0.0278973678,1.84098677,2026-02-15T09:32:56.379Z
1061.569946,2040.67714,1.04999995,1.01678085,-0.14200975,9.82588577,0.0158852898,7.56891203,0.907573058,7.09500274,43.652828,1.12348597,21,1771147976391060,14.0585708,0.136436208,1.13970438,49.8043098,49.1842651,-0.344082523,862,27.9133682,4.68517733,-0.333197594,-0.302427753,0.602136008,4.43863618,0.664764166,4.82310985,0.999809342,0.0297578646,1.85327159,2026-02-15T09:32:56.391Z
1061.579956,2040.68696,1.04999995,0.970270157,0.156933442,10.0709467,0.260945976,7.5685606,0.913896537,7.1887283,44.0312315,1.1248954,21,1771147976402027,18.4794495,0.72138739,1.01328198,50.4436188,49.1842651,-0.344082493,862,28,4.71932507,-0.35588181,-0.306709841,0.439626126,4.46202361,0.628522933,4.85583899,0.991669669,0.0316183614,1.86402663,2026-02-15T09:32:56.402Z
1061.589966,2040.69677,1.04999995,0.912681878,0.50512135,10.0495844,0.239584312,7.56677532,0.920220017,7.28245385,44.409635,1.12630483,21,1771147976411424,21.3781234,1.03730387,0.9413434,51.3482628,49.1842651,-0.344082445,862,28,4.75347281,-0.378566027,-0.315493176,0.240546803,4.48545202,0.666408002,4.88680242,0.983529995,0.0334788582,1.87379058,2026-02-15T09:32:56.411Z
1061.599976,2040.70659,1.04999995,0.978046179,0.511632264,9.94948483,0.139484197,7.56499004,0.926543496,7.37617941,44.7880385,1.12771426,21,1771147976420820,23.2368054,0.998104935,0.940557485,52.252903,49.1842651,-0.344082398,862,28,4.78762054,-0.401250273,-0.325660482,0.0176988549,4.50892161,0.704293072,4.91561508,0.975390322,0.035339355,1.8831909,2026-02-15T09:32:56.420Z
1061.609985,2040.7164,1.04999995,1.21994436,0.859250784,9.90340519,0.0934047401,7.56320477,0.932866976,7.46990496,45.166442,1.12912369,21,1771147976430216,24.3168832,0.861361034,0.908844151,53.157547,49.1842651,-0.34408235,862,28,4.82176828,-0.423934489,-0.334948674,-0.219838149,4.53243261,0.742178202,4.94672364,0.967250648,0.0371998518,1.89242887,2026-02-15T09:32:56.430Z
1061.619995,2040.72622,1.04999995,1.45302701,1.19865191,9.75117397,-0.0588266775,7.56141996,0.939190455,7.56363051,45.5448455,1.13053312,21,1771147976439612,24.1584476,0.824977756,0.957745492,54.0621872,49.1842651,-0.344082302,862,28,4.85591602,-0.446618706,-0.343371965,-0.461977559,4.55598526,0.780063331,4.98645992,0.959110975,0.0390603487,1.90175296,2026-02-15T09:32:56.439Z
1061.630005,2040.73603,1.04999995,1.57768977,1.36910522,9.56427002,-0.245730177,7.55963421,0.945513935,7.65735607,45.923249,1.13194255,21,1771147976449008,22.8058706,0.9280198,1.09582191,54.9668274,49.1842651,-0.344082255,862,28,4.89006376,-0.469302922,-0.352128905,-0.69656346,4.5795798,0.817948401,5.0344173,0.950971301,0.0409208455,1.91201145,2026-02-15T09:32:56.449Z
1061.640015,2040.74597,1.04999995,1.49775219,1.35950422,9.38269424,-0.427306116,7.557827,0.951837414,7.75108162,46.3016525,1.13335198,21,1771147976458518,20.6372917,1.17050853,1.20357351,55.8824768,49.1842651,-0.344082207,862,28,4.9242115,-0.491987139,-0.36261249,-0.913556808,4.60350452,0.856294334,5.08661477,0.942831628,0.0427813423,1.92349773,2026-02-15T09:32:56.458Z
1061.650024,2040.75578,1.04999995,1.22718036,1.15648782,9.53171349,-0.278286666,7.55604219,0.958160894,7.84480718,46.680056,1.13476141,21,1771147976467914,18.1698578,1.45277745,1.19167916,56.7871552,49.1842651,-0.344082159,862,28,4.95835924,-0.514671326,-0.375717493,-1.10739129,4.62718513,0.894181073,5.13565486,0.934691954,0.0446418391,1.93546225,2026-02-15T09:32:56.467Z
1061.660034,2040.7656,1.04999995,1.01947784,1.02452302,9.65662479,-0.153375909,7.55425644,0.964484373,7.93853273,47.0584595,1.13617084,21,1771147976477311,15.9104836,1.7351755,1.13964586,57.6917992,49.1842651,-0.344082111,862,28,4.99250698,-0.537355542,-0.391643072,-1.27761584,4.65090744,0.932066143,5.17471056,0.926552281,0.0465023359,1.94710725,2026-02-15T09:32:56.477Z
1061.669922,2040.77541,1.04999995,1.00322831,0.954533339,9.78202248,-0.0279775579,7.55247164,0.970807853,8.03225829,47.436863,1.13758027,21,1771147976486707,14.3836728,1.81855735,1.13664371,58.5964394,49.1842651,-0.344082064,862,28,5.02665472,-0.560039818,-0.409611403,-1.43078256,4.67467248,0.969951332,5.20652251,0.918412607,0.0483628327,1.95861638,2026-02-15T09:32:56.486Z
1061.679932,2040.78523,1.05000556,1.12137163,0.674871862,9.97018528,0.160185024,7.55068731,0.977131332,8.12598384,47.8152665,1.1389897,21,1771147976496103,13.9375648,1.62140976,1.10402201,59.5013313,49.1842651,-0.344082016,862,27.9994392,5.06080246,-0.582724035,-0.426795402,-1.57225283,4.69848105,1.00775373,5.23728613,0.910272933,0.0502233295,1.96980894,2026-02-15T09:32:56.496Z
1061.689941,2040.79504,1.0511688,1.28325832,0.484700859,9.98777866,0.177778319,7.54912329,0.983454811,8.2197094,48.19367,1.14039913,21,1771147976505559,15.053467,1.24525283,1.05086194,60.4579544,49.1842649,-0.344081968,862,27.88311,5.0949502,-0.605408251,-0.441116551,-1.71706121,4.72233323,1.02850163,5.27222778,0.90213326,0.0520838263,1.9805731,2026-02-15T09:32:56.505Z
1061.699951,2040.80486,1.05306768,1.48823464,0.518864155,9.8013916,-0.00860914681,7.54769897,0.989778291,8.31343495,48.5720735,1.14180856,21,1771147976515054,17.5136831,0.829415687,0.898452804,61.4474449,49.1842646,-0.34408192,862,27.6932259,5.12909794,-0.628092468,-0.451481794,-1.87972619,4.74622934,1.03841364,5.31287942,0.893993586,0.0539443231,1.9903109,2026-02-15T09:32:56.515Z
1061.709961,2040.81467,1.05496657,1.82827747,0.819249332,9.62139034,-0.188609883,7.54627514,0.99610177,8.40716051,48.950477,1.14321799,21,1771147976524548,20.6345265,0.564667641,0.707078,62.4369354,49.1842642,-0.344081872,862,27.5033417,5.16324568,-0.650776684,-0.458446706,-2.07026598,4.77016969,1.04832554,5.36073099,0.885853913,0.0558048199,1.99833165,2026-02-15T09:32:56.524Z
1061.719971,2040.82449,1.05686545,2.95382118,1.76377451,9.38136578,-0.428634256,7.54485083,1.00242525,8.50088606,49.3288805,1.14462742,21,1771147976534042,23.7647442,0.796723708,0.36881014,63.4264297,49.1842638,-0.344081824,862,27.3134594,5.19739342,-0.673460901,-0.465245891,-2.29203049,4.79415463,1.05823743,5.42054575,0.877714239,0.0576653167,2.00370749,2026-02-15T09:32:56.534Z
1061.729980,2040.8343,1.05876422,3.530581,2.34846687,9.45994186,-0.350058585,7.54342699,1.00874873,8.59461162,49.707284,1.14603685,21,1771147976543536,24.1239866,0.92714194,0.111765661,64.4159241,49.1842635,-0.344081776,862,27.1235733,5.23154116,-0.696145117,-0.473856238,-2.53123896,4.81818447,1.06814945,5.52050323,0.869574566,0.0595258135,2.00610915,2026-02-15T09:32:56.543Z
1061.739990,2040.84412,1.0606631,3.62027359,2.53582478,9.79695702,-0.0130438544,7.54200268,1.01507221,8.68833717,50.0856875,1.14744628,21,1771147976553031,22.322262,0.83294825,-0.0331746791,65.4054108,49.1842631,-0.344081728,862,26.9336891,5.2656889,-0.718829334,-0.482647644,-2.76323485,4.84225958,1.07806134,5.64046381,0.861434892,0.0613863103,2.00650102,2026-02-15T09:32:56.553Z
1061.750000,2040.85393,1.06256199,3.65670013,2.68806982,9.9274683,0.117468297,7.54057837,1.02139569,8.78206272,50.464091,1.14885571,21,1771147976562525,19.3681075,0.357179164,-0.108583063,66.3948975,49.1842627,-0.34408168,862,26.7438049,5.29983664,-0.74151355,-0.488590155,-2.97146894,4.86638026,1.08797348,5.76269226,0.853295219,0.0632468071,2.00579255,2026-02-15T09:32:56.562Z
1061.760010,2040.86375,1.06446087,3.69345522,2.8372848,9.96001816,0.150017679,7.53915453,1.02771917,8.87578828,50.8424945,1.15026514,21,1771147976572019,15.561205,-0.36504913,-0.25938222,67.3843918,49.1842624,-0.344081632,862,26.5539227,5.33398438,-0.764197767,-0.48854733,-3.1459266,4.89054683,1.09788525,5.88525065,0.845155545,0.0651073039,2.00395379,2026-02-15T09:32:56.572Z
1061.770020,2040.87368,1.06638265,3.71189976,2.7993741,9.95208359,0.142083555,7.53771305,1.03404265,8.96951383,51.220898,1.15167457,21,1771147976581629,11.1799373,-1.22695624,-0.405136635,68.3859177,49.184262,-0.344081583,862,26.3617287,5.36813211,-0.786881983,-0.480590886,-3.2794806,4.91505457,1.10791779,6.00814798,0.837015872,0.0669678007,2.00063373,2026-02-15T09:32:56.581Z
1061.780029,2040.8835,1.06827712,3.69518781,2.65065503,9.77883053,-0.0311695375,7.53629065,1.04036613,9.06323939,51.5993015,1.153084,21,1771147976591126,6.59881831,-1.89179773,-0.577707967,69.3741302,49.1842617,-0.344081535,862,26.172163,5.40227985,-0.8095662,-0.46500912,-3.36826548,4.93931562,1.11790633,6.13072573,0.828876198,0.0688282976,1.99572346,2026-02-15T09:32:56.591Z
1061.790039,2040.89332,1.0697583,3.745713,2.31101179,9.74672318,-0.0632776543,7.53499603,1.04668961,9.15696494,51.977705,1.15449343,21,1771147976600823,2.63560937,-2.31311374,-0.752389523,70.2418289,49.1842614,-0.344081485,862,26.0125961,5.43642759,-0.832250416,-0.444003051,-3.41437346,4.96362234,1.13483894,6.25172024,0.820736525,0.0706887944,1.98907862,2026-02-15T09:32:56.600Z
1061.799927,2040.90313,1.06747198,3.91423607,1.74378502,9.74785328,-0.0621473156,7.53487349,1.05301309,9.2506905,52.3561085,1.15590286,21,1771147976612355,-0.901840765,-2.51976839,-0.973870186,70.0112686,49.1842618,-0.344081416,862,26.1264019,5.47057533,-0.854934633,-0.419567974,-3.42314918,4.98797589,1.21507943,6.37508023,0.812596851,0.0725492912,1.98035118,2026-02-15T09:32:56.612Z
1061.809937,2040.91295,1.06516337,4.04591942,1.32364023,9.77124596,-0.0387540236,7.53475809,1.05933656,9.34441605,52.734512,1.15731229,21,1771147976623899,-3.15997797,-2.47652003,-1.34717242,69.7741852,49.1842622,-0.344081347,862,26.2418327,5.50472307,-0.877618849,-0.394610697,-3.40287089,5.01237716,1.29569602,6.50199411,0.804457178,0.074409788,1.96875908,2026-02-15T09:32:56.623Z
1061.819946,2040.92276,1.06285477,4.00217056,1.1723907,9.94782448,0.137823686,7.5346427,1.06566004,9.43814161,53.1129155,1.15872172,21,1771147976635442,-3.82112428,-2.37170625,-1.8909745,69.5371017,49.1842627,-0.344081278,862,26.3572636,5.53887081,-0.900303066,-0.3703927,-3.36800266,5.03682614,1.37631249,6.63262601,0.796317504,0.0762702848,1.95258678,2026-02-15T09:32:56.635Z
1061.829956,2040.93258,1.06054616,3.84538245,0.867770731,10.1313467,0.321346492,7.53452682,1.07198352,9.53186716,53.491319,1.16013115,21,1771147976646984,-3.91773959,-2.51614722,-2.43418523,69.3000183,49.1842631,-0.344081209,862,26.4726944,5.57301855,-0.922987282,-0.345977966,-3.32934657,5.06132311,1.45692897,6.76062765,0.788177831,0.0781307816,1.93098471,2026-02-15T09:32:56.646Z
1061.839966,2040.94239,1.05823755,3.51173162,0.316477448,10.0421,0.232099548,7.53441191,1.078307,9.62559272,53.8697225,1.16154058,21,1771147976658528,-3.36594312,-3.15016227,-3.26835223,69.0629349,49.1842636,-0.344081141,862,26.5881233,5.60716629,-0.945671499,-0.317677141,-3.29296102,5.08586832,1.53754544,6.88196254,0.780038157,0.0799912784,1.9025039,2026-02-15T09:32:56.658Z
1061.849976,2040.95221,1.05592883,3.13428354,-0.0985404626,9.92701626,0.117015935,7.53429651,1.08463048,9.71931827,54.248126,1.16295001,21,1771147976670071,-1.84776099,-3.87620883,-4.11935474,68.8258438,49.184264,-0.344081072,862,26.7035542,5.64131403,-0.968355715,-0.282583101,-3.26691053,5.110462,1.61816204,6.99033219,0.771898484,0.0818517752,1.86560555,2026-02-15T09:32:56.670Z
1061.859985,2040.96202,1.05362022,2.93092299,-0.127455056,10.0336418,0.223641321,7.53418064,1.09095396,9.81304383,54.6265295,1.16435944,21,1771147976681613,-0.0950816573,-4.21767867,-4.59304398,68.588768,49.1842644,-0.344081003,862,26.8189831,5.67546177,-0.991039932,-0.242152978,-3.25720666,5.13510439,1.69877863,7.08427947,0.76375881,0.083712272,1.82208582,2026-02-15T09:32:56.681Z
1061.869995,2040.97184,1.05131161,3.02136278,-0.357908607,10.0250797,0.21507901,7.53406525,1.09727744,9.90676938,55.004933,1.16576887,21,1771147976693157,1.8750543,-4.42616226,-4.92743132,68.3516769,49.1842649,-0.344080934,862,26.9344139,5.70960951,-1.01372421,-0.198974924,-3.26610744,5.15979568,1.77939498,7.17021703,0.755619136,0.0855727688,1.77452826,2026-02-15T09:32:56.693Z
1061.880005,2040.98165,1.05000317,3.33928752,-0.616265059,9.93130684,0.121306635,7.53399992,1.10360092,10.0004949,55.3833365,1.1671783,21,1771147976703152,4.68758427,-4.59601019,-5.22935025,68.4701538,49.1842651,-0.344080857,862,27.0343609,5.74375725,-1.03640842,-0.153907247,-3.29890231,5.18453603,1.86262012,7.25879537,0.747479463,0.0874332656,1.72379243,2026-02-15T09:32:56.703Z
1061.890015,2040.99159,1.04999995,3.46723199,-0.414271712,10.0939465,0.283946425,7.53399992,1.1099244,10.0942205,55.76174,1.16858773,21,1771147976711222,8.47341638,-4.66341125,-5.60105455,69.0597382,49.1842651,-0.344080768,862,27.1150684,5.77790499,-1.05909264,-0.107654983,-3.36466151,5.20962773,1.95030284,7.35817006,0.739339789,0.0892937624,1.66969143,2026-02-15T09:32:56.711Z
1061.900024,2041.0014,1.04999995,3.25847173,0.12784721,10.0865927,0.276592284,7.53399992,1.11624788,10.187946,56.1401435,1.16999716,21,1771147976719191,12.3532599,-4.73056803,-5.90116151,69.6433945,49.1842651,-0.34408068,862,27.1947594,5.81205273,-1.08177686,-0.0607305852,-3.4687121,5.23446823,2.03694391,7.46140416,0.731200116,0.0911542592,1.61223501,2026-02-15T09:32:56.719Z
1061.910034,2041.01122,1.04999995,2.91250396,0.869895577,10.0938835,0.283883274,7.53399992,1.12257136,10.2816716,56.518547,1.17140659,21,1771147976727159,15.149415,-4.86830166,-6.02806207,70.2270279,49.1842651,-0.344080593,862,27.2744503,5.84620047,-1.10446107,-0.0127823916,-3.60610478,5.25935709,2.12358093,7.5563471,0.723060442,0.093014756,1.55264647,2026-02-15T09:32:56.727Z
1061.919922,2041.02103,1.04999995,2.61169481,1.32783794,10.0567293,0.24672924,7.53399992,1.12889484,10.3753972,56.8969505,1.17281602,21,1771147976735129,16.6737602,-4.89870886,-5.97960936,70.8106613,49.1842651,-0.344080505,862,27.3541374,5.88034821,-1.12714529,0.0366006905,-3.7670094,5.2842951,2.21021819,7.63907958,0.714920769,0.0948752528,1.49193455,2026-02-15T09:32:56.735Z
1061.929932,2041.03085,1.04999995,2.47977853,1.45986295,9.82099438,0.0109943701,7.53399992,1.13521832,10.4691227,57.275354,1.17422545,21,1771147976743098,17.4114063,-4.82622937,-5.89884889,71.3942947,49.1842651,-0.344080417,862,27.4338264,5.91449594,-1.14982951,0.0851782864,-3.93726539,5.3092829,2.29685569,7.70948907,0.706781095,0.0967357496,1.4325998,2026-02-15T09:32:56.743Z
1061.939941,2041.04066,1.04999995,2.50304818,1.81129718,9.86948967,0.0594894961,7.53399992,1.1415418,10.5628483,57.6537575,1.17563488,21,1771147976751066,17.8700137,-4.61203403,-5.92242741,71.9779282,49.1842651,-0.344080329,862,27.5135136,5.94864368,-1.17251372,0.132324599,-4.11349813,5.33432023,2.38349295,7.77469498,0.698641422,0.0985962465,1.3735512,2026-02-15T09:32:56.751Z
1061.949951,2041.05048,1.04999995,2.87147808,2.26641583,9.83381367,0.02381308,7.53399992,1.14786528,10.6565738,58.0321611,1.17704431,21,1771147976759036,17.4854256,-4.36623711,-6.01575081,72.5615616,49.1842651,-0.344080241,862,27.5932026,5.98279142,-1.19519794,0.177173352,-4.2901047,5.35940707,2.47013044,7.84032439,0.690501748,0.100456743,1.31391899,2026-02-15T09:32:56.759Z
1061.959961,2041.06029,1.04999995,3.5642159,2.66502023,9.49466228,-0.315338552,7.53399992,1.15418876,10.7502994,58.4105646,1.17845374,21,1771147976767005,16.059301,-4.18830897,-6.10862797,73.1452026,49.1842651,-0.344080153,862,27.6728916,6.01693916,-1.21788216,0.219905216,-4.45767162,5.3845434,2.5567677,7.91878801,0.682362075,0.10231724,1.2533567,2026-02-15T09:32:56.767Z
1061.969971,2041.07011,1.04999995,4.13933516,2.64428973,9.46253586,-0.347464353,7.53399992,1.16051224,10.8440249,58.7889681,1.17986317,21,1771147976774973,14.1804348,-3.9413585,-6.06216795,73.7288361,49.1842651,-0.344080065,862,27.7525806,6.0510869,-1.24056637,0.2605151,-4.60873194,5.40972915,2.64340496,8.02163745,0.674222401,0.104177737,1.19256186,2026-02-15T09:32:56.774Z
1061.979980,2041.07992,1.04999995,4.50240469,2.43912339,9.59849548,-0.211504936,7.53399992,1.16683572,10.9377505,59.1673716,1.1812726,21,1771147976782942,12.1975822,-3.79908114,-6.05125026,74.3124695,49.1842651,-0.344079977,862,27.8322678,6.08523464,-1.26325059,0.299180164,-4.74050205,5.43496424,2.73004222,8.14440333,0.666082728,0.106038234,1.13205381,2026-02-15T09:32:56.782Z
1061.989990,2041.08974,1.04999995,4.88216543,2.10277534,9.83940411,0.0294035878,7.53399992,1.1731592,11.031476,59.5457751,1.18268203,21,1771147976790910,9.62160509,-3.8661847,-6.18015392,74.8961105,49.1842651,-0.34407989,863,27.9119568,6.11938238,-1.28593481,0.337469429,-4.84947899,5.4602486,2.81667948,8.2792638,0.657943054,0.10789873,1.07095583,2026-02-15T09:32:56.790Z
1062.000000,2041.09955,1.04999995,5.02958393,1.57894158,9.9941597,0.184159547,7.53399992,1.17948267,11.1252016,59.9241786,1.18409146,21,1771147976798880,7.80920136,-3.99749054,-6.29734011,75.479744,49.1842651,-0.344079802,863,27.9916439,6.15353012,-1.30861902,0.376750086,-4.93653917,5.48558204,2.90331674,8.42668762,0.649803381,0.109759227,1.00862865,2026-02-15T09:32:56.798Z
1062.010010,2041.10937,1.04999995,4.77658796,1.3624692,9.78845596,-0.0215446707,7.53247356,1.18580615,11.2189271,60.3025821,1.18550089,21,1771147976810619,7.62843547,-4.05640688,-6.40967286,76.0090332,49.1842651,-0.344079607,863,27.9999752,6.18767786,-1.33130324,0.41698057,-5.01365121,5.51096442,3.05096078,8.57819363,0.641663707,0.111619724,0.945155028,2026-02-15T09:32:56.810Z
1062.020020,2041.1193,1.04999995,4.27594614,1.24623036,9.80257225,-0.00742843607,7.53074741,1.19212963,11.3126527,60.6809856,1.18691032,21,1771147976822943,7.82498367,-4.02302683,-6.57946998,76.5383682,49.1842651,-0.344079398,863,28,6.2218256,-1.35398746,0.457338162,-5.09084388,5.53670534,3.20758677,8.7193407,0.633524034,0.113480221,0.88027185,2026-02-15T09:32:56.822Z
1062.030029,2041.12912,1.04999995,3.73174143,1.34798324,9.77775192,-0.0322483368,7.52904272,1.19845311,11.4063783,61.0593891,1.18831975,21,1771147976835123,8.05337234,-3.68187534,-6.86865836,77.0613403,49.1842651,-0.344079191,863,28,6.25597334,-1.37667167,0.495823426,-5.17015932,5.56218681,3.36236,8.84132935,0.62538436,0.115340718,0.813095405,2026-02-15T09:32:56.835Z
1062.040039,2041.13893,1.04999995,3.27941513,1.93666756,9.53569221,-0.274307877,7.52733755,1.20477659,11.5001038,61.4377926,1.18972918,21,1771147976847301,8.2005001,-3.21098722,-7.14817368,77.5842896,49.1842651,-0.344078984,863,28,6.29012108,-1.39935589,0.530251834,-5.2513501,5.58771534,3.51712513,8.94278164,0.617244687,0.117201215,0.74307827,2026-02-15T09:32:56.847Z
1062.049927,2041.14875,1.04999995,2.89909768,2.32313132,9.68143749,-0.128563359,7.52563286,1.21110007,11.5938294,61.8161961,1.19113861,21,1771147976859480,7.34101916,-2.74340312,-7.28091301,78.1072388,49.1842651,-0.344078777,863,28,6.32426882,-1.4220401,0.56035916,-5.32993259,5.6132916,3.6718905,9.02816163,0.609105013,0.119061711,0.670123728,2026-02-15T09:32:56.859Z
1062.059937,2041.15856,1.04999995,2.78512907,2.31347752,9.96565056,0.155649781,7.52392769,1.21742355,11.6875549,62.1945996,1.19254804,21,1771147976871659,5.62170245,-2.24273734,-7.4117539,78.630188,49.1842651,-0.34407857,863,28,6.35841656,-1.44472432,0.58526797,-5.39469127,5.6389159,3.8266561,9.09831638,0.600965339,0.120922208,0.596732695,2026-02-15T09:32:56.871Z
1062.069946,2041.16838,1.04999995,2.86028171,2.49539089,9.94193363,0.131933004,7.522223,1.22374703,11.7812805,62.5730031,1.19395747,21,1771147976883838,3.60403931,-1.97126501,-7.62228858,79.1531372,49.1842651,-0.344078363,863,28,6.3925643,-1.46740854,0.606318751,-5.44078475,5.66458769,3.98142171,9.16392072,0.592825666,0.122782705,0.521636835,2026-02-15T09:32:56.883Z
1062.079956,2041.17819,1.04999995,3.03233361,2.60998559,9.93817711,0.128176734,7.52051926,1.23007051,11.875006,62.9514066,1.1953669,21,1771147976896006,1.58618021,-1.97833767,-7.95318129,79.6749649,49.1842651,-0.344078157,863,27.9998932,6.42671204,-1.49009275,0.626047466,-5.46672032,5.69030666,4.13603115,9.23182559,0.584685992,0.124643202,0.443837074,2026-02-15T09:32:56.896Z
1062.089966,2041.18801,1.04999995,3.15209198,3.14233303,10.0458555,0.235854939,7.51923895,1.23639399,11.9687316,63.3298101,1.19677633,21,1771147976904192,-0.522460111,-2.10660957,-8.12295699,79.7335968,49.1842651,-0.344078004,863,27.9552402,6.46085978,-1.51277697,0.64645165,-5.47204398,5.7160725,4.22573948,9.30549873,0.576546319,0.126503699,0.363535628,2026-02-15T09:32:56.904Z
1062.099976,2041.19782,1.04999995,3.23651218,3.34903669,9.89006329,0.080063194,7.51814604,1.24271747,12.0624571,63.7082136,1.19818576,21,1771147976910620,-3.00026808,-2.07248604,-8.3728475,79.5880508,49.1842651,-0.344077876,863,27.8909512,6.49500751,-1.53546119,0.667326908,-5.4544596,5.74188488,4.28683996,9.38300162,0.568406645,0.128364195,0.28113829,2026-02-15T09:32:56.910Z
1062.109985,2041.20764,1.04999995,3.12756705,3.08064342,9.58027267,-0.229728162,7.51705313,1.24904095,12.1561827,64.0866171,1.19959519,21,1771147976917049,-6.06218772,-2.02755807,-8.63053054,79.4424896,49.1842651,-0.344077748,863,27.8266621,6.52915525,-1.5581454,0.687807106,-5.40919003,5.76774347,4.34794044,9.46302871,0.560266972,0.130224692,0.196204217,2026-02-15T09:32:56.917Z
1062.119995,2041.21745,1.04999995,2.73028278,2.66872907,9.6759119,-0.13408868,7.51596022,1.25536443,12.2499082,64.4650206,1.20100462,21,1771147976923478,-8.82858217,-1.71326871,-9.04177919,79.2969437,49.1842651,-0.344077619,863,27.762373,6.56330299,-1.58082962,0.706491459,-5.33479534,5.79364795,4.40904093,9.53859447,0.552127298,0.132085189,0.10792687,2026-02-15T09:32:56.923Z
1062.130005,2041.22727,1.04999995,2.50703359,2.56581783,9.78534794,-0.0246523358,7.51486731,1.26168791,12.3436338,64.8434241,1.20241405,21,1771147976929908,-9.09436124,-1.51966774,-9.43478225,79.1513901,49.1842651,-0.344077491,863,27.6980839,6.59745073,-1.60351384,0.722639432,-5.24526679,5.81959791,4.47014141,9.59937585,0.543987625,0.133945686,0.0156322812,2026-02-15T09:32:56.929Z
1062.140015,2041.2372,1.04999995,2.32427979,2.21567893,9.92451286,0.11451225,7.51376104,1.26801139,12.4373594,65.2218276,1.20382348,21,1771147976936414,-8.7624146,-1.43283215,-9.77684237,79.0040665,49.1842651,-0.344077361,863,27.6330128,6.63159847,-1.62619805,0.73738711,-5.15607165,5.84590979,4.53198481,9.65178013,0.535847951,0.135806183,-0.0803337857,2026-02-15T09:32:56.936Z
1062.150024,2041.24702,1.04999995,2.22976279,1.71117675,9.67463017,-0.135370597,7.51266813,1.27433487,12.5310849,65.6002311,1.20523291,21,1771147976942843,-8.04602867,-1.53654862,-10.1006187,78.8585052,49.1842651,-0.344077233,863,27.5687218,6.66574621,-1.64888227,0.752220038,-5.07211491,5.87195131,4.59308815,9.69735102,0.527708278,0.137666679,-0.179625696,2026-02-15T09:32:56.942Z
1062.160034,2041.25683,1.04999995,2.20055389,1.59827018,9.27194309,-0.538057804,7.51157522,1.28065835,12.6248105,65.9786346,1.20664234,21,1771147976949272,-7.85129574,-1.70670404,-10.391683,78.7129517,49.1842651,-0.344077104,863,27.5044327,6.69989395,-1.67156649,0.768421306,-4.99270675,5.89803613,4.65418816,9.7393275,0.519568604,0.139527176,-0.281988647,2026-02-15T09:32:56.949Z
1062.169922,2041.26665,1.04999995,2.12710595,1.67307365,9.07276917,-0.737230837,7.51048231,1.28698183,12.718536,66.3570381,1.20805177,21,1771147976955702,-8.34839825,-1.75663801,-10.7006346,78.5673981,49.1842651,-0.344076976,863,27.4401417,6.73404169,-1.6942507,0.785932461,-4.91079901,5.92416471,4.71528912,9.78057641,0.511428931,0.141387673,-0.388634088,2026-02-15T09:32:56.955Z
1062.179932,2041.27646,1.04999995,1.88331401,1.55910492,9.12631416,-0.683686256,7.5093894,1.2933053,12.8122616,66.7354416,1.2094612,21,1771147976962131,-9.54934679,-1.71756239,-10.8852785,78.4218521,49.1842651,-0.344076847,863,27.3758526,6.76818943,-1.71693492,0.803286703,-4.82140339,5.95033718,4.77638912,9.81855962,0.503289257,0.14324817,-0.496457462,2026-02-15T09:32:56.962Z
1062.189941,2041.28628,1.04999995,1.4243722,1.03115475,9.44196129,-0.368038803,7.50829649,1.29962878,12.9059871,67.1138451,1.21087063,21,1771147976968559,-10.8427154,-1.63084725,-11.0188598,78.2762909,49.1842651,-0.344076719,863,27.3115635,6.80233717,-1.73961914,0.820012845,-4.71954883,5.97655295,4.8374896,9.8476644,0.495149584,0.145108667,-0.605870658,2026-02-15T09:32:56.968Z
1062.199951,2041.29609,1.04999995,1.13822389,0.772470474,9.54536247,-0.264638066,7.5072031,1.30595226,12.9997127,67.4922486,1.21228006,21,1771147976974988,-11.7283132,-1.75343124,-11.1706565,78.1307449,49.1842651,-0.344076591,863,27.2472744,6.83648491,-1.76230335,0.836917141,-4.60680807,6.00281163,4.89859009,9.86022833,0.48700991,0.146969163,-0.716709261,2026-02-15T09:32:56.974Z
1062.209961,2041.30591,1.04999995,1.03770006,1.08402753,9.29523754,-0.514762521,7.50611067,1.31227574,13.0934382,67.8706521,1.21368949,21,1771147976981418,-13.1320332,-2.12111575,-11.3019345,77.9851913,49.1842651,-0.344076462,863,27.1829853,6.87063265,-1.78498757,0.856269192,-4.48263439,6.02911288,4.95969057,9.86263117,0.478870237,0.14882966,-0.828961952,2026-02-15T09:32:56.981Z
1062.219971,2041.31572,1.04999995,0.921819508,1.72049117,8.98134899,-0.828651071,7.50501776,1.31859922,13.1871638,68.2490556,1.21509892,21,1771147976987847,-16.3803514,-2.65736995,-11.2264928,77.8396378,49.1842651,-0.344076334,863,27.1186962,6.90478039,-1.80767179,0.880135696,-4.33523222,6.05545633,5.02079105,9.86165795,0.470730563,0.150690157,-0.941494561,2026-02-15T09:32:56.987Z
1062.229980,2041.32554,1.04999995,0.826862574,2.35887194,8.63522816,-1.17477238,7.50392485,1.3249227,13.2808893,68.6274591,1.21650835,21,1771147976994275,-22.7128657,-2.80920739,-11.0797289,77.6940842,49.1842651,-0.344076206,863,27.0544071,6.93892813,-1.830356,0.90744125,-4.13998462,6.08184162,5.08189154,9.85678907,0.462590889,0.152550654,-1.0529175,2026-02-15T09:32:56.994Z
1062.239990,2041.33535,1.05022812,0.722459018,2.18700576,8.6352129,-1.17478752,7.50274992,1.33124618,13.3746149,69.0058626,1.21791778,21,1771147977001992,-31.5485452,-2.61521071,-10.6897061,77.601738,49.1842651,-0.344076048,863,26.9886475,6.97307587,-1.85304022,0.934535934,-3.86889915,6.10826844,5.14180136,9.84881443,0.454451216,0.154411151,-1.16165658,2026-02-15T09:32:57.001Z
1062.250000,2041.34517,1.05170274,0.33532992,1.47019911,9.18402195,-0.625978887,7.50112677,1.33756966,13.4683405,69.3842661,1.21932721,21,1771147977016744,-41.1145315,-2.45607477,-10.2149957,77.800087,49.1842651,-0.344075732,863,26.9148598,7.00722361,-1.87572443,0.959866849,-3.50589165,6.13473641,5.19520712,9.83742862,0.446311542,0.156271647,-1.2660758,2026-02-15T09:32:57.016Z
1062.260010,2041.35498,1.05317867,-0.209570706,0.61270237,9.68634701,-0.123653144,7.49950314,1.34389314,13.562066,69.7626696,1.22073664,21,1771147977031503,-51.0983298,-2.44804713,-9.72770744,77.9987259,49.1842651,-0.344075415,863,26.8410645,7.04137135,-1.89840865,0.9843635,-3.04522865,6.16124518,5.24860573,9.81249795,0.438171869,0.158132144,-1.36568967,2026-02-15T09:32:57.031Z
1062.270020,2041.36492,1.05467248,-0.741440833,0.00356102339,9.48767948,-0.322321266,7.49785995,1.35021662,13.6557916,70.1410731,1.22214607,21,1771147977046442,-62.3603502,-2.90541014,-9.10903103,78.1997986,49.1842651,-0.344075094,863,26.7663708,7.07551908,-1.92109287,1.0111069,-2.47843406,6.18811775,5.30265427,9.76848391,0.430032195,0.159992641,-1.45977847,2026-02-15T09:32:57.046Z
1062.280029,2041.37473,1.05614853,-0.959011018,-0.135830596,8.954916,-0.855084419,7.49623632,1.34271367,13.6792491,70.4920594,1.22302985,21,1771147977061202,-67.6123306,-2.7189229,-8.73791557,78.3984528,49.1842651,-0.344074778,863,26.6925716,7.06392336,-1.96307135,1.03920021,-1.82917948,6.21470894,5.35605574,9.70604943,0.431739449,0.159525605,-1.54892436,2026-02-15T09:32:57.061Z
1062.290039,2041.38455,1.05762446,-0.954035401,-0.367221832,8.72781754,-1.08218324,7.49461269,1.33515581,13.7024277,70.8429369,1.22391155,21,1771147977075960,-72.7869967,-1.96092308,-8.24888612,78.5970917,49.1842651,-0.344074461,863,26.6187763,7.05214596,-2.00512648,1.06257292,-1.12784273,6.24133872,5.40945482,9.6366794,0.433485806,0.159049326,-1.63377314,2026-02-15T09:32:57.075Z
1062.299927,2041.39436,1.05910039,-1.35145724,-0.774244905,9.15734482,-0.652655244,7.49298954,1.32759796,13.7256062,71.1938144,1.22479325,21,1771147977090720,-76.8770181,-0.582625219,-7.55644575,78.7957458,49.1842651,-0.344074144,863,26.5449772,7.04036856,-2.04718161,1.07543745,-0.371137813,6.26800779,5.46285391,9.56754389,0.435232162,0.158573047,-1.71368847,2026-02-15T09:32:57.090Z
1062.309937,2041.40418,1.06057644,-1.74948144,-1.40455031,9.60349274,-0.206507385,7.49136591,1.3200401,13.7487848,71.5446919,1.22567495,21,1771147977105479,-79.5744243,0.575783059,-6.95783373,78.9943848,49.1842651,-0.344073828,863,26.4711819,7.02859116,-2.08923674,1.07547725,0.410343094,6.29471637,5.51625299,9.48598862,0.436978519,0.158096768,-1.78619196,2026-02-15T09:32:57.105Z
1062.319946,2041.41399,1.06205237,-1.91965127,-1.78009081,10.3510971,0.541096389,7.48974276,1.31248224,13.7719633,71.8955694,1.22655665,21,1771147977120238,-80.2932315,1.21674905,-6.48219573,79.1930313,49.1842651,-0.344073511,863,26.3973866,7.01681328,-2.13129187,1.06652646,1.20889797,6.32146395,5.5696516,9.39119199,0.438724875,0.157620489,-1.85332886,2026-02-15T09:32:57.120Z
1062.329956,2041.42381,1.0635283,-1.46440542,-2.16871691,10.8478727,1.03787196,7.48811913,1.30492439,13.7951418,72.2464469,1.22743835,21,1771147977134997,-78.601458,1.18591818,-6.04355643,79.3916779,49.1842651,-0.344073194,863,26.3235893,7.00503588,-2.173347,1.0545247,2.00260449,6.34825028,5.62305069,9.29146748,0.440471232,0.157144209,-1.91589864,2026-02-15T09:32:57.134Z
1062.339966,2041.43362,1.06500423,-0.720736146,-2.03365684,11.0066185,1.1966182,7.48649549,1.29736653,13.8183204,72.5973244,1.22832005,21,1771147977149757,-75.1130597,1.06484332,-5.53542549,79.5903244,49.1842651,-0.344072877,863,26.2497921,6.99325848,-2.21540213,1.04328128,2.77044422,6.37507512,5.67644978,9.20936969,0.442217589,0.15666793,-1.97373954,2026-02-15T09:32:57.149Z
1062.349976,2041.44344,1.06648004,-0.491072983,-1.78524101,10.4747238,0.664723277,7.48487186,1.28980868,13.8414989,72.9482019,1.22920175,21,1771147977164515,-71.2588844,1.11094702,-4.95780373,79.7889633,49.1842651,-0.344072561,863,26.1759968,6.98148108,-2.25745702,1.03241316,3.50160872,6.40193822,5.72984886,9.15512434,0.443963945,0.156191651,-2.02615731,2026-02-15T09:32:57.164Z
1062.359985,2041.45325,1.06795597,-0.955838919,-1.62191904,10.4375229,0.627522409,7.48324823,1.28225082,13.8646774,73.2990794,1.23008345,21,1771147977179275,-68.4452887,1.67770601,-4.31065078,79.9876175,49.1842651,-0.344072244,863,26.1022015,6.96970367,-2.29951215,1.01848322,4.19944672,6.4288394,5.78324795,9.10996499,0.445710302,0.155715372,-2.07245406,2026-02-15T09:32:57.179Z
1062.369995,2041.46307,1.0694319,-1.0976969,-1.68399799,10.7328711,0.922870517,7.4816246,1.27469296,13.887856,73.6499569,1.23096515,21,1771147977194033,-66.0610365,2.77573385,-3.57788632,80.186264,49.1842651,-0.344071927,863,26.0284042,6.95792627,-2.34156728,0.996232393,4.8713106,6.45577845,5.83664656,9.04880327,0.447456658,0.155239093,-2.11185469,2026-02-15T09:32:57.194Z
1062.380005,2041.47288,1.07233548,-0.858509064,-1.61658096,11.0356512,1.22565103,7.47924852,1.26713511,13.9110345,74.0008343,1.23184685,21,1771147977205542,-63.6289989,4.06709555,-2.76995311,80.2028198,49.1842651,-0.344071665,863,26.0584927,6.94614887,-2.38362241,0.962045342,5.51911631,6.48275517,5.86072397,8.98341979,0.449203015,0.154762814,-2.14355899,2026-02-15T09:32:57.205Z
1062.390015,2041.48282,1.07617259,-0.645777881,-1.825405,11.560545,1.75054431,7.47637033,1.25957725,13.934213,74.3517118,1.23272855,21,1771147977215145,-60.7651222,5.41836902,-2.10138285,80.1050034,49.1842651,-0.344071433,863,26.1543179,6.93437147,-2.42567754,0.91465773,6.14046621,6.51009846,5.86664391,8.92756134,0.450949372,0.154286535,-2.16788867,2026-02-15T09:32:57.215Z
1062.400024,2041.49263,1.07996619,-0.331286609,-2.16430116,12.0030088,2.19300818,7.47352552,1.25201939,13.9573916,74.7025893,1.23361025,21,1771147977224628,-56.4326848,6.54527832,-1.57250186,80.0080643,49.1842651,-0.344071204,863,26.2491531,6.92259407,-2.46773267,0.854892401,6.72586251,6.53715163,5.87244797,8.88018495,0.452695728,0.153810256,-2.18623761,2026-02-15T09:32:57.224Z
1062.410034,2041.50245,1.08375943,-0.0891126245,-2.43958807,12.3106937,2.50069308,7.47068024,1.24446154,13.9805701,75.0534668,1.23449195,21,1771147977234112,-47.5992981,7.45646953,-1.08878038,79.9111481,49.1842651,-0.344070975,863,26.3439865,6.91081667,-2.5097878,0.784947567,7.24547205,6.56424085,5.87825155,8.84486274,0.454442085,0.153333977,-2.19952871,2026-02-15T09:32:57.234Z
1062.419922,2041.51226,1.08755279,0.543499172,-2.90389204,12.266099,2.45609856,7.46783543,1.23690368,14.0037487,75.4043443,1.23537365,21,1771147977243596,-31.3222953,8.23219409,-0.559201439,79.8142242,49.1842651,-0.344070746,863,26.438818,6.89903927,-2.55184293,0.705622469,7.64447647,6.59136694,5.88405561,8.81869193,0.456188441,0.152857698,-2.20785991,2026-02-15T09:32:57.243Z
1062.429932,2041.52208,1.09134603,0.726152778,-1.32795453,12.4187765,2.60877633,7.46499062,1.22934583,14.0269272,75.7552218,1.23625534,21,1771147977253079,-21.0665933,8.51332169,-0.501115704,79.7173004,49.1842651,-0.344070517,863,26.5336494,6.88726187,-2.59389806,0.621977937,7.90621496,6.61853022,5.8898592,8.81598063,0.457934798,0.152381419,-2.21315658,2026-02-15T09:32:57.253Z
1062.439941,2041.53189,1.09513927,1.02909589,-2.05590081,12.371541,2.56154037,7.46214581,1.22178797,14.0501057,76.1060993,1.23713704,21,1771147977262562,-11.9966694,8.73129907,-0.0594021131,79.6203766,49.1842651,-0.344070288,863,26.6284809,6.87548447,-2.63595295,0.535840017,8.07141398,6.6457304,5.89566326,8.82013271,0.459681155,0.15190514,-2.21595858,2026-02-15T09:32:57.262Z
1062.449951,2041.54171,1.09893262,1.07823193,-0.526863098,12.3411026,2.53110194,7.45930099,1.21423011,14.0732843,76.4569768,1.23801874,21,1771147977272046,-5.33227837,8.70228886,0.172760308,79.5234451,49.1842651,-0.344070059,863,26.7233124,6.86370707,-2.67800808,0.448756981,8.15800655,6.67296742,5.90146685,8.83541934,0.461427511,0.151428861,-2.21539348,2026-02-15T09:32:57.272Z
1062.459961,2041.55152,1.10272586,0.830320477,0.147647217,11.3767757,1.56677556,7.45645618,1.20667226,14.0964628,76.8078543,1.23890044,21,1771147977281529,0.121027137,8.59529221,0.212361003,79.4265289,49.1842651,-0.34406983,863,26.8181458,6.85192966,-2.72006321,0.362352932,8.18406393,6.70024124,5.90727043,8.852603,0.463173868,0.150952582,-2.21346994,2026-02-15T09:32:57.281Z
1062.469971,2041.56134,1.10651827,0.830239832,1.18542826,10.4901075,0.680107176,7.4536109,1.1991144,14.1196413,77.1587317,1.23978214,21,1771147977291012,2.98561628,8.59716591,0.142220474,79.329628,49.1842651,-0.344069602,863,26.9129696,6.84015226,-2.76211834,0.276474517,8.16855984,6.72755181,5.91306973,8.8609626,0.464920224,0.150476302,-2.21169842,2026-02-15T09:32:57.291Z
1062.479980,2041.57238,1.10937476,1.33924103,2.66188717,10.9405823,1.13058162,7.45107841,1.19155655,14.1428199,77.5096092,1.24066384,21,1771147977300495,3.33454743,8.55558072,0.158735153,79.2545319,49.1842651,-0.344069376,863,26.9999962,6.82837486,-2.80417347,0.190794273,8.13699138,6.75489915,5.91423655,8.86949162,0.466666581,0.150000023,-2.21019519,2026-02-15T09:32:57.300Z
1062.489990,2041.59706,1.10178864,2.71326089,1.83215272,11.1466036,1.33660352,7.45202684,1.18399869,14.1659984,77.8604867,1.24154554,21,1771147977309979,1.34833697,8.26132733,0.42066148,79.4228745,49.1842651,-0.344069187,863,27,6.81659746,-2.8462286,0.106793202,8.11360949,6.78228327,5.86371279,8.89653197,0.468412937,0.149523744,-2.20729975,2026-02-15T09:32:57.309Z
1062.500000,2041.62175,1.09420204,4.41642141,1.77694809,10.5809097,0.770909607,7.4529748,1.17644083,14.189177,78.2113642,1.24242724,21,1771147977319462,0.337744719,7.56304742,0.292714081,79.5912323,49.1842651,-0.344068997,863,27,6.80482006,-2.88828373,0.0277519237,8.10519222,6.80970417,5.81318617,8.97299215,0.470159294,0.149047465,-2.20373698,2026-02-15T09:32:57.319Z
1062.510010,2041.64643,1.08661556,5.95351887,0.0579448529,11.2525501,1.44255006,7.45392323,1.16888298,14.2123555,78.5622417,1.24330894,21,1771147977328944,1.94157633,6.48753699,-0.100224499,79.7595825,49.1842651,-0.344068808,863,27,6.79304266,-2.93033886,-0.0424272262,8.09379889,6.8371619,5.76265955,9.11021632,0.471905651,0.148571186,-2.20277739,2026-02-15T09:32:57.328Z
1062.520020,2041.67142,1.0789367,6.87397575,-0.846553981,11.3751144,1.56511354,7.4548831,1.16132512,14.235534,78.9131192,1.24419064,21,1771147977338543,4.82371526,5.06593691,-0.688505546,79.929985,49.1842651,-0.344068616,863,27,6.78126526,-2.97239399,-0.100131334,8.05999142,6.86499127,5.71151829,9.30162537,0.473652007,0.148094907,-2.20672005,2026-02-15T09:32:57.338Z
1062.530029,2041.69611,1.07134974,7.07467842,-0.714164019,9.80845261,-0.00154814939,7.45583105,1.15376726,14.2587126,79.2639967,1.24507234,21,1771147977348026,7.17781305,4.00691951,-1.26156213,80.0983429,49.1842651,-0.344068427,863,27,6.76948786,-3.01444888,-0.145446247,8.00003095,6.89252463,5.66098976,9.52450438,0.475398364,0.147618628,-2.21646365,2026-02-15T09:32:57.348Z
1062.540039,2041.72079,1.06376314,6.68855524,-2.01995158,9.06207371,-0.747926891,7.45677948,1.14620941,14.2818911,79.6148742,1.24595404,21,1771147977357510,8.52044692,3.8936133,-1.39192985,80.2667007,49.1842651,-0.344068237,863,27,6.75771046,-3.05650401,-0.18490987,7.92160979,6.92009373,5.61046314,9.75265018,0.47714472,0.147142349,-2.22971877,2026-02-15T09:32:57.357Z
1062.549927,2041.74548,1.05617666,6.22516727,-1.90623891,9.63505745,-0.174942896,7.45772839,1.13865155,14.3050696,79.9657517,1.24683574,21,1771147977366993,11.1179003,4.54057151,-1.71679681,80.435051,49.1842651,-0.344068048,863,27,6.74593306,-3.09855914,-0.227551883,7.82232461,6.94769975,5.55993652,9.9673979,0.478891077,0.14666607,-2.24543587,2026-02-15T09:32:57.366Z
1062.559937,2041.77016,1.04859006,5.50896549,-1.90381014,9.69283676,-0.117163979,7.45867634,1.1310937,14.3282482,80.3166292,1.24771744,21,1771147977376477,14.9215833,4.93796795,-1.77294528,80.6034088,49.1842651,-0.344067859,863,27,6.73415565,-3.14061427,-0.274896319,7.69227267,6.97534331,5.50941038,10.1611444,0.480637434,0.146189791,-2.26286726,2026-02-15T09:32:57.376Z
1062.569946,2041.79485,1.04100358,4.40472794,-2.03315139,10.6224127,0.812412322,7.45962477,1.12353584,14.3514267,80.6675066,1.24859914,21,1771147977385960,17.3592205,2.91301084,-1.27306574,80.771759,49.1842651,-0.344067669,864,27,6.72237825,-3.1826694,-0.314122711,7.53103795,7.00302432,5.45888376,10.3274869,0.48238379,0.145713512,-2.27808489,2026-02-15T09:32:57.385Z
1062.579956,2041.81953,1.03342998,4.55506182,-1.27163792,9.98868942,0.178688824,7.4605794,1.11597798,14.3746052,81.0183841,1.24948083,21,1771147977395446,19.0053738,0.417170663,-1.02615848,80.9407654,49.1842651,-0.34406748,864,26.9998455,6.71060038,-3.22472453,-0.330769501,7.34940041,7.03074296,5.40864754,10.4526859,0.484130147,0.145237233,-2.289571,2026-02-15T09:32:57.395Z
1062.589966,2041.84422,1.03128874,5.16158581,-0.465726018,8.56927872,-1.24072123,7.46409321,1.10842013,14.3977838,81.3692616,1.25036253,21,1771147977406158,18.4592662,-1.64423908,-0.845541618,81.3814087,49.1842651,-0.344067233,864,26.9355602,6.69882298,-3.26677966,-0.324650182,7.16225734,7.05849941,5.4797864,10.5823018,0.485876503,0.144760954,-2.29892124,2026-02-15T09:32:57.406Z
1062.599976,2041.8689,1.03363383,6.02212191,0.0269840565,8.16066837,-1.64933205,7.46972084,1.10086227,14.4209623,81.7201391,1.25124423,21,1771147977417883,15.2391813,-2.96367629,-0.255622896,82.0463867,49.1842651,-0.34406694,864,26.8183098,6.68704557,-3.30883479,-0.301639518,6.9939138,7.08629387,5.65115833,10.732705,0.48762286,0.144284675,-2.30442457,2026-02-15T09:32:57.417Z
1062.609985,2041.89359,1.03597867,6.33364725,0.327382475,7.67201185,-2.13798881,7.47534895,1.09330441,14.4441409,82.0710166,1.25212593,21,1771147977429608,10.9330534,-3.18200005,0.570695775,82.7113571,49.1842651,-0.344066646,864,26.7010612,6.67526817,-3.35088992,-0.270941008,6.86318241,7.11412658,5.82252979,10.912857,0.489369217,0.143808395,-2.30285033,2026-02-15T09:32:57.429Z
1062.619995,2041.91827,1.03832376,6.03131294,0.765911639,8.00063801,-1.80936277,7.48097706,1.08574656,14.4673194,82.4218941,1.25300763,21,1771147977441333,6.7580047,-2.97937926,1.35228735,83.3763351,49.1842651,-0.344066353,864,26.5838108,6.66349077,-3.39294481,-0.240165156,6.77483376,7.14199776,5.99390173,11.1026956,0.491115573,0.143332116,-2.29324099,2026-02-15T09:32:57.441Z
1062.630005,2041.94296,1.04066873,5.20313311,-0.048544988,8.61220646,-1.1977942,7.48660517,1.0781887,14.4904979,82.7727716,1.25388933,21,1771147977453058,2.84455443,-2.91297072,2.25632926,84.0413132,49.1842651,-0.344066059,864,26.4665623,6.65171337,-3.43499994,-0.210732471,6.72688683,7.16990765,6.16527319,11.2800428,0.49286193,0.142855837,-2.27521111,2026-02-15T09:32:57.453Z
1062.640015,2041.96794,1.04304218,4.15061045,-1.16717243,9.48036385,-0.329636097,7.49230146,1.07063085,14.5136765,83.1236491,1.25477103,21,1771147977464925,0.86688842,-3.45684604,3.16860116,84.7143784,49.1842651,-0.344065762,864,26.347887,6.63993597,-3.47705507,-0.178911804,6.70835728,7.19819698,6.33872986,11.4261116,0.494608286,0.142379558,-2.24810849,2026-02-15T09:32:57.464Z
1062.650024,2041.99263,1.04538739,2.88323116,-2.9067328,9.75619793,-0.0538021438,7.49792957,1.06307299,14.536855,83.4745266,1.25565273,21,1771147977476651,2.7644495,-4.43999849,4.0929007,85.3793869,49.1842651,-0.344065469,864,26.2306328,6.62815857,-3.5191102,-0.139461326,6.69020898,7.22618674,6.51010895,11.5331501,0.496354643,0.141903279,-2.21183193,2026-02-15T09:32:57.476Z
1062.660034,2042.01731,1.04773235,1.76404178,-3.14409351,9.19372749,-0.616272926,7.50355577,1.05551513,14.5600335,83.825404,1.25653443,21,1771147977488375,8.24457842,-5.4536069,4.60011247,86.0440063,49.1842651,-0.344065175,864,26.1133919,6.61638117,-3.56116533,-0.0900366583,6.63519089,7.25421485,6.68147564,11.5938177,0.498101,0.141427,-2.16840683,2026-02-15T09:32:57.488Z
1062.669922,2042.042,1.05008531,1.04440391,1.73220086,9.22742367,-0.582576811,7.50903702,1.04795728,14.5832121,84.1762815,1.25741613,21,1771147977499999,15.0137918,-6.12044213,4.93409507,86.6743546,49.1842651,-0.344064882,864,25.9971542,6.60460377,-3.60322046,-0.0315154739,6.51757866,7.28228255,6.85237074,11.6140026,0.499847356,0.140950721,-2.12020074,2026-02-15T09:32:57.499Z
1062.679932,2042.06668,1.05267251,0.289241016,0.481406927,7.54924917,-2.26075101,7.51015759,1.04039942,14.6063906,84.527159,1.25829783,21,1771147977508622,12.5224905,-5.92094577,6.69140136,86.2786255,49.1842651,-0.344064599,864,25.9109173,6.59282637,-3.64527559,0.0286336706,6.38001965,7.31039061,7.00915146,11.6083157,0.501593713,0.140474442,-2.06213846,2026-02-15T09:32:57.508Z
1062.689941,2042.09137,1.05525959,0.331860423,-1.87295878,8.49654007,-1.31346071,7.51127911,1.03284157,14.6295692,84.8780365,1.25917953,21,1771147977517246,7.7800783,-5.29036236,8.40111844,85.8829117,49.1842651,-0.344064317,864,25.8246803,6.58104897,-3.68733072,0.0846385718,6.27858267,7.33853915,7.16593266,11.5757788,0.503340069,0.139998163,-1.9867578,2026-02-15T09:32:57.517Z
1062.699951,2042.11606,1.05784678,0.221816137,-1.62650704,8.66294384,-1.14705646,7.51240015,1.02528371,14.6527477,85.228914,1.26006123,21,1771147977525870,8.6422003,-4.59582261,8.96761454,85.4871979,49.1842651,-0.344064034,864,25.7384415,6.56927156,-3.72938585,0.134024628,6.19655562,7.3667285,7.32271385,11.5453863,0.505086426,0.139521884,-1.90000158,2026-02-15T09:32:57.525Z
1062.709961,2042.14074,1.06043386,-0.0929368809,-0.0506745577,8.3500309,-1.45996904,7.51352119,1.01772585,14.6759262,85.5797915,1.26094293,21,1771147977534494,7.76077102,-3.48585744,10.6370856,85.0914764,49.1842651,-0.344063751,864,25.6522026,6.55749416,-3.77144074,0.174399011,6.11461653,7.394959,7.47949505,11.5116286,0.506832782,0.139045605,-1.80208184,2026-02-15T09:32:57.534Z
1062.719971,2042.16543,1.06302106,0.622709632,-1.38117325,8.51458549,-1.29541457,7.51464224,1.010168,14.6991048,85.930669,1.26182462,21,1771147977543118,5.20908226,-2.98749422,11.7332945,84.695755,49.1842651,-0.344063468,864,25.5659637,6.54571676,-3.81349587,0.206736618,6.04981808,7.42323103,7.63627672,11.4671338,0.508579139,0.138569326,-1.6903444,2026-02-15T09:32:57.543Z
1062.729980,2042.19011,1.06560826,1.4124316,-1.86237407,7.64918709,-2.16081333,7.51576328,1.00261014,14.7222833,86.2815465,1.26270632,21,1771147977551741,5.73616195,-2.42708121,12.6515048,84.3000412,49.1842651,-0.344063186,864,25.4797268,6.53393936,-3.855551,0.233785541,5.99514756,7.45154493,7.79305744,11.4491031,0.510325496,0.138093047,-1.56854338,2026-02-15T09:32:57.551Z
1062.739990,2042.2148,1.06819534,1.61716521,-3.04970741,7.62170982,-2.1882906,7.5168848,0.995052284,14.7454618,86.632424,1.26358802,21,1771147977560366,7.0944751,-1.88189047,13.042943,83.9043198,49.1842651,-0.344062903,864,25.3934879,6.52216196,-3.89760613,0.255306721,5.93105034,7.47990112,7.94983864,11.4599645,0.512071852,0.137616768,-1.44019457,2026-02-15T09:32:57.560Z
1062.750000,2042.23948,1.07078254,1.69285381,0.330064774,7.99755669,-1.81244373,7.51800537,0.987494428,14.7686404,86.9833015,1.26446972,21,1771147977568989,8.18772097,-1.37077425,12.7781275,83.5085983,49.1842651,-0.34406262,864,25.307251,6.51038456,-3.93966126,0.27155169,5.85470858,7.50829995,8.10661983,11.4783638,0.513818209,0.137140489,-1.31121647,2026-02-15T09:32:57.568Z
1062.760010,2042.26417,1.07336962,1.7323184,0.866450489,7.23385811,-2.57614231,7.51912689,0.979936572,14.7918189,87.3341789,1.26535142,21,1771147977577613,5.19076574,-0.157984936,13.2663185,83.1128845,49.1842651,-0.344062338,864,25.2210121,6.49860716,-3.98171639,0.279182123,5.78789605,7.53674178,8.26340008,11.4995852,0.515564565,0.136664209,-1.1811189,2026-02-15T09:32:57.577Z
1062.770020,2042.28915,1.07598829,1.85550606,0.80462712,7.60662985,-2.20337081,7.52026176,0.972378715,14.8149974,87.6850564,1.26623312,21,1771147977586341,-0.800517813,0.594409465,13.7885158,82.7123566,49.1842651,-0.344062051,864,25.1337242,6.48682976,-4.02377129,0.276998494,5.76599537,7.5655739,8.42208862,11.522298,0.517310922,0.13618793,-1.04597417,2026-02-15T09:32:57.586Z
1062.780029,2042.31384,1.07856178,1.9677397,0.0937980711,8.25277233,-1.55722821,7.52137995,0.964820859,14.838176,88.0359339,1.26711482,21,1771147977594982,-6.50113916,0.579486081,14.0454013,82.3235931,49.1842651,-0.344061768,864,25.047945,6.47505236,-4.06582642,0.271134844,5.80249561,7.59410485,8.57739925,11.5495024,0.519057279,0.135711651,-0.906939128,2026-02-15T09:32:57.594Z
1062.790039,2042.33852,1.07999158,2.38330436,-0.551101506,8.5535984,-1.25640213,7.52231264,0.957263003,14.8613545,88.3868114,1.26799652,21,1771147977604963,-9.64740024,0.396912724,14.1618595,82.5087433,49.1842651,-0.34406146,864,25.0002804,6.46327496,-4.10788155,0.266258503,5.88317461,7.62267863,8.61130714,11.5807565,0.520803635,0.135235372,-0.766039864,2026-02-15T09:32:57.604Z
1062.799927,2042.36321,1.08000004,3.04582334,0.0677911118,7.51076746,-2.2992332,7.52301359,0.949705147,14.8845331,88.7376889,1.26887822,21,1771147977616612,-11.5184473,0.324881205,13.8180402,83.4074783,49.1842651,-0.34406112,864,25,6.45149755,-4.14993668,0.262608953,5.9901867,7.65129668,8.49426651,11.6276191,0.522549992,0.134759093,-0.624569632,2026-02-15T09:32:57.616Z
1062.809937,2042.38789,1.08000004,3.56450796,0.489687413,7.33955526,-2.47044492,7.52371311,0.942147291,14.9077116,89.0885664,1.26975992,21,1771147977628269,-11.9049626,0.528317663,13.530328,84.3104248,49.1842651,-0.344060779,864,25,6.43972015,-4.19199181,0.258348092,6.10718761,7.67995999,8.37633324,11.6974195,0.524296348,0.134282814,-0.487959789,2026-02-15T09:32:57.628Z
1062.819946,2042.41258,1.08000004,3.63116431,-0.472458154,8.59162235,-1.21837783,7.52441263,0.934589434,14.9308901,89.4394439,1.27064162,21,1771147977639928,-12.1052265,1.00882592,13.6455657,85.2133865,49.1842651,-0.344060439,864,25,6.42794275,-4.23404694,0.250672209,6.22712041,7.70866868,8.25839806,11.7854794,0.526042705,0.133806535,-0.352213473,2026-02-15T09:32:57.639Z
1062.829956,2042.43726,1.08000004,3.44155645,-1.46832454,9.60134029,-0.208660364,7.52511263,0.927031578,14.9540687,89.7903214,1.27152332,21,1771147977651586,-10.5237944,1.22887297,12.8986231,86.116333,49.1842651,-0.344060098,864,25,6.41616535,-4.27610207,0.2394957,6.34016254,7.73742314,8.14046574,11.8753526,0.527789062,0.133330256,-0.21961839,2026-02-15T09:32:57.651Z
1062.839966,2042.46195,1.08000004,2.42953014,-3.12028027,9.15257454,-0.657426059,7.52581167,0.919473722,14.9772472,90.1411989,1.27240502,21,1771147977663244,2.35617053,1.37241531,11.9867231,87.0192947,49.1842651,-0.344059758,864,25,6.40438747,-4.3181572,0.226502646,6.38102349,7.76622378,8.02253246,11.9578249,0.529535418,0.132853977,-0.0953086156,2026-02-15T09:32:57.663Z
1062.849976,2042.48663,1.08000004,1.8537029,-3.56183934,9.6925621,-0.117438748,7.52651119,0.911915866,15.0004257,90.4920764,1.27328672,21,1771147977674902,13.4143851,1.58110048,11.069818,87.9222412,49.1842651,-0.344059417,864,25,6.39261007,-4.36021233,0.211750489,6.30230153,7.79507096,7.90459824,12.0033479,0.531281775,0.132377698,0.0198660874,2026-02-15T09:32:57.674Z
1062.859985,2042.51132,1.08000004,1.69071937,-3.79723072,9.93912792,0.129127562,7.52721071,0.90435801,15.0236043,90.8429538,1.27416842,21,1771147977686560,26.006782,2.33067706,10.0854084,88.8251953,49.1842651,-0.344059077,864,25,6.38083267,-4.40226746,0.192210315,6.10538182,7.8239651,7.78666449,12.027977,0.533028131,0.131901419,0.12553854,2026-02-15T09:32:57.686Z
1062.869995,2042.536,1.08000004,1.75869787,-3.21733975,9.17550278,-0.634497523,7.52791023,0.896800153,15.0467828,91.1938313,1.27505011,21,1771147977698219,39.0631675,3.23491237,9.16550655,89.728157,49.1842651,-0.344058736,864,25,6.36905527,-4.44432259,0.16440511,5.78028586,7.85290656,7.66873026,12.0467844,0.534774488,0.13142514,0.221694726,2026-02-15T09:32:57.698Z
1062.880005,2042.56069,1.07924485,1.72500157,-2.80771661,9.49252892,-0.317471683,7.52497864,0.889242297,15.0699614,91.5447088,1.27593181,21,1771147977707262,51.5314449,4.07730187,8.11384054,89.9163589,49.1842651,-0.344058429,864,25.0755196,6.35727787,-4.48637772,0.127875612,5.32769409,7.88189568,7.74525642,12.0681379,0.536520844,0.130948861,0.308002056,2026-02-15T09:32:57.707Z
1062.890015,2042.58567,1.07836843,1.27004206,-1.63239086,10.0891037,0.279102921,7.52147341,0.881684441,15.0931399,91.8955863,1.27681351,21,1771147977716028,62.7025611,4.78299667,7.05646526,90.0009308,49.1842651,-0.344058124,864,25.1631489,6.34550047,-4.52843285,0.0836139188,4.75702711,7.91128663,7.85153151,12.0883558,0.538267201,0.130472582,0.383774451,2026-02-15T09:32:57.716Z
1062.900024,2042.61036,1.07750237,0.323899835,-0.645322442,9.78578758,-0.0242129322,7.51800919,0.87423207,15.1161209,92.2449722,1.27771064,21,1771147977724689,72.5682169,5.01266141,6.1430115,90.0842285,49.1842651,-0.344057822,864,25.249754,6.33379745,-4.56992435,0.0346823156,4.08128533,7.94037394,7.95660353,12.0923028,0.539978189,0.130005132,0.449703027,2026-02-15T09:32:57.724Z
1062.910034,2042.63505,1.07663643,-1.21772647,0.153929189,9.4374094,-0.372590959,7.51454544,0.880261669,15.1138618,92.4037184,1.28058018,21,1771147977733350,80.9094433,5.22341716,5.29141472,90.1675339,49.1842651,-0.34405752,864,25.336359,6.33161736,-4.53937292,-0.0164491633,3.31460544,7.9695087,8.0616703,12.0624732,0.537168748,0.130666177,0.506815266,2026-02-15T09:32:57.733Z
1062.919922,2042.65973,1.0757705,-2.70192671,1.13026345,9.81637287,0.00637226133,7.5110817,0.886291268,15.1116027,92.5624645,1.28344972,21,1771147977742011,87.9838432,5.1036699,4.49799397,90.2508392,49.1842651,-0.344057218,864,25.4229622,6.32943678,-4.50882149,-0.0686638213,2.46064981,7.99869213,8.16673756,11.9764505,0.534359307,0.131327222,0.556310009,2026-02-15T09:32:57.742Z
1062.929932,2042.68442,1.07490444,-3.75387788,2.25002623,10.1135311,0.303530991,7.50761747,0.892320868,15.1093436,92.7212107,1.28631926,21,1771147977750670,92.4942607,4.89603162,3.50986539,90.3341446,49.1842651,-0.344056916,864,25.5095654,6.3272562,-4.47827005,-0.118614547,1.55916167,8.02792511,8.27180481,11.8395725,0.531549866,0.131988267,0.596315016,2026-02-15T09:32:57.750Z
1062.939941,2042.7091,1.07403839,-4.35950899,4.55031824,9.42388248,-0.386117905,7.50415325,0.898350467,15.1070845,92.8799568,1.2891888,21,1771147977759331,92.4647981,4.55315324,2.52166278,90.4174423,49.1842651,-0.344056614,864,25.5961685,6.32507563,-4.44771814,-0.165816029,0.635268759,8.05720763,8.37687206,11.6665047,0.528740424,0.132649312,0.626448026,2026-02-15T09:32:57.759Z
1062.949951,2042.73379,1.07317233,-4.56879377,6.59649038,10.1223145,0.312314421,7.50068903,0.904380066,15.1048254,93.0387029,1.29205834,21,1771147977767992,84.7923402,4.01045994,1.74333407,90.5007401,49.1842651,-0.344056312,864,25.6827717,6.32289505,-4.41716671,-0.208594946,-0.250189241,8.08653995,8.48193836,11.473663,0.525930983,0.133310357,0.647755993,2026-02-15T09:32:57.767Z
1062.959961,2042.75847,1.07230628,-4.09287357,7.68735218,11.3116961,1.50169587,7.49722481,0.910409666,15.1025663,93.1974491,1.29492788,21,1771147977776652,68.7979852,3.18947942,1.42614553,90.5840454,49.1842651,-0.34405601,864,25.7693748,6.32071447,-4.38661528,-0.244563507,-1.0174693,8.1159223,8.58700562,11.2754898,0.523121542,0.133971402,0.663589481,2026-02-15T09:32:57.776Z
1062.969971,2042.78316,1.07144022,-3.00592542,6.69572306,11.132165,1.32216442,7.49376059,0.916439265,15.1003072,93.3561952,1.29779742,21,1771147977785312,49.032655,2.15534344,1.59571675,90.6673431,49.1842651,-0.344055708,864,25.855978,6.31853437,-4.35606384,-0.271266587,-1.60614397,8.14535488,8.69207287,11.0966851,0.520312101,0.134632447,0.678683224,2026-02-15T09:32:57.785Z
1062.979980,2042.80784,1.07057416,-1.90556228,4.61666346,11.1340456,1.32404506,7.49029636,0.922468864,15.0980481,93.5149414,1.30066696,21,1771147977793972,31.0946127,1.43682646,1.59718734,90.7506485,49.1842651,-0.344055406,864,25.9425831,6.3163538,-4.32551241,-0.289213066,-2.00646815,8.17483787,8.79714012,10.9590546,0.51750266,0.135293492,0.694632163,2026-02-15T09:32:57.793Z
1062.989990,2042.83253,1.06747687,0.0905380547,0.363304704,10.9109201,1.10091972,7.48766613,0.928498464,15.095789,93.6736875,1.3035365,21,1771147977803914,14.2705964,1.26403141,1.65147245,90.6833115,49.1842651,-0.344055067,864,26.0420055,6.31417322,-4.29496098,-0.302703338,-2.23299084,8.20437146,8.85809612,10.8627063,0.514693218,0.135954537,0.71085988,2026-02-15T09:32:57.803Z
1063.000000,2042.85721,1.06000745,-0.894769609,-2.98886132,10.8152962,1.00529623,7.48666763,0.934528063,15.0935298,93.8324337,1.30640604,21,1771147977816369,17.9996736,2.43456327,1.31708138,90.3208084,49.1842651,-0.344054655,864,26.166544,6.31199265,-4.26440954,-0.321183981,-2.39420313,8.23395572,8.83262539,10.839405,0.511883777,0.136615582,0.725686536,2026-02-15T09:32:57.816Z
1063.010010,2042.8819,1.05253339,-1.76239359,-4.43071699,11.5558167,1.74581599,7.48567104,0.940557662,15.0912707,93.9911798,1.30927558,21,1771147977828826,29.5717044,3.43168703,0.106881942,89.9580002,49.1842651,-0.344054243,864,26.291111,6.30981207,-4.23385811,-0.350491458,-2.63188434,8.26359074,8.80706406,10.7811957,0.509074336,0.137276627,0.73279351,2026-02-15T09:32:57.828Z
1063.020020,2042.90688,1.04496861,-1.20364249,-2.1066668,12.9421234,3.13212323,7.48466206,0.946587262,15.0890116,94.149926,1.31214512,21,1771147977841434,43.7455669,3.69372055,-1.29272429,89.5907822,49.1842651,-0.344053825,864,26.4171925,6.30763149,-4.20330667,-0.386084987,-2.99818186,8.29363813,8.78119183,10.69266,0.506264895,0.137937672,0.726863291,2026-02-15T09:32:57.841Z
1063.030029,2042.93157,1.03749418,-0.460122019,0.659653544,12.0122004,2.2021997,7.48366547,0.952616861,15.0867525,94.3086721,1.31501466,21,1771147977853890,54.5606267,3.64428511,-1.72600456,89.2279587,49.1842651,-0.344053413,864,26.5417633,6.30545139,-4.17275524,-0.422738969,-3.48928549,8.32337682,8.75562954,10.6254043,0.503455454,0.138598717,0.711782312,2026-02-15T09:32:57.853Z
1063.040039,2042.95625,1.03002012,0.0279819835,-0.0500730276,12.0861053,2.27610493,7.48266888,0.958646461,15.0844934,94.4674183,1.3178842,21,1771147977866347,57.3912749,2.66647267,-1.37358273,88.8651505,49.1842651,-0.344053001,864,26.6663303,6.30327082,-4.14220381,-0.454257206,-4.04851218,8.35316487,8.73006821,10.5858581,0.500646013,0.139259762,0.696301236,2026-02-15T09:32:57.866Z
1063.049927,2042.98094,1.02254617,0.339463592,0.974260271,12.858532,3.04853153,7.48167276,0.96467606,15.0822343,94.6261644,1.32075374,21,1771147977878804,55.191166,1.0859649,-1.68220561,88.5023422,49.1842651,-0.344052589,864,26.7908974,6.30109024,-4.11165237,-0.473234436,-4.6177487,8.3830033,8.70450687,10.5643622,0.497836571,0.139920807,0.68085191,2026-02-15T09:32:57.878Z
1063.059937,2043.00562,1.01508558,0.44643867,2.75631595,12.4830561,2.67305541,7.48067331,0.970705659,15.0799752,94.7849106,1.32362328,21,1771147977891251,50.5963549,0.198322057,-1.71609765,88.1402969,49.1842651,-0.344052178,864,26.9152164,6.29890966,-4.08110094,-0.479653917,-5.14619246,8.41289264,8.67889881,10.5547746,0.49502713,0.140581852,0.663877158,2026-02-15T09:32:57.891Z
1063.069946,2043.03031,1.01071179,1.06736779,0.919551849,12.3383694,2.52836847,7.47896767,0.976735259,15.0777161,94.9436567,1.32649282,21,1771147977901493,45.3348954,-0.247132126,-1.21023744,87.9538956,49.1842651,-0.344051844,864,26.9822063,6.29672909,-4.05054951,-0.479412279,-5.62540628,8.44283244,8.64244556,10.5494107,0.492217689,0.141242897,0.649257289,2026-02-15T09:32:57.901Z
1063.079956,2043.05499,1.01292658,1.90913451,1.14760017,11.7404442,1.93044388,7.47575665,0.982764858,15.075457,95.1024029,1.32936236,21,1771147977907031,40.8808069,-0.208687776,-1.24944807,88.1424179,49.1842651,-0.344051677,864,26.9268341,6.29454851,-4.01999807,-0.477135233,-6.05608588,8.4728225,8.58284283,10.5667237,0.489408248,0.141903942,0.636971046,2026-02-15T09:32:57.907Z
1063.089966,2043.07968,1.01514149,2.83505034,2.4764626,11.7627277,1.95272696,7.47254467,0.988794457,15.0731979,95.261149,1.3322319,21,1771147977912568,38.0430393,0.57614639,-1.46172661,88.3309479,49.1842651,-0.344051511,864,26.8714619,6.29236794,-3.98944664,-0.478966916,-6.45033391,8.50286258,8.52324104,10.6144345,0.486598807,0.142564987,0.623429435,2026-02-15T09:32:57.912Z
