T,D,PDOP,acc_x,acc_y,acc_z,acc_z_,altitude,amp_pitch,amp_roll,cadence,d_stroke,gpsTimeAccuracyNs,gpstimeUs,gyro_x,gyro_y,gyro_z,heading,latitude,longitude,motif_id,nSat,pic_acc,pic_down,pitch,roll,speed,speed_gps,speed_i,t_acc,t_down,yaw,time
1188.051758,2591.52929,0.910000026,1.07134306,2.34040856,9.09904861,-0.710951567,3.70298529,0.759851022,4.39033722,55.9804046,0.928802882,21,1771147976324923,-10.2694482,0.161244905,0.252580976,49.124012,49.1841087,-0.344091848,1113,29,6.21852493,-0.980797589,-0.257585116,-2.80752707,4.42981703,0.645654321,3.92537004,0.702194832,0.100262731,2.19178789,2026-02-15T09:32:56.324Z
1188.061768,2591.53818,0.910000026,0.997825682,2.17537475,9.5227623,-0.287237912,3.70334601,0.772186636,4.44478001,56.314176,0.932026934,21,1771147976333940,-15.4500708,0.194181117,0.173963386,48.9728088,49.1841087,-0.344091832,1113,29,6.24064159,-1.00998628,-0.259360343,-2.67908007,4.4540847,0.636890888,3.96894309,0.698818294,0.101041932,2.19391891,2026-02-15T09:32:56.333Z
1188.071777,2591.54706,0.910000026,1.16312587,2.56393647,9.22608852,-0.583911538,3.7037065,0.78452225,4.4992228,56.6479474,0.935250985,21,1771147976342953,-20.971045,-0.158531451,0.107572685,48.8216515,49.1841087,-0.344091816,1113,29,6.26275826,-1.03917491,-0.259540132,-2.49717901,4.47839469,0.628130078,4.00967083,0.695441757,0.101821133,2.19532554,2026-02-15T09:32:56.342Z
1188.081787,2591.55595,0.910000026,1.5386194,1.6596328,9.44803143,-0.361969262,3.70406723,0.796857864,4.5536656,56.9817188,0.938475036,21,1771147976351966,-26.0269254,-0.517264201,0.040827039,48.6704903,49.1841087,-0.3440918,1113,29,6.28487539,-1.06836367,-0.256166197,-2.26244307,4.50275476,0.619369149,4.05617222,0.692065219,0.102600334,2.19606714,2026-02-15T09:32:56.351Z
1188.091797,2591.56483,0.910000026,2.17215896,1.63949704,9.239604,-0.570396304,3.70442748,0.809193478,4.60810839,57.3154902,0.941699088,21,1771147976360979,-28.2289954,-1.09164409,-0.140363427,48.5193291,49.1841087,-0.344091784,1113,29,6.30699205,-1.0975523,-0.248130097,-1.9914304,4.52716539,0.610608399,4.11595667,0.688688681,0.103379535,2.19557013,2026-02-15T09:32:56.360Z
1188.101807,2591.57372,0.910000026,2.85148597,0.554137588,9.23579693,-0.574203193,3.70478821,0.821529092,4.66255118,57.6492616,0.944923139,21,1771147976369992,-27.9375573,-1.37488457,-0.518401461,48.3681717,49.1841087,-0.344091768,1113,29,6.32910872,-1.12674105,-0.235808106,-1.71087305,4.5516271,0.60184747,4.19818617,0.685312143,0.104158736,2.19227767,2026-02-15T09:32:56.369Z
1188.111816,2591.5826,0.910000026,3.43267369,0.682644248,9.20229912,-0.607701063,3.7051487,0.833864707,4.71699398,57.9830329,0.94814719,21,1771147976379006,-24.6623146,-1.23982026,-0.935208916,48.2170143,49.1841087,-0.344091751,1113,29,6.35122585,-1.15592968,-0.222747999,-1.44814625,4.57614033,0.5930866,4.30427045,0.681935606,0.104937937,2.18501469,2026-02-15T09:32:56.379Z
1188.121826,2591.59149,0.910000026,3.96844769,0.110384583,8.90040302,-0.909597874,3.70550919,0.846200321,4.77143677,58.3168043,0.951371242,21,1771147976388019,-19.7257478,-0.970276751,-1.52268158,48.0658531,49.1841087,-0.344091735,1113,29,6.37334251,-1.18511832,-0.211709606,-1.22644647,4.60070558,0.58432579,4.43044214,0.678559068,0.105717138,2.17273437,2026-02-15T09:32:56.388Z
1188.131836,2591.60037,0.910000026,4.27023029,0.61232996,9.01491261,-0.795087337,3.70586991,0.858535935,4.82587957,58.6505757,0.954595293,21,1771147976397032,-13.4636334,-0.630864491,-2.2062323,47.9146957,49.1841087,-0.344091719,1113,29,6.39545918,-1.21430707,-0.203713358,-1.06069185,4.62532333,0.575564921,4.57486778,0.67518253,0.106496339,2.15410467,2026-02-15T09:32:56.397Z
1188.141846,2591.60926,0.910000026,4.05499935,1.08990431,9.47483063,-0.335169464,3.70688128,0.870871549,4.88032236,58.9843471,0.957819345,21,1771147976407004,-8.30744367,-0.44784489,-2.90335782,48.188446,49.1841087,-0.344091699,1113,29,6.41757584,-1.2434957,-0.198325951,-0.951967554,4.64999408,0.584493339,4.72895012,0.671805993,0.10727554,2.12857827,2026-02-15T09:32:56.407Z
1188.151733,2591.61814,0.910000026,3.8067739,1.67878294,9.68333626,-0.126664132,3.70823526,0.883207163,4.93476515,59.3181185,0.961043396,21,1771147976417481,-5.4343645,-0.765974682,-3.49702186,48.6858063,49.1841087,-0.344091678,1113,29,6.43969297,-1.27268445,-0.192188197,-0.882499588,4.67471859,0.602730513,4.87570869,0.668429455,0.108054741,2.0962154,2026-02-15T09:32:56.417Z
1188.161743,2591.62703,0.910000026,3.89195466,2.04021621,9.05178642,-0.758213937,3.70959949,0.895542777,4.98920795,59.6518898,0.964267447,21,1771147976427975,-7.01409506,-2.14208148,-4.3924433,49.1897087,49.1841087,-0.344091656,1113,29,6.46180964,-1.30187309,-0.177668773,-0.820325574,4.69949816,0.621240079,5.01060902,0.665052917,0.108833942,2.0568109,2026-02-15T09:32:56.427Z
1188.171753,2591.63602,0.910000026,4.13518715,1.41043007,9.32285213,-0.487148732,3.7109797,0.907878391,5.04365074,59.9856612,0.967491499,21,1771147976438592,-10.0150615,-3.00775902,-4.8042046,49.6995506,49.1841087,-0.344091634,1113,29,6.4839263,-1.33106184,-0.151948905,-0.735277448,4.7246249,0.639967799,5.14746722,0.661676379,0.109613143,2.01087452,2026-02-15T09:32:56.438Z
1188.181763,2591.64491,0.910000026,4.491395,0.934029162,8.88774967,-0.92225045,3.71234393,0.920214005,5.09809353,60.3194326,0.97071555,21,1771147976449086,-11.3260931,-3.24958357,-5.1966169,50.2035751,49.1841087,-0.344091612,1113,29,6.50604296,-1.36025047,-0.120693902,-0.628682217,4.7495204,0.658481836,5.29195314,0.658299842,0.110392344,1.9609211,2026-02-15T09:32:56.449Z
1188.191772,2591.65379,0.910000026,5.07315159,0.219778657,8.62506294,-1.18493748,3.71370792,0.932549619,5.15253633,60.653204,0.973939601,21,1771147976459579,-9.84258796,-2.99058343,-5.6720233,50.7074471,49.1841087,-0.34409159,1113,29,6.5281601,-1.38943923,-0.0895222532,-0.522934919,4.77446376,0.676990271,5.44804746,0.654923304,0.111171545,1.90663322,2026-02-15T09:32:56.459Z
1188.201782,2591.66268,0.910000026,5.53770542,-0.106432348,8.40446758,-1.40553308,3.71507192,0.944885233,5.20697912,60.9869754,0.977163653,21,1771147976470071,-5.76999462,-2.52535493,-6.04866651,51.2113228,49.1841087,-0.344091568,1113,29,6.55027676,-1.41862786,-0.061967203,-0.444928354,4.79946287,0.695498705,5.62375863,0.651546766,0.111950746,1.84808878,2026-02-15T09:32:56.470Z
1188.211792,2591.67156,0.910000026,5.64336729,0.0519662574,8.73628807,-1.07371223,3.71643591,0.957220847,5.26142192,61.3207468,0.980387704,21,1771147976480564,-0.537139985,-2.14566,-6.45486437,51.7151947,49.1841087,-0.344091546,1113,29,6.57239342,-1.44781649,-0.0386330617,-0.413397926,4.82451814,0.714007139,5.81468452,0.648170228,0.112729947,1.7856341,2026-02-15T09:32:56.480Z
1188.221802,2591.68045,0.910000026,5.43622398,-0.131267324,9.09741592,-0.712584198,3.7177999,0.969556461,5.31586471,61.6545181,0.983611755,21,1771147976491055,4.69522917,-2.07421145,-6.92640036,52.2190666,49.1841087,-0.344091524,1113,29,6.59451056,-1.47700524,-0.017554564,-0.434188216,4.84963003,0.732515633,6.00775648,0.644793691,0.113509148,1.71879124,2026-02-15T09:32:56.491Z
1188.231812,2591.68933,0.910000026,5.17807865,0.376265138,8.92071056,-0.889290154,3.71890354,0.981892075,5.3703075,61.9882895,0.986835807,21,1771147976501370,9.16186478,-2.35158571,-7.38944617,52.7938004,49.1841087,-0.344091495,1113,29,6.61662722,-1.50619388,0.00455418621,-0.503427834,4.87479886,0.769390583,6.19169966,0.641417153,0.114288349,1.64727958,2026-02-15T09:32:56.501Z
1188.241821,2591.69822,0.910000026,4.84620905,1.15410864,8.80807686,-1.00192308,3.71848249,0.994227689,5.4247503,62.3220609,0.990059858,21,1771147976510634,13.4093257,-2.81578524,-7.94690261,53.7835197,49.1841087,-0.344091422,1114,29,6.63874388,-1.53538263,0.0303680936,-0.616194322,4.900025,0.913821518,6.36477248,0.638040615,0.11506755,1.57066994,2026-02-15T09:32:56.510Z
1188.251831,2591.7071,0.910000026,4.43633175,2.07353282,8.89894581,-0.911054313,3.71802068,1.0065633,5.47919309,62.6558323,0.993283909,21,1771147976519871,15.9841695,-3.44087601,-8.50363025,54.7843246,49.1841087,-0.344091347,1114,29,6.66086054,-1.56457126,0.061623916,-0.763030858,4.92530878,1.06112587,6.52443265,0.634664078,0.115846751,1.48849482,2026-02-15T09:32:56.519Z
1188.261841,2591.71599,0.910000026,4.20105648,2.66370034,8.95165253,-0.85834831,3.71755886,1.01889892,5.53363588,62.9896037,0.996507961,21,1771147976529108,14.7623185,-3.95222071,-8.74154815,55.7851601,49.1841087,-0.344091273,1114,29,6.68297768,-1.59376001,0.0985558068,-0.91660726,4.9506505,1.20843816,6.6680092,0.63128754,0.116625952,1.40235191,2026-02-15T09:32:56.529Z
1188.271851,2591.72487,0.910000026,4.26807165,2.42129588,9.11357689,-0.696423054,3.71709704,1.03123453,5.58807868,63.323375,0.999732012,21,1771147976538345,10.2964018,-4.09992192,-8.89989279,56.7859955,49.1841087,-0.344091199,1114,29,6.70509434,-1.62294865,0.138777938,-1.0417569,4.97605046,1.3557502,6.80194289,0.627911002,0.117405153,1.31423,2026-02-15T09:32:56.538Z
1188.281738,2591.73376,0.910000026,4.71152925,1.78924859,9.37659454,-0.433405876,3.71663523,1.04357015,5.64252147,63.6571464,1.00295606,21,1771147976547582,6.29774039,-3.92814183,-9.12697334,57.7868233,49.1841087,-0.344091124,1114,29,6.727211,-1.6521374,0.179368957,-1.1256629,5.00150921,1.50306249,6.93893435,0.624534464,0.118184354,1.22308473,2026-02-15T09:32:56.547Z
1188.291748,2591.74265,0.910000026,5.18424749,1.30925429,9.71055222,-0.0994485915,3.71617341,1.05590576,5.69696427,63.9909178,1.00618011,21,1771147976556820,5.44648148,-3.74427128,-9.29799119,58.7877121,49.1841087,-0.34409105,1114,29,6.74932814,-1.68132603,0.217694489,-1.18433083,5.02702767,1.65038252,7.08901318,0.621157927,0.118963555,1.13105061,2026-02-15T09:32:56.556Z
1188.301758,2591.75164,0.910000026,5.18702984,1.09429455,9.77385998,-0.0361400582,3.71570611,1.06824137,5.75140706,64.3246892,1.00940417,21,1771147976566167,4.58302563,-3.65824772,-9.4539029,59.8004112,49.1841087,-0.344090975,1114,29,6.7714448,-1.71051466,0.254671392,-1.23443364,5.05290685,1.79944086,7.2548655,0.617781389,0.119742756,1.03738337,2026-02-15T09:32:56.566Z
1188.311768,2591.76052,0.910000026,4.96799707,0.893348098,9.5962429,-0.213757634,3.71524405,1.08057699,5.80584985,64.6584606,1.01262822,21,1771147976575407,3.95896045,-3.59809503,-9.58424387,60.801548,49.1841087,-0.3440909,1114,29,6.79356146,-1.73970342,0.290917997,-1.27710493,5.0785503,1.94679713,7.41942729,0.614404851,0.120521957,0.942286133,2026-02-15T09:32:56.575Z
1188.321777,2591.76941,0.910000026,4.48384476,0.889753759,9.3961277,-0.413872659,3.71478224,1.0929126,5.86029265,64.992232,1.01585227,21,1771147976584644,3.56779988,-3.3985889,-9.85410612,61.8023796,49.1841087,-0.344090826,1114,29,6.81567812,-1.76889205,0.325868256,-1.31470391,5.10424524,2.0941093,7.57473299,0.611028313,0.121301158,0.845190516,2026-02-15T09:32:56.584Z
1188.331787,2591.77829,0.910000026,3.72973752,1.01646078,9.23755932,-0.572441101,3.71432018,1.10524822,5.91473544,65.3260033,1.01907632,21,1771147976593882,2.72721585,-3.1160376,-10.1228358,62.803215,49.1841087,-0.344090752,1114,29,6.83779526,-1.7980808,0.358410986,-1.34615238,5.12999941,2.24143386,7.71134068,0.607651776,0.122080359,0.745404565,2026-02-15T09:32:56.593Z
1188.341797,2591.78718,0.910000026,2.74221683,0.755359828,9.30200577,-0.507994652,3.71332598,1.11758383,5.96917824,65.6597747,1.02230037,21,1771147976603922,1.17643874,-2.88969737,-10.2387899,63.807579,49.1841087,-0.34409064,1114,29,6.85991192,-1.82726943,0.388410598,-1.36565321,5.15581289,2.40972805,7.8197135,0.604275238,0.12285956,0.643695882,2026-02-15T09:32:56.603Z
1188.351807,2591.79606,0.910000026,1.83023274,0.158070713,9.42700863,-0.382991314,3.71124291,1.12991944,6.02362103,65.9935461,1.02552442,21,1771147976615605,-0.00799464626,-2.88701928,-10.42545,64.8191452,49.1841087,-0.344090454,1114,29,6.88202858,-1.85645819,0.41726599,-1.37148396,5.18168567,2.62096596,7.89172399,0.6008987,0.123638761,0.540474573,2026-02-15T09:32:56.615Z
1188.361816,2591.80495,0.910000026,1.36066425,-0.394177228,9.51213837,-0.297861665,3.70913243,1.14225506,6.07806382,66.3273175,1.02874847,21,1771147976627329,0.648384742,-3.23294067,-10.7515157,65.8309174,49.1841087,-0.344090265,1114,29,6.90414524,-1.88564682,0.447837624,-1.374686,5.20761765,2.83327961,7.93047419,0.597522163,0.124417962,0.434691459,2026-02-15T09:32:56.627Z
1188.371826,2591.81383,0.910000026,1.33648479,-0.465433657,9.64864731,-0.161353007,3.70702195,1.15459067,6.13250662,66.6610889,1.03197253,21,1771147976639055,3.29872688,-3.76043242,-11.0919629,66.8426743,49.1841087,-0.344090076,1114,29,6.92626238,-1.91483557,0.482772941,-1.39441522,5.23360874,3.04559493,7.95220835,0.594145625,0.125197164,0.325578966,2026-02-15T09:32:56.639Z
1188.381836,2591.82272,0.910000026,1.69404602,-0.111233406,9.68954563,-0.120454408,3.70491147,1.16692629,6.18694941,66.9948602,1.03519658,21,1771147976650779,6.59600888,-4.13554278,-11.4053516,67.8544388,49.1841087,-0.344089888,1114,29,6.94837904,-1.94402421,0.522216113,-1.44385663,5.2596588,3.25791025,7.9731154,0.590769087,0.125976365,0.213200618,2026-02-15T09:32:56.650Z
1188.391846,2591.8316,0.910000026,2.24366617,0.225947738,9.52430153,-0.285699219,3.70280099,1.1792619,6.2413922,67.3286316,1.03842063,21,1771147976662505,9.08974811,-4.17686404,-11.5792293,68.8661957,49.1841087,-0.344089699,1114,29,6.9704957,-1.97321284,0.563737784,-1.52222092,5.28576765,3.4702251,8.00693341,0.587392549,0.126755566,0.0983889986,2026-02-15T09:32:56.662Z
1188.401733,2591.84049,0.910000026,2.60121369,0.594696581,9.34724426,-0.462756306,3.70069051,1.19159751,6.295835,67.662403,1.04164468,21,1771147976674230,10.8181199,-3.73792724,-11.825606,69.8779678,49.1841087,-0.34408951,1114,29,6.99261284,-2.00240159,0.603754493,-1.62288334,5.31193541,3.68254018,8.06117041,0.584016012,0.127534767,-0.0199489241,2026-02-15T09:32:56.674Z
1188.411743,2591.84938,0.910000026,2.44921374,1.14061773,9.35350609,-0.456494659,3.69857979,1.20393313,6.35027779,67.9961744,1.04486873,21,1771147976685955,11.9202105,-2.99456862,-12.138566,70.8897858,49.1841087,-0.344089321,1114,29,7.0147295,-2.03159022,0.637387726,-1.7364587,5.33816267,3.89486837,8.12726285,0.580639474,0.128313968,-0.13965137,2026-02-15T09:32:56.685Z
1188.421753,2591.85837,0.910000026,1.99447048,1.8572377,9.59222221,-0.217778265,3.69645596,1.21626874,6.40472059,68.3299458,1.04809278,21,1771147976697817,11.8840062,-2.35779826,-12.3559355,71.9110489,49.1841087,-0.344089131,1114,29,7.03684616,-2.06077886,0.664126544,-1.85536377,5.36475784,4.1092639,8.18750097,0.577262936,0.129093169,-0.262003333,2026-02-15T09:32:56.697Z
1188.431763,2591.86725,0.910000026,1.55389965,2.13717127,9.7550106,-0.0549901836,3.69722152,1.22860436,6.45916338,68.6637171,1.05131683,21,1771147976708891,10.01444,-2.00158318,-12.3942064,72.3053055,49.1841087,-0.344088937,1114,29,7.05896282,-2.08996773,0.685903932,-1.96475818,5.39110793,4.21294355,8.23104757,0.573886398,0.12987237,-0.385633127,2026-02-15T09:32:56.708Z
1188.441772,2591.87614,0.910000026,1.13890862,1.79377854,9.64104176,-0.168958798,3.69873071,1.24093997,6.51360617,68.9974885,1.05454089,21,1771147976719792,6.08163157,-2.29372055,-12.5099418,72.5398178,49.1841087,-0.344088742,1114,29,7.08107996,-2.11915636,0.70735808,-2.04517918,5.41750753,4.28850842,8.25857628,0.570509861,0.130651571,-0.51003182,2026-02-15T09:32:56.719Z
1188.451782,2591.88502,0.910000026,1.17815101,1.48028314,9.6699152,-0.140085384,3.70025635,1.25327558,6.56804897,69.3312599,1.05776494,21,1771147976730689,4.86887038,-2.6709517,-12.5328985,72.7707291,49.1841087,-0.344088547,1114,29,7.10319662,-2.14834499,0.732155388,-2.09988418,5.44396417,4.36343956,8.27115251,0.567133323,0.131430772,-0.635123749,2026-02-15T09:32:56.730Z
1188.461792,2591.89391,0.910000026,1.29645133,1.37586546,9.43837547,-0.371624917,3.70178199,1.2656112,6.62249176,69.6650313,1.06098899,21,1771147976741587,4.33090359,-3.08021232,-12.610512,73.0016327,49.1841087,-0.344088352,1114,29,7.12531328,-2.17753363,0.760881157,-2.1458408,5.47047746,4.43837023,8.28527599,0.563756785,0.132209973,-0.760717772,2026-02-15T09:32:56.741Z
1188.471802,2591.90279,0.910000026,1.46234393,1.04813385,9.26324749,-0.546752572,3.70330739,1.27794681,6.67693455,69.9988027,1.06421304,21,1771147976752484,4.12647648,-3.15583484,-12.6884046,73.2325516,49.1841087,-0.344088157,1114,29,7.14743042,-2.2067225,0.792031264,-2.18808566,5.49704706,4.51330185,8.30378155,0.560380247,0.132989174,-0.887089246,2026-02-15T09:32:56.752Z
1188.481812,2591.91168,0.910000026,1.63026428,0.827987373,9.2659483,-0.544051707,3.70483327,1.29028243,6.73137735,70.3325741,1.06743709,21,1771147976763382,4.23128975,-2.93732555,-12.7361596,73.4634552,49.1841087,-0.344087963,1114,29,7.16954708,-2.23591113,0.822466277,-2.22983423,5.52367249,4.58823252,8.32833461,0.55700371,0.133768375,-1.01408828,2026-02-15T09:32:56.763Z
1188.491821,2591.92056,0.910000026,1.58742452,0.909756303,9.48768425,-0.322316527,3.70635891,1.30261804,6.78582014,70.6663454,1.07066114,21,1771147976774280,4.57275043,-2.47612121,-12.7204587,73.6943588,49.1841087,-0.344087768,1114,29,7.19166374,-2.26509976,0.849504858,-2.27381315,5.5503533,4.66316366,8.35894759,0.553627172,0.134547576,-1.14124711,2026-02-15T09:32:56.774Z
1188.501831,2591.92945,0.910000026,1.68887901,1.16823983,9.58863544,-0.221365169,3.70788455,1.31495365,6.84026294,71.0001168,1.07388519,21,1771147976785177,4.34651968,-2.13863511,-12.8234555,73.9252701,49.1841087,-0.344087573,1114,29,7.2137804,-2.2942884,0.872554495,-2.31836488,5.57708904,4.73809481,8.38798058,0.550250634,0.135326777,-1.26884258,2026-02-15T09:32:56.785Z
1188.511841,2591.93833,0.910000026,1.93272722,1.27884579,9.57866383,-0.231336504,3.70940995,1.32728927,6.89470573,71.3338882,1.07710924,21,1771147976796075,3.18920608,-1.82724658,-12.7783114,74.1561813,49.1841087,-0.344087378,1114,29,7.23589754,-2.32347703,0.892363051,-2.35600111,5.60387923,4.81302595,8.42063941,0.546874097,0.136105978,-1.3967263,2026-02-15T09:32:56.796Z
1188.521851,2591.94722,0.910000026,1.24580526,1.55679142,9.4036808,-0.406319678,3.70946598,1.33962488,6.94914852,71.6676596,1.0803333,21,1771147976805344,1.58117472,-1.46584866,-12.7734314,74.3621521,49.1841087,-0.344087206,1114,29,7.2580142,-2.3526659,0.908810715,-2.37982195,5.6307234,4.84845257,8.46200955,0.543497559,0.136885179,-1.52436035,2026-02-15T09:32:56.805Z
1188.531738,2591.95611,0.910000026,0.783657789,1.83567643,9.56146908,-0.248531774,3.70866227,1.3519605,7.00359132,72.001431,1.08355735,21,1771147976813665,-1.26117426,-1.3344605,-12.6840685,74.5535355,49.1841087,-0.344087048,1114,29,7.28013086,-2.38185453,0.922969451,-2.38144447,5.65762132,4.86078215,8.47863986,0.540121021,0.13766438,-1.65307614,2026-02-15T09:32:56.813Z
1188.541748,2591.96499,0.910000026,0.851816893,1.72372913,9.30744743,-0.502552867,3.70783305,1.36429611,7.05803411,72.3352023,1.0867814,21,1771147976821957,-4.92871525,-1.22033479,-12.4989871,74.7444992,49.1841087,-0.344086889,1114,29,7.30224752,-2.41104317,0.935731514,-2.35054295,5.68457333,4.87242413,8.47863867,0.536744483,0.138443581,-1.77886947,2026-02-15T09:32:56.821Z
1188.551758,2591.97398,0.910000026,0.661943614,1.88200188,9.3731432,-0.436856836,3.70699406,1.37663172,7.1124769,72.6689737,1.09000545,21,1771147976830348,-8.55381415,-1.06040134,-12.3704279,74.9377136,49.1841087,-0.344086729,1114,29,7.32436466,-2.4402318,0.947124858,-2.28321357,5.71189646,4.88420391,8.48136717,0.533367946,0.139222782,-1.90309585,2026-02-15T09:32:56.830Z
1188.561768,2591.98287,0.910000026,0.418417215,2.22870994,9.30093765,-0.509063065,3.7061646,1.38891916,7.16706136,73.0024559,1.09322802,21,1771147976838642,-13.9145717,-1.31273656,-12.2118553,75.1287384,49.1841087,-0.344086571,1114,29,7.34646177,-2.46938443,0.958977738,-2.17100722,5.7389602,4.89584875,8.47751442,0.529998503,0.140002245,-2.02588812,2026-02-15T09:32:56.838Z
1188.571777,2591.99175,0.910000026,0.0136832679,2.89048028,9.33533001,-0.474669963,3.70533562,1.3823233,7.27717274,73.222588,1.09587167,21,1771147976846934,-21.1280685,-1.22520926,-11.9301172,75.3196869,49.1841087,-0.344086413,1114,29,7.36087894,-2.48439264,0.971655516,-1.996,5.76606725,4.90749073,8.46521774,0.529410209,0.140884687,-2.14648159,2026-02-15T09:32:56.846Z
1188.581787,2592.00064,0.910000026,-0.0995291844,2.8223896,9.62116432,-0.188836455,3.7045064,1.37572744,7.38728413,73.44272,1.09851532,21,1771147976855226,-30.5378574,-1.33502276,-11.5695392,75.510643,49.1841087,-0.344086255,1114,29,7.37529564,-2.49940085,0.984443651,-1.73796824,5.7932252,4.91913176,8.43874815,0.528821914,0.141767129,-2.26386699,2026-02-15T09:32:56.855Z
1188.591797,2592.00952,0.910000026,0.235548854,2.47359967,9.41418934,-0.395811498,3.70367694,1.36913158,7.49739552,73.6628521,1.10115896,21,1771147976863517,-41.4167358,-1.2939592,-11.1045597,75.7015915,49.1841087,-0.344086097,1114,29,7.38971281,-2.51440907,0.997575779,-1.37855749,5.82043355,4.93077421,8.4087317,0.52823362,0.14264957,-2.37712736,2026-02-15T09:32:56.863Z
1188.601807,2592.01841,0.910000026,0.0545789301,2.01630616,9.20344734,-0.606553197,3.70284796,1.36253571,7.6075069,73.8829841,1.10380261,21,1771147976871809,-51.1477641,-1.01822118,-10.6461516,75.8925476,49.1841087,-0.344085939,1114,29,7.40412951,-2.52941728,1.00912406,-0.916139097,5.84769178,4.94241571,8.39134546,0.527645325,0.143532012,-2.48577258,2026-02-15T09:32:56.871Z
1188.611816,2592.02729,0.910000026,0.268515378,1.0718013,9.77714729,-0.0328533091,3.70201874,1.35593985,7.71761829,74.1031161,1.10644625,21,1771147976880100,-59.6252189,-0.456966787,-9.97226687,76.0834961,49.1841087,-0.34408578,1114,29,7.41854668,-2.54442549,1.01649007,-0.362773314,5.87499934,4.95405722,8.36789667,0.527057031,0.144414454,-2.58876081,2026-02-15T09:32:56.880Z
1188.621826,2592.03618,0.910000026,0.0765125155,-0.22769776,9.84655762,0.0365570672,3.70118976,1.34934399,7.82772968,74.3232482,1.1090899,21,1771147976888392,-65.2184006,0.342758249,-9.31785641,76.2744522,49.1841087,-0.344085622,1114,29,7.43296337,-2.5594337,1.01705666,0.260862881,5.9023557,4.96569872,8.35264912,0.526468736,0.145296895,-2.68511416,2026-02-15T09:32:56.888Z
1188.631836,2592.04507,0.910000026,-0.825081408,-2.90354061,9.68522263,-0.124777414,3.70036054,1.34274812,7.93784107,74.5433802,1.11173354,21,1771147976896684,-65.6285458,2.00404697,-8.57957146,76.465416,49.1841087,-0.344085464,1114,29,7.44738054,-2.57444191,1.00532601,0.914461155,5.92976035,4.9773407,8.33092188,0.525880442,0.146179337,-2.77451041,2026-02-15T09:32:56.896Z
1188.641846,2592.05395,0.910000026,-1.74020362,-4.36181927,10.0205765,0.210575819,3.69965076,1.33615226,8.04795245,74.7635122,1.11437719,21,1771147976903781,-58.6386832,2.59045398,-8.265882,76.478241,49.1841087,-0.344085322,1114,29,7.46179724,-2.58945012,0.982373124,1.535157,5.95721277,5.00567961,8.27725987,0.525292148,0.147061779,-2.85865401,2026-02-15T09:32:56.903Z
1188.651733,2592.06284,0.910000026,-1.75232172,-5.4321022,10.0651293,0.25512892,3.69902587,1.3295564,8.15806384,74.9836443,1.11702083,21,1771147976910031,-46.5915474,2.93457989,-8.05344088,76.3644943,49.1841087,-0.344085192,1114,29,7.47621441,-2.60445833,0.954436724,2.06717282,5.98471272,5.04588175,8.1904525,0.524703853,0.14794422,-2.94116536,2026-02-15T09:32:56.910Z
1188.661743,2592.07172,0.910000026,-2.00413942,-5.46196413,10.9160547,1.10605407,3.6984036,1.32296053,8.26817523,75.2037763,1.11966448,21,1771147976916255,-31.7786849,3.11651877,-7.79962523,76.2470093,49.1841087,-0.344085062,1114,29,7.49063158,-2.61946654,0.924211645,2.45871319,6.01226075,5.0864377,8.10540234,0.524115559,0.148826662,-3.02035459,2026-02-15T09:32:56.916Z
1188.671753,2592.08071,0.910000026,-1.97180212,-4.92056227,10.4319277,0.621926904,3.69777393,1.31636467,8.37828661,75.4239084,1.12230813,21,1771147976922552,-16.3048459,2.92768448,-7.59035167,76.1281433,49.1841087,-0.344084931,1114,29,7.50504827,-2.63447475,0.894019179,2.69897123,6.04018033,5.12747049,8.01241034,0.523527264,0.149709104,-3.09723041,2026-02-15T09:32:56.922Z
1188.681763,2592.0896,0.910000026,-2.4689455,-4.22879028,10.23876,0.428759336,3.69715118,1.30976881,8.488398,75.6440404,1.12495177,21,1771147976928778,-2.37190171,3.23447042,-7.32157536,76.0106277,49.1841087,-0.344084801,1114,29,7.51946545,-2.64948297,0.863239938,2.79233149,6.06782761,5.16803598,7.92180798,0.52293897,0.150591545,-3.17171861,2026-02-15T09:32:56.928Z
1188.691772,2592.09848,0.910000026,-2.33561897,-3.00375724,10.8462229,1.03622258,3.69652891,1.30317294,8.59850939,75.8641724,1.12759542,21,1771147976935001,9.14186152,4.0140839,-7.0037413,75.8931503,49.1841087,-0.344084671,1114,29,7.53388214,-2.66449118,0.827036305,2.75857074,6.09551189,5.2085886,7.814485,0.522350675,0.151473987,-3.24327685,2026-02-15T09:32:56.935Z
1188.701782,2592.10737,0.910000026,-1.64294851,-1.29023385,10.5605927,0.750592411,3.6959064,1.29657708,8.70862077,76.0843045,1.13023906,21,1771147976941224,16.1306727,5.16034892,-6.43308367,75.7756729,49.1841087,-0.344084541,1114,29,7.54829931,-2.67949939,0.781214472,2.63236541,6.12324099,5.24914169,7.71328622,0.521762381,0.152356429,-3.3103982,2026-02-15T09:32:56.941Z
1188.711792,2592.11625,0.910000026,-1.07187915,0.433235288,10.6720734,0.862072766,3.69528413,1.28998122,8.81873216,76.3044365,1.13288271,21,1771147976947448,18.6415524,6.42045887,-5.72322132,75.6581955,49.1841087,-0.344084412,1114,29,7.56271601,-2.6945076,0.723373071,2.45868616,6.15101446,5.28969479,7.63829178,0.521174086,0.15323887,-3.37112389,2026-02-15T09:32:56.947Z
1188.721802,2592.12514,0.910000026,-1.05540109,0.949764729,10.9657593,1.15575886,3.69466162,1.28338535,8.92884355,76.5245686,1.13552635,21,1771147976953672,16.1109492,7.61690187,-4.89949156,75.5407181,49.1841087,-0.344084282,1114,29,7.57713318,-2.70951581,0.65325014,2.28510291,6.17883189,5.3302474,7.58488337,0.520585792,0.154121312,-3.42418247,2026-02-15T09:32:56.953Z
1188.731812,2592.13402,0.910000026,-1.05983126,1.47144735,11.32897,1.51896989,3.69403934,1.27678949,9.03895494,76.7447006,1.13817,21,1771147976959895,12.045747,8.4013963,-4.11396267,75.4232407,49.1841087,-0.344084152,1114,29,7.59155035,-2.72452402,0.57323297,2.14447659,6.2066928,5.3708005,7.5328792,0.519997498,0.155003754,-3.46920195,2026-02-15T09:32:56.959Z
1188.741821,2592.14291,0.910000026,-0.851813376,1.47378063,11.3519583,1.54195762,3.69341707,1.27019363,9.14906632,76.9648326,1.14081364,21,1771147976966119,7.29968317,8.55171034,-3.47485165,75.3057709,49.1841087,-0.344084022,1114,29,7.60596704,-2.73953223,0.488549416,2.04786688,6.23459676,5.41135311,7.48151358,0.519409203,0.155886195,-3.5071059,2026-02-15T09:32:56.966Z
1188.751831,2592.1518,0.910000026,-0.322104484,1.92476881,10.8677492,1.05774844,3.6927948,1.26359776,9.25917771,77.1849647,1.14345729,21,1771147976972343,2.92141955,8.39091853,-2.74837647,75.1882935,49.1841087,-0.344083892,1114,29,7.62038422,-2.75454044,0.403919707,1.99683245,6.26254338,5.4519062,7.43842119,0.518820909,0.156768637,-3.53818815,2026-02-15T09:32:56.972Z
1188.761841,2592.16068,0.910000026,0.533924103,1.43311012,10.6627064,0.852706194,3.69217229,1.2570019,9.3692891,77.4050967,1.14610094,21,1771147976978566,-0.72684874,8.12832284,-2.18660176,75.070816,49.1841087,-0.344083762,1114,29,7.63480091,-2.76954865,0.321405357,1.98588794,6.29053225,5.4924593,7.41508936,0.518232614,0.157651079,-3.56283626,2026-02-15T09:32:56.978Z
1188.771851,2592.16957,0.910000026,1.86348653,1.07597029,10.436017,0.626016498,3.69155002,1.25040604,9.47940048,77.6252287,1.14874458,21,1771147976984790,-2.26137267,7.95581224,-1.87361559,74.9533386,49.1841087,-0.344083632,1114,29,7.64921808,-2.78455687,0.24106397,2.00082179,6.318563,5.53301144,7.42305713,0.51764432,0.15853352,-3.58311604,2026-02-15T09:32:56.984Z
1188.781738,2592.17845,0.910000026,2.7594533,1.35851717,10.2781353,0.468134522,3.69092774,1.24381017,9.58951187,77.8453608,1.15138823,21,1771147976991014,-2.21966046,8.01623221,-1.66731173,74.8358612,49.1841087,-0.344083503,1114,29,7.66363478,-2.79956508,0.160307982,2.02347855,6.34663546,5.57356501,7.47990278,0.517056025,0.159415962,-3.60101958,2026-02-15T09:32:56.991Z
1188.791748,2592.18734,0.910000026,2.86337638,1.74889708,9.8704195,0.0604187734,3.69030833,1.23721431,9.69962326,78.0654928,1.15403187,21,1771147976997259,-3.35341639,8.29769806,-1.40417135,74.7195435,49.1841087,-0.344083372,1114,29,7.67805195,-2.81457329,0.0788192895,2.05131137,6.37475034,5.61382771,7.56782155,0.516467731,0.160298403,-3.61636328,2026-02-15T09:32:56.997Z
1188.801758,2592.19633,0.910000026,3.22670794,2.59077525,9.80905628,-0.000943888794,3.69037461,1.23061845,9.80973465,78.2856249,1.15667552,21,1771147977008385,-6.7004196,8.16010949,-1.14126574,74.8605728,49.1841087,-0.344083163,1114,29,7.69246912,-2.8295815,-0.00339011187,2.10151541,6.40323826,5.58973503,7.65887141,0.515879437,0.161180845,-3.62907933,2026-02-15T09:32:57.008Z
1188.811768,2592.20521,0.910000026,4.00860786,3.29911542,9.74446011,-0.0655404627,3.69104958,1.22402258,9.91984603,78.5057569,1.15931916,21,1771147977023613,-13.5333176,7.41135338,-0.878647168,75.2275848,49.1841087,-0.344082889,1114,29,7.70688581,-2.84458971,-0.0811750723,2.20255242,6.43144191,5.50888586,7.76234886,0.515291142,0.162063287,-3.63917031,2026-02-15T09:32:57.023Z
1188.821777,2592.2141,0.910000026,5.16321707,2.94623446,10.233923,0.4239223,3.69173932,1.21742672,10.0299574,78.7258889,1.16196281,21,1771147977038938,-27.6419338,5.47593967,-0.638864295,75.6000214,49.1841087,-0.344082612,1114,29,7.72130299,-2.85959792,-0.145558097,2.40815907,6.4596773,5.42667866,7.89318242,0.514702848,0.162945728,-3.64675164,2026-02-15T09:32:57.038Z
1188.831787,2592.22298,0.910000026,7.11415577,1.66877747,9.80859089,-0.00140984345,3.69242883,1.21083086,10.1400688,78.946021,1.16460645,21,1771147977054264,-32.5575698,4.40518854,-0.572166874,75.9724503,49.1841087,-0.344082336,1114,29,7.73571968,-2.87460613,-0.194920757,2.70883897,6.4879526,5.3444705,8.0644887,0.514114553,0.16382817,-3.65280121,2026-02-15T09:32:57.054Z
1188.841797,2592.23187,0.910000026,7.34633589,1.46024764,9.2905283,-0.519471943,3.69311857,1.20423499,10.2501802,79.166153,1.1672501,21,1771147977069590,-34.4159965,3.64659537,-0.766038018,76.3448792,49.1841087,-0.34408206,1114,29,7.75013685,-2.88961434,-0.235141181,3.04337818,6.51626755,5.26226234,8.30459478,0.513526259,0.164710612,-3.65948551,2026-02-15T09:32:57.069Z
1188.851807,2592.24076,0.910000026,7.14807177,1.53420568,9.19163609,-0.618364394,3.69380808,1.19763913,10.3602916,79.3862851,1.16989375,21,1771147977084916,-34.7534208,3.35438831,-0.783789469,76.7173157,49.1841087,-0.344081783,1114,29,7.76455355,-2.90462255,-0.270110526,3.38888949,6.54462192,5.18005514,8.55093902,0.512937964,0.165593053,-3.66722717,2026-02-15T09:32:57.084Z
1188.861816,2592.24964,0.910000026,6.63668299,1.10567045,9.01231766,-0.797682822,3.69449782,1.19104327,10.470403,79.6064171,1.17253739,21,1771147977100242,-35.323179,3.30175905,-0.823510931,77.0897446,49.1841087,-0.344081507,1114,29,7.77897072,-2.91963077,-0.303358541,3.73893343,6.57301544,5.09784651,8.78797496,0.51234967,0.166475495,-3.67525603,2026-02-15T09:32:57.100Z
1188.871826,2592.25853,0.910000026,6.38994884,0.98654294,9.16762447,-0.642375529,3.69518733,1.1844474,10.5805144,79.8265491,1.17518104,21,1771147977115567,-35.1707815,2.87961829,-0.970256676,77.4621735,49.1841087,-0.344081231,1114,29,7.79338789,-2.93463898,-0.334233217,4.0910586,6.6014479,5.01563883,9.00453451,0.511761376,0.167357937,-3.68421683,2026-02-15T09:32:57.115Z
1188.881836,2592.26741,0.910000026,6.61512327,0.492567718,9.22515011,-0.584850669,3.69587731,1.17785154,10.6906257,80.0466812,1.17782468,21,1771147977130893,-34.6159158,1.98039673,-1.03715485,77.83461,49.1841087,-0.344080954,1114,29,7.80780458,-2.94964719,-0.358505212,4.43964897,6.6299191,4.93343115,9.21034085,0.511173081,0.168240378,-3.69424442,2026-02-15T09:32:57.130Z
1188.891846,2592.2763,0.910000026,6.72791624,0.311145812,9.07607651,-0.733923554,3.69656682,1.17125568,10.8007371,80.2668132,1.18046833,21,1771147977146219,-34.1934137,0.683944187,-0.975681187,78.2070389,49.1841087,-0.344080678,1114,29,7.82222176,-2.9646554,-0.371807633,4.78335792,6.65842885,4.85122299,9.42247389,0.510584787,0.16912282,-3.70429847,2026-02-15T09:32:57.146Z
1188.901733,2592.28518,0.910000026,6.38240576,0.157684416,8.8921814,-0.917819262,3.69725633,1.16465981,10.9108485,80.4869452,1.18311197,21,1771147977161545,-34.417088,-0.823484839,-0.820202035,78.5794678,49.1841087,-0.344080402,1115,29,7.83663845,-2.97966361,-0.371096926,5.13025939,6.6869772,4.76901484,9.63936133,0.509996492,0.170005262,-3.7133782,2026-02-15T09:32:57.161Z
1188.911743,2592.29407,0.910000026,5.77038813,0.291532099,8.468256,-1.34174395,3.69794631,1.15806395,11.0209599,80.7070773,1.18575562,21,1771147977176872,-36.0608303,-1.99143131,-0.468087696,78.9519196,49.1841087,-0.344080125,1115,29,7.85105562,-2.99467182,-0.357041744,5.48229729,6.71556524,4.68680191,9.83943178,0.509408198,0.170887703,-3.71981506,2026-02-15T09:32:57.176Z
1188.921753,2592.30309,0.910000026,5.09894085,-0.263440967,8.13372421,-1.67627597,3.69865012,1.15146809,11.1310713,80.9272093,1.18839926,21,1771147977192368,-38.557917,-2.61596359,0.0066523078,79.3278427,49.1841087,-0.344079846,1115,29,7.86547232,-3.00968003,-0.334030282,5.85501491,6.74452884,4.60422659,10.0157798,0.508819903,0.171770145,-3.72212228,2026-02-15T09:32:57.192Z
1188.931763,2592.32048,0.910000026,4.544837,-1.34918594,7.82556677,-1.98443377,3.70085478,1.14487222,11.2411827,81.1473414,1.19104291,21,1771147977204761,-40.2216167,-2.8429862,0.507963732,79.4688187,49.1841087,-0.34407958,1115,29,7.87988949,-3.02468824,-0.306763285,6.24852016,6.77320034,4.67370749,10.1665026,0.508231609,0.172652587,-3.71955415,2026-02-15T09:32:57.204Z
1188.941772,2592.34637,0.910000026,3.97318387,-2.89195395,7.69159698,-2.11840367,3.7045722,1.13827636,11.3512941,81.3674734,1.19368656,21,1771147977214218,-39.5130529,-2.32860574,0.979108197,79.3784714,49.1841087,-0.344079325,1115,29,7.89430666,-3.03969646,-0.280928045,6.64680791,6.80190115,4.89469624,10.2960783,0.507643314,0.173535028,-3.71212833,2026-02-15T09:32:57.214Z
1188.951782,2592.37246,0.910000026,3.68345118,-4.00038958,8.02052784,-1.78947222,3.70832634,1.1316805,11.4614055,81.5876054,1.1963302,21,1771147977223604,-34.3910714,-2.228419,1.3825297,79.2824783,49.1841087,-0.344079071,1115,29,7.90872335,-3.05470467,-0.258164657,7.01599292,6.83063979,5.11938095,10.4040766,0.50705502,0.17441747,-3.70033363,2026-02-15T09:32:57.223Z
1188.961792,2592.39855,0.910000026,3.73000479,-4.73425198,7.46722174,-2.34277868,3.71208072,1.12508463,11.5715168,81.8077375,1.19897385,21,1771147977232989,-26.1139542,-2.74761668,1.71601643,79.1865005,49.1841087,-0.344078816,1115,29,7.92314053,-3.06971288,-0.233311283,7.31826326,6.85941618,5.34406614,10.500851,0.506466726,0.175299912,-3.68485764,2026-02-15T09:32:57.232Z
1188.971802,2592.42465,0.910000026,3.78792238,-4.4141984,8.06708527,-1.74291551,3.71583462,1.11848877,11.6816282,82.0278695,1.20161749,21,1771147977242374,-6.23835892,-4.41972375,1.91391806,79.0905075,49.1841087,-0.344078562,1115,29,7.93755722,-3.08472109,-0.197503111,7.47979055,6.88823031,5.56875038,10.5986212,0.505878431,0.176182353,-3.66672491,2026-02-15T09:32:57.242Z
1188.981812,2592.45074,0.910000026,3.52282524,-2.92111945,7.75131607,-2.05868435,3.71958876,1.11189291,11.7917396,82.2480016,1.20426114,21,1771147977251759,1.08445662,-5.64030496,2.43052317,78.9945145,49.1841087,-0.344078307,1115,29,7.95197439,-3.0997293,-0.147246101,7.50549937,6.91708213,5.7934351,10.6977856,0.505290137,0.177064795,-3.64502138,2026-02-15T09:32:57.251Z
1188.991821,2592.47683,0.910000026,3.3166337,-2.14066839,7.83399916,-1.9760015,3.7233429,1.10529704,11.901851,82.4681336,1.20690478,21,1771147977261145,5.29788366,-6.30318192,3.16484586,78.8985291,49.1841087,-0.344078053,1115,29,7.96639109,-3.11473751,-0.0875837161,7.47359838,6.94597162,6.01812029,10.7867135,0.504701842,0.177947237,-3.61706825,2026-02-15T09:32:57.261Z
1189.001831,2592.50292,0.910000026,2.96429873,-0.620360315,8.17158985,-1.63841069,3.72709703,1.09870118,12.0119624,82.6882656,1.20954843,21,1771147977270530,7.85645383,-6.27782641,3.9777416,78.802536,49.1841087,-0.344077798,1115,29,7.98080826,-3.12974572,-0.0247401872,7.4078785,6.97489879,6.242805,10.8676259,0.504113548,0.178829678,-3.58138621,2026-02-15T09:32:57.270Z
1189.011841,2592.52901,0.910000026,2.64127493,-0.205597684,8.57406235,-1.23593843,3.73085141,1.09210532,12.1220738,82.9083977,1.21219207,21,1771147977279916,7.63945742,-6.40135247,4.99037077,78.7065506,49.1841087,-0.344077544,1115,29,7.99522543,-3.14475393,0.0385944612,7.33047568,7.00386363,6.46748972,10.9353473,0.503525253,0.17971212,-3.53658449,2026-02-15T09:32:57.279Z
1189.021851,2592.55511,0.910000026,2.33890796,-0.426359862,8.67810535,-1.13189542,3.73460531,1.08550945,12.2321852,83.1285297,1.21483572,21,1771147977289301,5.2133176,-5.88946143,6.34186796,78.6105576,49.1841087,-0.344077289,1115,29,8.0096426,-3.15976214,0.0999860727,7.26628633,7.0328662,6.69217491,10.991064,0.502936959,0.180594561,-3.47997203,2026-02-15T09:32:57.289Z
1189.031738,2592.5812,0.910000026,2.21044588,-1.18793428,9.42243099,-0.387569904,3.73832798,1.07891359,12.3422966,83.3486618,1.21747937,21,1771147977298697,3.07343953,-5.51890242,7.79903217,78.5172653,49.1841087,-0.344077034,1115,29,8.0240593,-3.17477036,0.15766833,7.22438543,7.06190672,6.91654253,11.0361567,0.502348665,0.181477003,-3.40847624,2026-02-15T09:32:57.298Z
1189.041748,2592.60729,0.910000026,2.30542874,-1.5193634,8.95325756,-0.856743157,3.73633909,1.07231773,12.4524079,83.5687938,1.22012301,21,1771147977310024,2.93623519,-5.16614309,9.04772617,78.9142303,49.1841087,-0.344076689,1115,29,8.03847599,-3.18977857,0.211043126,7.19436571,7.0909864,7.08332968,11.0759481,0.50176037,0.182359445,-3.32433067,2026-02-15T09:32:57.310Z
1189.051758,2592.63369,0.910000026,2.46904254,-1.20297086,9.07385826,-0.736142397,3.73317099,1.06572186,12.5625193,83.7889258,1.22276666,21,1771147977321877,2.67104323,-4.4881045,9.95794731,79.4150925,49.1841087,-0.344076322,1115,29,8.05289268,-3.20478678,0.25927054,7.16635549,7.12044754,7.24042988,11.1190463,0.501172076,0.183241886,-3.22939943,2026-02-15T09:32:57.321Z
1189.061768,2592.65979,0.910000026,2.72395205,-1.19293046,8.96121693,-0.848783791,3.73000431,1.059126,12.6726307,84.0090579,1.2254103,21,1771147977333604,-0.468570649,-3.39782881,10.7797819,79.913208,49.1841087,-0.344075958,1115,29,8.06731033,-3.21979499,0.298667033,7.15533868,7.14961074,7.3953867,11.1678893,0.500583781,0.184124328,-3.12581593,2026-02-15T09:32:57.333Z
1189.071777,2592.68589,0.910000026,2.50276709,-1.9448005,8.779109,-1.03089178,3.72683859,1.05253014,12.7827421,84.2291899,1.22805395,21,1771147977345330,-5.76148022,-2.40785422,11.7904776,80.4111786,49.1841087,-0.344075595,1115,29,8.08172703,-3.2348032,0.327671941,7.18643278,7.17880327,7.55029678,11.2257204,0.499995487,0.18500677,-3.01307965,2026-02-15T09:32:57.345Z
1189.081787,2592.71198,0.910000026,2.28464007,-2.99573803,8.92548943,-0.884510577,3.72367287,1.04593427,12.8928535,84.4493219,1.23069759,21,1771147977357055,-8.86936611,-1.36315746,12.5565361,80.9091568,49.1841087,-0.344075232,1115,29,8.09614372,-3.24981141,0.346513695,7.25950048,7.20803399,7.70520687,11.2753103,0.499407192,0.185889211,-2.89146708,2026-02-15T09:32:57.357Z
1189.091797,2592.73807,0.910000026,2.00317025,-3.22414112,9.17282009,-0.637180209,3.72050714,1.03933841,13.0029649,84.669454,1.23334124,21,1771147977368779,-8.62454072,-0.572473769,12.9139102,81.4071274,49.1841087,-0.344074868,1115,29,8.11056137,-3.26481962,0.356183225,7.34688493,7.23730303,7.86011648,11.3168501,0.498818898,0.186771653,-2.76423946,2026-02-15T09:32:57.368Z
1189.101807,2592.76416,0.910000026,1.47315073,-3.43528533,9.04112148,-0.768878698,3.71734118,1.03274255,13.1130763,84.889586,1.23598488,21,1771147977380505,-5.99635733,-0.190272663,13.3053702,81.905098,49.1841087,-0.344074505,1115,29,8.12497807,-3.27982783,0.359991375,7.41990528,7.26661053,8.01502705,11.3481382,0.498230604,0.187654095,-2.63326905,2026-02-15T09:32:57.380Z
1189.111816,2592.79025,0.910000026,1.23279655,-3.25731087,8.94494534,-0.865055382,3.71417546,1.02614668,13.2231876,85.1097181,1.23862853,21,1771147977392229,-2.68140957,-0.0327598723,13.7018153,82.4030609,49.1841087,-0.344074141,1115,29,8.13939476,-3.29483604,0.361104686,7.46323564,7.2959566,8.16993618,11.3603444,0.497642309,0.188536536,-2.49836294,2026-02-15T09:32:57.392Z
1189.121826,2592.81635,0.910000026,1.17033732,-1.84139597,8.91710854,-0.892891705,3.71183896,1.01955082,13.333299,85.3298501,1.24127218,21,1771147977403197,0.315964696,0.101421864,13.8937002,82.9443359,49.1841087,-0.344073796,1115,29,8.15381145,-3.30984426,0.36076106,7.47503678,7.32534138,8.28424931,11.3640776,0.497054015,0.189418978,-2.36051904,2026-02-15T09:32:57.403Z
1189.131836,2592.84244,0.910000026,1.43439233,-0.511500478,8.83179188,-0.97820878,3.71113276,1.01295496,13.4434104,85.5499821,1.24391582,21,1771147977412679,0.916174326,0.0616741668,13.9585026,83.5706863,49.1841087,-0.344073485,1115,29,8.1682291,-3.32485247,0.359946574,7.46887927,7.35476504,8.31877136,11.3658207,0.49646572,0.19030142,-2.22139359,2026-02-15T09:32:57.412Z
1189.141846,2592.86853,0.910000026,2.06918144,0.763639629,8.47808838,-1.33191192,3.71047187,1.0063591,13.5535218,85.7701142,1.24655947,21,1771147977422119,-1.80530067,0.473108858,14.1850073,84.1994095,49.1841087,-0.344073176,1115,29,8.1826458,-3.33986068,0.357273259,7.47333386,7.38422772,8.35106277,11.3773369,0.495877426,0.191183861,-2.08081222,2026-02-15T09:32:57.422Z
1189.151733,2592.89462,0.910000026,2.27128696,2.663239,8.29006386,-1.5199368,3.70981073,0.999763232,13.6636332,85.9902462,1.24920311,21,1771147977431558,-15.0205775,1.39219679,14.8068937,84.8281403,49.1841087,-0.344072867,1115,29,8.19706249,-3.35486889,0.34783905,7.55845026,7.41372982,8.3833456,11.4123296,0.495289131,0.192066303,-1.93422432,2026-02-15T09:32:57.431Z
1189.161743,2592.92072,0.910000026,0.856549978,0.474436104,8.44534969,-1.36465085,3.70915008,0.993167368,13.7737446,86.2103783,1.25184676,21,1771147977440998,-24.8516519,2.12836057,15.3600293,85.4569168,49.1841087,-0.344072557,1115,29,8.21148014,-3.3698771,0.330257026,7.75756901,7.44327279,8.41563034,11.4541189,0.494700837,0.192948745,-1.78353955,2026-02-15T09:32:57.440Z
1189.171753,2592.94712,0.910000026,0.327331603,-2.26319885,8.63672924,-1.17327082,3.70848155,0.986571505,13.883856,86.4305103,1.2544904,21,1771147977450549,-26.0365941,2.16852757,15.5325251,86.0931015,49.1841087,-0.344072244,1115,29,8.22589684,-3.38488531,0.308793744,8.01175591,7.47320402,8.44829464,11.4448735,0.494112542,0.193831186,-1.62922833,2026-02-15T09:32:57.450Z
1189.181763,2592.97322,0.910000026,0.47871086,-4.33101749,8.39085197,-1.41914856,3.70782089,0.979975642,13.9939674,86.6506423,1.25713405,21,1771147977459991,-17.9769578,2.09946177,14.9883764,86.722023,49.1841087,-0.344071934,1115,29,8.24031353,-3.39989352,0.287474291,8.23164786,7.50283385,8.48058796,11.4169621,0.493524248,0.194713628,-1.47677008,2026-02-15T09:32:57.459Z
1189.191772,2592.99931,0.910000026,0.508729458,-2.5679605,8.60691071,-1.20308959,3.70716,0.973379779,14.1040787,86.8707744,1.25977769,21,1771147977469431,-3.71307245,1.73221896,14.0971854,87.3507538,49.1841087,-0.344071625,1115,29,8.25473022,-3.41490173,0.268332793,8.34006158,7.5324947,8.51287079,11.3950743,0.492935954,0.19559607,-1.33147981,2026-02-15T09:32:57.469Z
1189.201782,2593.0254,0.910000026,0.794172943,-2.85870576,8.85107899,-0.958921492,3.7064991,0.966783915,14.2141901,87.0909064,1.26242134,21,1771147977478871,6.89422448,1.4342716,13.643072,87.9794922,49.1841087,-0.344071315,1115,29,8.26914787,-3.42990994,0.252514336,8.32422299,7.56219563,8.54515362,11.3747721,0.492347659,0.196478511,-1.19291163,2026-02-15T09:32:57.478Z
1189.211792,2593.05149,0.910000026,1.06332016,-2.00360823,8.81569481,-0.994305491,3.70583844,0.960188052,14.3243015,87.3110384,1.26506499,21,1771147977488310,14.9561435,1.15649965,13.209807,88.6082306,49.1841087,-0.344071006,1115,29,8.28356457,-3.44491816,0.239571763,8.21511706,7.59193681,8.57743645,11.365236,0.491759365,0.197360953,-1.05877612,2026-02-15T09:32:57.488Z
1189.221802,2593.07759,0.910000026,1.54972756,-2.71135831,8.66921329,-1.14078701,3.70517755,0.953592189,14.4344129,87.5311705,1.26770863,21,1771147977497749,22.7131598,1.23649173,12.7066176,89.2369614,49.1841087,-0.344070697,1115,29,8.29798126,-3.45992637,0.227618171,8.02692445,7.62171846,8.60971928,11.3657801,0.49117107,0.198243395,-0.929322349,2026-02-15T09:32:57.497Z
1189.231812,2593.10368,0.910000026,1.9002434,-2.63050675,8.78833199,-1.02166796,3.70520473,0.946996326,14.5445243,87.7513025,1.27035228,21,1771147977506912,31.8983958,1.61583614,12.0740438,89.4812927,49.1841087,-0.34407038,1115,29,8.31239891,-3.47493458,0.213368596,7.75408833,7.65154071,8.64779091,11.3841118,0.490582776,0.199125836,-0.805543005,2026-02-15T09:32:57.506Z
1189.241821,2593.12977,0.910000026,1.6071074,-2.65908146,9.42662716,-0.383372873,3.70547056,0.940482372,14.6538356,87.9707776,1.27300229,21,1771147977515977,42.2815665,2.33347692,11.4800647,89.5921707,49.1841087,-0.344070062,1115,29,8.32666492,-3.48971701,0.193637802,7.38349989,7.68140373,8.68787193,11.4151645,0.489974692,0.200007443,-0.687890247,2026-02-15T09:32:57.515Z
1189.251831,2593.15586,0.910000026,0.322496206,-2.98334146,9.51963997,-0.290360212,3.7057426,0.942618357,14.6786524,88.1208741,1.2763251,21,1771147977525040,53.1876988,2.92560092,10.9556271,89.6997147,49.1841087,-0.344069743,1115,29,8.32501507,-3.48066926,0.167365198,6.90656636,7.71130769,8.7280035,11.4356628,0.487276823,0.200800934,-0.575823772,2026-02-15T09:32:57.525Z
1189.261841,2593.18195,0.910000026,-1.80740595,-2.46939254,9.17334938,-0.636651158,3.70601439,0.944754342,14.7034691,88.2709705,1.2796479,21,1771147977534102,65.2219699,3.42703384,10.3825148,89.8072586,49.1841087,-0.344069424,1115,29,8.32336521,-3.47162127,0.135630588,6.31503732,7.74125274,8.76813507,11.4100543,0.484578954,0.201594425,-0.469239928,2026-02-15T09:32:57.534Z
1189.271851,2593.20805,0.910000026,-2.9844451,-1.54219353,9.42937851,-0.380621761,3.70628619,0.946890326,14.7282859,88.421067,1.2829707,21,1771147977543165,76.0321576,3.79962795,9.62160717,89.9147949,49.1841087,-0.344069105,1115,29,8.32171535,-3.46257353,0.0995307373,5.60940356,7.77123903,8.80826569,11.3083993,0.481881085,0.202387916,-0.369320584,2026-02-15T09:32:57.543Z
1189.281738,2593.23414,0.910000026,-2.9846077,-0.573379099,9.7034626,-0.106537387,3.70655799,0.949026311,14.7531027,88.5711635,1.28629351,21,1771147977552229,83.4654258,3.91482867,9.00319285,90.0223312,49.1841087,-0.344068787,1115,29,8.3200655,-3.45352554,0.0605257174,4.80297633,7.80126691,8.84839821,11.1639928,0.479183216,0.203181407,-0.275150985,2026-02-15T09:32:57.552Z
1189.291748,2593.26023,0.910000026,-2.32042789,-0.249938324,9.48009586,-0.329904169,3.70683002,0.951162296,14.7779195,88.72126,1.28961631,21,1771147977561293,87.5562728,3.86958175,8.42014165,90.1298752,49.1841087,-0.344068468,1115,29,8.31841469,-3.4444778,0.0216414178,3.94872189,7.83133765,8.88853264,11.0230324,0.476485347,0.203974898,-0.188116486,2026-02-15T09:32:57.561Z
1189.301758,2593.28663,0.910000026,-1.549366,-0.489533067,9.61733341,-0.192667112,3.70710516,0.953298281,14.8027363,88.8713564,1.29293912,21,1771147977570464,91.0666775,3.85905027,7.83545702,90.2386932,49.1841087,-0.344068146,1115,29,8.31676483,-3.43543005,-0.0169640891,3.05649542,7.86180532,8.92913818,10.9076642,0.473787478,0.204768389,-0.10691496,2026-02-15T09:32:57.570Z
1189.311768,2593.31273,0.910000026,-0.943177402,-0.210919023,9.56353951,-0.246461064,3.7073772,0.955434265,14.8275531,89.0214529,1.29626192,21,1771147977579529,95.9594191,3.74424085,7.13452272,90.3462601,49.1841087,-0.344067827,1115,29,8.31511497,-3.42638206,-0.0549440136,2.12230098,7.89196733,8.96928215,10.8214902,0.471089609,0.20556188,-0.0321346863,2026-02-15T09:32:57.579Z
1189.321777,2593.33882,0.910000026,-0.632672608,-0.0788948536,9.24405861,-0.56594193,3.70764899,0.95757025,14.8523699,89.1715494,1.29958472,21,1771147977588592,102.001309,3.66469264,6.35217909,90.4537964,49.1841087,-0.344067508,1115,29,8.31346512,-3.41733432,-0.0919529331,1.13349238,7.9221621,9.00941372,10.7582905,0.46839174,0.206355371,0.0352368382,2026-02-15T09:32:57.588Z
1189.331787,2593.36492,0.910000026,-0.700281084,0.613041639,9.5672493,-0.24275136,3.70791984,0.959706235,14.8771867,89.3216459,1.30290753,21,1771147977597656,108.102806,4.0025135,5.55764248,90.5613556,49.1841087,-0.344067189,1115,29,8.31181526,-3.40828657,-0.130249917,0.0840264363,7.95239873,9.04953861,10.7072045,0.465693871,0.207148861,0.0947317172,2026-02-15T09:32:57.597Z
1189.341797,2593.39101,0.910000026,-1.05209601,1.83045685,9.37661171,-0.43338874,3.70623493,0.96184222,14.9020035,89.4717423,1.30623033,21,1771147977608624,113.369434,4.42307487,4.18369237,90.7092743,49.1841087,-0.344066806,1115,29,8.31016541,-3.39923859,-0.172336325,-1.02224898,7.98267729,9.07846832,10.6545047,0.462996002,0.207942352,0.14339229,2026-02-15T09:32:57.608Z
1189.351807,2593.4171,0.910000026,-1.62280166,5.25944948,10.0096083,0.199607641,3.70379043,0.963978204,14.9268203,89.6218388,1.30955314,21,1771147977620332,108.514921,4.38061778,3.44307575,90.8728561,49.1841087,-0.344066398,1115,29,8.30851555,-3.39019084,-0.216311635,-2.13056469,8.01299782,9.10305405,10.589974,0.460298133,0.208735843,0.181485319,2026-02-15T09:32:57.620Z
1189.361816,2593.44319,0.910000026,-2.13871264,7.19372463,9.94021225,0.130212292,3.70132828,0.966114189,14.951637,89.7719353,1.31287594,21,1771147977632056,95.4216433,4.06911022,3.2044573,91.0368118,49.1841087,-0.344065989,1115,29,8.30686569,-3.38114285,-0.258517538,-3.14918889,8.04336028,9.12753582,10.5058656,0.457600264,0.209529334,0.214689403,2026-02-15T09:32:57.632Z
1189.371826,2593.46929,0.910000026,-3.0612905,6.96198559,10.1043301,0.294329315,3.69886589,0.968250174,14.9764538,89.9220318,1.31619874,21,1771147977643782,76.4222237,3.83644683,3.0384665,91.2007675,49.1841087,-0.34406558,1115,29,8.30521584,-3.37209511,-0.298005631,-4.00747759,8.07376467,9.15201759,10.404346,0.454902395,0.210322825,0.245872765,2026-02-15T09:32:57.643Z
1189.381836,2593.49538,0.910000026,-3.48797798,6.61989021,10.3140087,0.504008114,3.69640374,0.970386159,15.0012706,90.0721283,1.31952155,21,1771147977655506,55.8687729,3.57057282,2.70004836,91.3647156,49.1841087,-0.344065171,1115,29,8.30356598,-3.36304736,-0.335003308,-4.6681876,8.10421092,9.17649937,10.2709641,0.452204526,0.211116316,0.274535701,2026-02-15T09:32:57.655Z
1189.391846,2593.52147,0.910000026,-3.32256627,6.16424227,10.4833298,0.673329055,3.69394159,0.972522143,15.0260874,90.2222247,1.32284435,21,1771147977667231,36.106867,2.89081037,2.55411678,91.5286713,49.1841087,-0.344064762,1115,29,8.30191612,-3.35399938,-0.3672754,-5.1275216,8.13469898,9.20098114,10.1238731,0.449506657,0.211909807,0.300780199,2026-02-15T09:32:57.667Z
1189.401733,2593.54756,0.910000026,-2.18253493,4.83946848,11.2689943,1.45899379,3.69147921,0.974658128,15.0509042,90.3723212,1.32616716,21,1771147977678957,19.0486955,1.88391049,2.39705514,91.692627,49.1841087,-0.344064354,1115,29,8.30026627,-3.34495163,-0.391413462,-5.40633359,8.16522895,9.22546196,9.98305684,0.446808788,0.212703298,0.325813362,2026-02-15T09:32:57.678Z
1189.411743,2593.57366,0.910000026,-0.772633016,3.7866497,11.2054663,1.39546573,3.68901849,0.976794113,15.075721,90.5224177,1.32948996,21,1771147977690679,5.67477855,1.07031877,2.0015109,91.8564835,49.1841087,-0.344063945,1115,29,8.29861641,-3.33590364,-0.406174157,-5.52989525,8.19580202,9.24982452,9.88635096,0.444110919,0.213496789,0.347786652,2026-02-15T09:32:57.690Z
1189.421753,2593.60006,0.910000026,-0.6137923,3.02853394,10.7594261,0.949425638,3.68684101,0.978930098,15.1005378,90.6725142,1.33281276,21,1771147977701938,-1.48091208,0.891298161,1.72250133,91.9998856,49.1841087,-0.34406356,1115,29,8.29696655,-3.3268559,-0.41597355,-5.55087884,8.22677735,9.2503233,9.84166791,0.44141305,0.21429028,0.366389896,2026-02-15T09:32:57.701Z
1189.431763,2593.62616,0.910000026,-1.23764098,1.32792497,11.173111,1.36311066,3.68583798,0.981066082,15.1253546,90.8226106,1.33613557,21,1771147977710852,-6.37695056,0.977559787,1.40889466,92.0593567,49.1841087,-0.344063282,1115,29,8.2953167,-3.31780815,-0.425308304,-5.51165173,8.25744085,9.16196918,9.80348098,0.438715181,0.21508377,0.382033116,2026-02-15T09:32:57.710Z
1189.441772,2593.65225,0.910000026,-1.75625789,0.142268538,11.8412666,2.03126669,3.68486357,0.983202067,15.1501714,90.9727071,1.33945837,21,1771147977719710,-6.55787951,1.04086593,0.922616997,92.1167297,49.1841087,-0.344063008,1115,29,8.29366589,-3.30876017,-0.435390277,-5.44704167,8.28813608,9.07141399,9.74354143,0.436017312,0.215877261,0.393681665,2026-02-15T09:32:57.719Z
1189.451782,2593.67834,0.910000026,-1.18154609,-0.273300558,11.8570776,2.04707694,3.68388939,0.985338052,15.1749882,91.1228036,1.34278117,21,1771147977728567,-1.35867307,1.00921432,0.520622286,92.174118,49.1841087,-0.344062733,1115,29,8.29201603,-3.29971242,-0.445630835,-5.40747224,8.31887195,8.98085785,9.66581678,0.433319443,0.216670752,0.400892778,2026-02-15T09:32:57.728Z
1189.461792,2593.70443,0.910000026,0.0673756823,-0.405995905,11.7481346,1.93813431,3.68291497,0.987474037,15.1998049,91.2729001,1.34610398,21,1771147977737425,6.68927059,1.26713899,0.0641018859,92.2314987,49.1841087,-0.344062459,1115,29,8.29036617,-3.29066467,-0.45700024,-5.43405998,8.34964816,8.8903017,9.60982161,0.430621573,0.217464243,0.403815772,2026-02-15T09:32:57.737Z
1189.471802,2593.73052,0.910000026,0.985231519,0.660624206,11.5922565,1.78225589,3.68194079,0.989610021,15.2246217,91.4229965,1.34942678,21,1771147977746282,14.8939515,1.94034588,-0.62818165,92.2888794,49.1841087,-0.344062184,1115,29,8.28871632,-3.28161669,-0.473024608,-5.54190236,8.38046438,8.79974651,9.59965188,0.427923704,0.218257734,0.400995462,2026-02-15T09:32:57.746Z
1189.481812,2593.75662,0.910000026,1.92673922,2.02532101,11.7243738,1.91437364,3.68096662,0.991746006,15.2494385,91.573093,1.35274959,21,1771147977755138,18.8625362,2.70663056,-0.95213967,92.3462601,49.1841087,-0.34406191,1115,29,8.28706646,-3.27256894,-0.496240554,-5.71053943,8.4113202,8.70919132,9.6229056,0.425225835,0.219051225,0.39309999,2026-02-15T09:32:57.755Z
1189.491821,2593.78271,0.910000026,3.02708554,2.90682435,11.8019285,1.99192858,3.6799922,0.993881991,15.2742553,91.7231895,1.35607239,21,1771147977763996,16.9038345,2.71473197,-0.873577833,92.4036484,49.1841087,-0.344061635,1115,29,8.2854166,-3.26352096,-0.523320947,-5.88918718,8.44221521,8.61863518,9.68009645,0.422527966,0.219844716,0.383980698,2026-02-15T09:32:57.763Z
1189.501831,2593.8088,0.910000026,3.92423248,3.32839203,11.6642408,1.85424089,3.67901802,0.996017976,15.2990721,91.873286,1.35939519,21,1771147977772853,10.8032196,1.9798919,-0.652124711,92.4610291,49.1841087,-0.344061361,1115,29,8.28376675,-3.25447321,-0.546767581,-6.02755759,8.47314896,8.52807999,9.77659836,0.419830097,0.220638207,0.376360705,2026-02-15T09:32:57.772Z
1189.511841,2593.83489,0.910000026,4.78972101,3.24061656,11.5087061,1.69870555,3.6780436,0.99815396,15.3238889,92.0233824,1.362718,21,1771147977781710,2.57546545,0.961940421,-0.330335651,92.5184097,49.1841087,-0.344061086,1115,29,8.28211689,-3.24542546,-0.561457454,-6.09434585,8.50412099,8.43752384,9.90471101,0.417132228,0.221431698,0.371454758,2026-02-15T09:32:57.781Z
1189.521851,2593.86099,0.910000026,5.6364212,2.27810097,11.3160982,1.50609744,3.67706943,1.00028995,15.3487057,92.1734789,1.3660408,21,1771147977790568,-5.57802506,-0.0795484713,-0.116506212,92.575798,49.1841087,-0.344060812,1115,29,8.28046703,-3.23637748,-0.565860076,-6.07930831,8.53513078,8.34696865,10.0629804,0.414434359,0.222225188,0.369223756,2026-02-15T09:32:57.790Z
1189.531738,2593.88708,0.910000026,6.26745272,0.981972337,11.0697784,1.25977826,3.67612505,1.00242593,15.3735225,92.3235754,1.36936361,21,1771147977799438,-10.8100829,-0.662086023,-0.0756836756,92.6298141,49.1841087,-0.344060537,1115,29,8.27881718,-3.22732973,-0.562110756,-5.99645335,8.56617801,8.25654793,10.2528345,0.41173649,0.223018679,0.368252067,2026-02-15T09:32:57.799Z
1189.541748,2593.91317,0.910000026,6.47650671,-0.788630962,10.8814363,1.07143593,3.68065882,1.00456191,15.3983393,92.4736719,1.37268641,21,1771147977810848,-11.6207322,-0.597648997,-0.17076144,92.0722122,49.1841087,-0.344060202,1115,29,8.27716732,-3.21828175,-0.555817935,-5.88441289,8.59726337,8.19067287,10.4613869,0.409038621,0.22381217,0.367021497,2026-02-15T09:32:57.810Z
1189.551758,2593.93957,0.910000026,6.36791563,-3.08593392,10.87078,1.06077993,3.68584919,1.0066979,15.4231561,92.6237683,1.37600921,21,1771147977822672,-6.17629088,-0.0762710494,-0.406046019,91.4406586,49.1841087,-0.344059857,1115,29,8.27551746,-3.209234,-0.552449104,-5.79548848,8.62875207,8.1267252,10.6756963,0.406340752,0.224605661,0.364141401,2026-02-15T09:32:57.822Z
1189.561768,2593.96567,0.910000026,6.54711628,-4.70098257,11.0861969,1.2761966,3.69099498,1.00883388,15.4479728,92.7738648,1.37933202,21,1771147977834365,6.98889549,0.6534181,-0.981219884,90.8146896,49.1841087,-0.344059515,1115,29,8.27386761,-3.20018625,-0.555328479,-5.79948378,8.65991717,8.06357288,10.8842636,0.403642883,0.225399152,0.357214622,2026-02-15T09:32:57.834Z
1189.571777,2593.99176,0.910000026,7.46981668,-4.86024332,10.9833994,1.17339921,3.6961391,1.01096987,15.4727896,92.9239613,1.38265482,21,1771147977846057,25.5947042,1.25874219,-1.88038736,90.1889114,49.1841087,-0.344059174,1115,29,8.27221775,-3.19113827,-0.564877006,-5.96215237,8.69110781,8.00043869,11.0974775,0.400945014,0.226192643,0.342924917,2026-02-15T09:32:57.846Z
1189.581787,2594.01786,0.910000026,8.32661915,-3.39048719,10.2908506,0.48085022,3.70128345,1.01310585,15.4976064,93.0740578,1.38597763,21,1771147977857749,44.8258121,1.6422015,-2.78271723,89.5631332,49.1841087,-0.344058832,1115,29,8.27056789,-3.18209052,-0.579365705,-6.31381771,8.72233268,7.93730497,11.3420603,0.398247145,0.226986134,0.319636538,2026-02-15T09:32:57.857Z
1189.591797,2594.04395,0.910000026,8.22275448,-1.03544486,9.56855297,-0.241447806,3.70642757,1.01524184,15.5224232,93.2241543,1.38930043,21,1771147977869440,59.7155335,1.9625391,-3.58211605,88.9373627,49.1841087,-0.344058491,1115,29,8.26891804,-3.17304277,-0.597371494,-6.83599913,8.75359112,7.87417078,11.6153581,0.395549276,0.227779625,0.287844244,2026-02-15T09:32:57.869Z
1189.601807,2594.07004,0.910000026,7.32134867,1.56487036,8.57519627,-1.2348038,3.71157193,1.01737782,15.54724,93.3742507,1.39262323,21,1771147977881132,67.1987559,1.97409344,-4.14255272,88.3115845,49.1841087,-0.344058149,1116,29,8.26726723,-3.16399479,-0.617035508,-7.46998793,8.78488247,7.81103706,11.8824987,0.392851407,0.228573116,0.249255851,2026-02-15T09:32:57.881Z
1189.611816,2594.09613,0.910000026,6.11042643,4.14925766,7.65650225,-2.15349793,3.71671605,1.01951381,15.5720568,93.5243472,1.39594604,21,1771147977892823,66.6641096,1.69951348,-4.55273607,87.6858063,49.1841087,-0.344057808,1116,29,8.26561737,-3.15494704,-0.635384283,-8.13864656,8.81620597,7.74790382,12.1148642,0.390153538,0.229366607,0.20581983,2026-02-15T09:32:57.892Z
1189.621826,2594.12222,0.910000026,4.82880068,6.2681613,7.05348158,-2.75651884,3.72028971,1.02164979,15.5968736,93.6744437,1.39926884,21,1771147977902447,59.03767,1.25230689,-4.90056798,87.3696365,49.1841087,-0.344057499,1116,29,8.26396751,-3.14589906,-0.650126811,-8.76650509,8.84756092,7.77131891,12.3016707,0.387455669,0.230160097,0.158597736,2026-02-15T09:32:57.902Z
1189.631836,2594.14832,0.910000026,3.63727188,7.54391193,6.69886351,-3.11113691,3.72135663,1.02378578,15.6216904,93.8245402,1.40259164,21,1771147977908768,45.5298858,0.300323372,-5.1381394,87.5477982,49.1841087,-0.344057244,1116,29,8.26231766,-3.13685131,-0.657877759,-9.28876714,8.87894656,7.9329257,12.4408307,0.3847578,0.230953588,0.10845202,2026-02-15T09:32:57.908Z
