T,D,PDOP,acc_x,acc_y,acc_z,acc_z_,altitude,amp_pitch,amp_roll,cadence,d_stroke,gpsTimeAccuracyNs,gpstimeUs,gyro_x,gyro_y,gyro_z,heading,latitude,longitude,motif_id,nSat,pic_acc,pic_down,pitch,roll,speed,speed_gps,speed_i,t_acc,t_down,yaw,time
1128.947021,2058.95737,0.949999988,-0.0814894885,0.620208204,9.38004208,-0.429958135,2.36328745,1.01738554,6.81327661,43.4384304,1.05868893,21,1771147753911812,-8.71378122,-0.324584022,2.11192924,105.499123,49.1842766,-0.344075192,840,29.8812294,7.41745043,-1.29626441,-0.266279083,-2.66438176,4.21896156,0.416771919,2.79840527,1.29979951,0.179294166,2.84208534,2026-02-15T09:29:13.911Z
1128.957031,2058.96277,0.949999988,-0.0333626568,0.812232912,9.54420757,-0.265792996,2.3629458,1.02235953,6.84184512,43.5991305,1.06197172,21,1771147753917507,-7.44004247,-0.27527046,2.0142211,106.46283,49.1842766,-0.344075187,840,29.824276,7.44289398,-1.30591059,-0.263282974,-2.58369765,4.2447013,0.428458452,2.80966621,1.28921569,0.178863429,2.86269549,2026-02-15T09:29:13.917Z
1128.967041,2058.96816,0.949999988,0.148244277,1.22338724,9.66987038,-0.140129969,2.36260414,1.02733352,6.87041364,43.7598306,1.06525451,21,1771147753923201,-6.48394493,-0.365030381,1.98547239,107.426544,49.1842766,-0.344075182,840,29.7673244,7.46833754,-1.31555688,-0.260084153,-2.51415024,4.27048374,0.440144986,2.82280266,1.27863187,0.178432692,2.88267431,2026-02-15T09:29:13.923Z
1128.976929,2058.97356,0.949999988,0.254430711,1.59790301,9.60380173,-0.20619826,2.36226249,1.03230751,6.89898215,43.9205307,1.06853729,21,1771147753928896,-6.6696277,-0.596567083,1.95711285,108.390251,49.1842766,-0.344075177,840,29.7103729,7.49378061,-1.32520306,-0.255223127,-2.44764585,4.29630893,0.451831579,2.84285898,1.26804805,0.178001955,2.90260851,2026-02-15T09:29:13.928Z
1128.986938,2058.97895,0.949999988,0.339040607,1.93039739,9.48264599,-0.327354044,2.3619206,1.0372815,6.92755066,44.0812309,1.07182008,21,1771147753934592,-7.74232857,-0.733761524,1.95190784,109.353958,49.1842766,-0.344075172,840,29.6534195,7.51922417,-1.33484936,-0.248578644,-2.37566154,4.32217683,0.463518143,2.86652689,1.25746422,0.177571218,2.92213457,2026-02-15T09:29:13.934Z
1128.996948,2058.98435,0.949999988,0.423247486,2.19212413,9.60190487,-0.208095968,2.3615787,1.0422555,6.95611917,44.241931,1.07510287,21,1771147753940287,-9.30415309,-0.708386477,1.97019154,110.317688,49.1842766,-0.344075167,840,29.596468,7.54466772,-1.34449553,-0.241374817,-2.29051984,4.34808815,0.475205004,2.89325978,1.2468804,0.177140482,2.94172584,2026-02-15T09:29:13.940Z
1129.006958,2058.98978,0.949999988,0.261180371,2.44502234,9.78911591,-0.0208842941,2.36123466,1.04722949,6.98468769,44.4026311,1.07838566,21,1771147753946024,-11.2151469,-0.636209611,2.03461856,111.288216,49.1842766,-0.344075162,840,29.5391121,7.57011127,-1.35414171,-0.234658043,-2.1880327,4.37422539,0.48697418,2.92302166,1.23629658,0.176709745,2.96173005,2026-02-15T09:29:13.946Z
1129.016968,2058.9952,0.949999988,0.532740295,1.96567547,9.84431267,0.0343126692,2.36089134,1.05220348,7.0132562,44.5633312,1.08166845,21,1771147753951747,-13.7030628,-0.655865526,2.16857031,112.256844,49.1842766,-0.344075157,840,29.4818707,7.59555435,-1.36378801,-0.228204069,-2.06357532,4.40035517,0.498720467,2.9469033,1.22571276,0.176279008,2.98272484,2026-02-15T09:29:13.951Z
1129.026978,2059.0006,0.949999988,0.621125996,1.07653224,10.1139154,0.303914845,2.36054969,1.05717747,7.04182471,44.7240313,1.08495124,21,1771147753957443,-15.0931636,-0.492852089,2.27996062,113.220551,49.1842766,-0.344075152,840,29.4249172,7.62099791,-1.37343419,-0.222465289,-1.91974144,4.42639515,0.510407031,2.98058056,1.21512894,0.175848271,3.00494525,2026-02-15T09:29:13.957Z
1129.036987,2059.00599,0.949999988,0.859652996,3.05279136,9.72728729,-0.0827133954,2.3602078,1.06215146,7.07039322,44.8847314,1.08823403,21,1771147753963138,-15.7936844,-0.440904508,1.95355428,114.184258,49.1842766,-0.344075146,840,29.3679657,7.64644146,-1.38308048,-0.217801136,-1.76545685,4.45247819,0.522093534,3.01736041,1.20454512,0.175417534,3.0260917,2026-02-15T09:29:13.963Z
1129.046997,2059.01139,0.949999988,0.674236894,3.14921117,9.9075613,0.097560972,2.35986614,1.06712545,7.09896174,45.0454316,1.09151681,21,1771147753968833,-16.9422582,-0.371527048,1.50764161,115.147972,49.1842766,-0.344075141,840,29.3110123,7.67188501,-1.39272666,-0.21374328,-1.60193123,4.47860434,0.533780038,3.06261489,1.1939613,0.174986797,3.04337862,2026-02-15T09:29:13.968Z
1129.057007,2059.01678,0.949999988,0.658848047,1.86150575,9.69406033,-0.11594034,2.35952449,1.07209944,7.12753025,45.2061317,1.0947996,21,1771147753974529,-20.132905,-0.229973561,1.33254445,116.111671,49.1842766,-0.344075136,840,29.2540607,7.69732857,-1.40237284,-0.2107394,-1.41672072,4.50477365,0.545466661,3.10100983,1.18337748,0.17455606,3.05756485,2026-02-15T09:29:13.974Z
1129.067017,2059.02218,0.949999988,0.849698424,2.34021568,9.12219524,-0.687805235,2.3591826,1.07707343,7.15609876,45.3668318,1.09808239,21,1771147753980224,-21.9477927,0.0916347274,1.59374485,117.075386,49.1842766,-0.344075131,840,29.1971092,7.72277164,-1.41201913,-0.210049946,-1.20651373,4.53098619,0.557153165,3.13872917,1.17279366,0.174125323,3.0721833,2026-02-15T09:29:13.980Z
1129.077026,2059.02757,0.949999988,0.551546633,-0.556380332,9.58339882,-0.226601526,2.35884118,1.08204742,7.18466727,45.5275319,1.10136518,21,1771147753985919,-20.8781505,0.0657808191,1.85085902,118.039093,49.1842766,-0.344075126,840,29.1401577,7.7482152,-1.42166531,-0.210836119,-0.992598203,4.55724201,0.568839788,3.18319743,1.16220984,0.173694587,3.08939076,2026-02-15T09:29:13.985Z
1129.087036,2059.03297,0.949999988,0.767090321,-2.03617096,9.81449413,0.00449325051,2.35849929,1.08702141,7.21323579,45.688232,1.10464797,21,1771147753991614,-14.9128636,-0.120767189,1.3838367,119.0028,49.1842766,-0.344075121,840,29.0832062,7.77365875,-1.43131161,-0.210560546,-0.813846774,4.58354116,0.580526292,3.21676083,1.15162602,0.17326385,3.10554617,2026-02-15T09:29:13.991Z
1129.096924,2059.03836,0.949999988,0.885218561,-0.641899526,9.60547543,-0.204525471,2.35815597,1.0919954,7.2418043,45.8489322,1.10793076,21,1771147753997331,-7.49849089,-0.261934832,0.647059748,119.953743,49.1842766,-0.344075116,840,29.0266323,7.79910231,-1.44095778,-0.208625532,-0.700540398,4.60988374,0.592212319,3.25853057,1.1410422,0.172833113,3.11581381,2026-02-15T09:29:13.997Z
1129.106934,2059.04376,0.949999988,0.987918913,-0.180077761,9.9388237,0.128823578,2.35754395,1.09696939,7.27037281,46.0096323,1.11121355,21,1771147754006947,-2.76728832,-0.755159956,0.323745387,118.673973,49.1842766,-0.344075096,840,29.0364895,7.82454538,-1.45060396,-0.203547416,-0.649238586,4.63626967,0.603800595,3.30386428,1.13045838,0.172402376,3.12066467,2026-02-15T09:29:14.006Z
1129.116943,2059.04915,0.949999988,0.998837173,-0.41575402,9.95270634,0.142705783,2.35672092,1.10194338,7.29894132,46.1703324,1.11449634,21,1771147754019615,-0.887526483,-0.963003945,0.155864055,115.646141,49.1842766,-0.344075064,840,29.098402,7.84998894,-1.46025026,-0.19496596,-0.630973374,4.66269907,0.615312397,3.3527056,1.11987456,0.171971639,3.12306119,2026-02-15T09:29:14.019Z
1129.126953,2059.05455,0.949999988,1.35664845,-0.766249716,9.62936115,-0.180638865,2.35588956,1.10691737,7.32750984,46.3310325,1.11777912,21,1771147754032402,4.65396347,-1.82557528,-0.171479101,112.550247,49.1842766,-0.344075031,840,29.1623421,7.87543249,-1.46989644,-0.181040854,-0.649760333,4.68917248,0.626821339,3.40170358,1.10929074,0.171540902,3.12298477,2026-02-15T09:29:14.032Z
1129.136963,2059.05998,0.949999988,2.55013657,-1.29789209,9.65726089,-0.15273948,2.35505271,1.11189136,7.35607835,46.4917326,1.12106191,21,1771147754045281,11.22008,-2.55249547,-0.885207702,109.432518,49.1842766,-0.344074999,840,29.2267323,7.90087605,-1.47954261,-0.159175397,-0.729021154,4.71587654,0.638411522,3.4633159,1.09870692,0.171110165,3.11770996,2026-02-15T09:29:14.045Z
1129.146973,2059.0654,0.949999988,3.69940829,0.15081577,9.50611687,-0.303883195,2.35421705,1.11686535,7.38464686,46.6524328,1.1243447,21,1771147754058133,15.0536584,-2.89906502,-1.64319376,106.320854,49.1842766,-0.344074966,840,29.2909946,7.92631912,-1.48918891,-0.131945877,-0.860242985,4.74257267,0.649979234,3.56750504,1.0881231,0.170679428,3.10508398,2026-02-15T09:29:14.058Z
1129.156982,2059.0708,0.949999988,4.31163168,1.87788165,9.60172462,-0.208275348,2.35338593,1.12183934,7.41321537,46.8131329,1.12762749,21,1771147754070921,15.4964083,-3.02413284,-2.05917695,103.225014,49.1842766,-0.344074934,840,29.3549328,7.95176268,-1.49883509,-0.10235921,-1.01284277,4.76917658,0.661487937,3.7122757,1.07753928,0.170248692,3.08659161,2026-02-15T09:29:14.070Z
1129.166992,2059.07619,0.949999988,4.23223257,3.41866899,10.1591492,0.349149108,2.3525548,1.12681333,7.44178389,46.973833,1.13091028,21,1771147754083708,11.5323466,-2.57896239,-2.36639444,100.129181,49.1842766,-0.344074901,840,29.418869,7.97720623,-1.50848138,-0.0743732381,-1.14783536,4.795824,0.6729967,3.8779017,1.06695546,0.169817955,3.06448384,2026-02-15T09:29:14.083Z
1129.177002,2059.08159,0.949999988,4.75512838,0.890321136,10.9019527,1.09195268,2.35172343,1.13178732,7.4703524,47.1345331,1.13419307,21,1771147754096496,5.18546265,-2.31955342,-2.39021897,97.0333481,49.1842766,-0.344074869,840,29.4828091,8.00264931,-1.51812756,-0.0499058148,-1.23131194,4.82251486,0.684505463,4.0392837,1.05637164,0.169387218,3.04072387,2026-02-15T09:29:14.096Z
1129.187012,2059.08698,0.949999988,4.21583462,-1.44657278,12.2176104,2.40761042,2.35089231,1.13676131,7.49892091,47.2952332,1.13747586,21,1771147754109283,1.03166269,-2.09624672,-3.07132545,93.9375229,49.1842766,-0.344074837,840,29.5467453,8.02809334,-1.52777374,-0.0278494386,-1.26234711,4.84924912,0.696014225,4.21812595,1.04578782,0.168956481,3.01343946,2026-02-15T09:29:14.109Z
1129.197021,2059.09237,0.949999988,5.00974131,5.35941839,12.7907238,2.98072362,2.35006118,1.1417353,7.52748942,47.4559334,1.14075864,21,1771147754122071,-2.0250517,-2.57939305,-4.50489213,90.8416901,49.1842766,-0.344074804,840,29.6106834,8.05353642,-1.53742003,-0.00449168424,-1.25737022,4.87602671,0.707522988,4.37605306,1.035204,0.168525744,2.97558836,2026-02-15T09:29:14.122Z
1129.207031,2059.09777,0.949999988,4.26550627,2.02849483,13.3006248,3.49062443,2.34923005,1.1467093,7.55605794,47.6166335,1.14404143,21,1771147754134858,-8.63978268,-3.02711332,-5.30634913,87.7458572,49.1842766,-0.344074772,840,29.6746197,8.07898045,-1.54706621,0.0235156636,-1.20406593,4.90284758,0.719031751,4.56122255,1.02462018,0.168095007,2.92657616,2026-02-15T09:29:14.134Z
1129.217041,2059.10316,0.949999988,3.55877376,-0.245425016,11.6065254,1.79652512,2.34839869,1.15168329,7.58462645,47.7773336,1.14732422,21,1771147754147646,-17.3561948,-3.69030549,-5.20499841,84.6500168,49.1842766,-0.344074739,840,29.7385578,8.10442352,-1.55671251,0.0570732029,-1.07417066,4.92971164,0.730540574,4.71804403,1.01403636,0.16766427,2.87407123,2026-02-15T09:29:14.147Z
1129.226929,2059.10856,0.949999988,4.1697197,0.751345217,8.68606949,-1.12393069,2.34756756,1.15665728,7.61319496,47.9380337,1.15060701,21,1771147754160433,-20.8185393,-3.74830727,-4.70873481,81.5541916,49.1842766,-0.344074707,840,29.802496,8.1298666,-1.56635869,0.0946835952,-0.881165612,4.95661881,0.742049277,4.84984687,1.00345254,0.167233533,2.82394462,2026-02-15T09:29:14.160Z
1129.236938,2059.11395,0.949999988,3.41445398,-6.98548365,8.75453949,-1.05546069,2.34673643,1.16163127,7.64176347,48.0987338,1.1538898,21,1771147754173221,-20.116398,-3.64901573,-5.0169951,78.4583664,49.1842766,-0.344074675,840,29.8664322,8.15531063,-1.57600486,0.131634589,-0.67668758,4.98356892,0.753558099,5.00090477,0.992868717,0.166802797,2.77536484,2026-02-15T09:29:14.173Z
1129.246948,2059.11935,0.949999273,3.5794034,-1.9729681,7.92438078,-1.88561964,2.34590673,1.16660526,7.67033198,48.2594339,1.15717259,21,1771147754186008,-10.5472435,-3.13112097,-6.97269991,75.3658447,49.1842766,-0.344074642,840,29.9303322,8.18075371,-1.58565116,0.165504716,-0.523472468,5.01056254,0.765131295,5.12352713,0.982284896,0.16637206,2.71548436,2026-02-15T09:29:14.186Z
1129.256958,2059.12478,0.949773729,3.49325037,1.64692438,7.41043091,-2.39956927,2.34554839,1.17157925,7.6989005,48.4201341,1.16045538,21,1771147754198635,-4.43620682,-2.856251,-7.74638116,73.2887878,49.1842766,-0.344074602,840,29.9821911,8.20619678,-1.59529734,0.195413706,-0.448598512,5.03778958,0.796471655,5.25113535,0.971701076,0.165941323,2.64196454,2026-02-15T09:29:14.198Z
1129.266968,2059.1302,0.948937356,2.91906738,-0.562150598,8.36649132,-1.4435091,2.34648776,1.17655324,7.72746901,48.5808342,1.16373816,21,1771147754210560,-3.70724395,-2.68569518,-7.54036953,74.0359268,49.1842766,-0.344074544,841,30,8.23164082,-1.60494363,0.223097233,-0.407917456,5.06500672,0.881272018,5.37465939,0.961117256,0.165510586,2.56560435,2026-02-15T09:29:14.210Z
1129.276978,2059.1356,0.947786272,2.87677836,-0.614918411,9.93368626,0.123685449,2.34809923,1.18152723,7.75603752,48.7415343,1.16702095,21,1771147754222071,-1.41728266,-2.55837061,-7.61907454,76.2508392,49.1842766,-0.344074475,841,30,8.25708389,-1.61458981,0.249292604,-0.382308667,5.09212797,0.993569016,5.476552,0.950533435,0.165079849,2.48988146,2026-02-15T09:29:14.222Z
1129.286987,2059.14099,0.946635187,3.0227828,-0.507721782,9.46866322,-0.341337413,2.3497107,1.18650122,7.78460603,48.9022344,1.17030374,21,1771147754233581,3.64956535,-3.0571823,-8.07742734,78.4657516,49.1842766,-0.344074406,841,30,8.28252792,-1.62423599,0.277343698,-0.393466529,5.11929148,1.10586596,5.57617294,0.939949615,0.164649112,2.41147485,2026-02-15T09:29:14.233Z
1129.296997,2059.14639,0.945484161,3.53784966,0.789330244,6.92283297,-2.88716745,2.35132217,1.19147521,7.81317455,49.0629345,1.17358653,21,1771147754245092,5.52440047,-2.7072594,-9.13240269,80.6806717,49.1842766,-0.344074338,841,30,8.307971,-1.63388228,0.306136077,-0.439300721,5.14649706,1.21816301,5.6803226,0.929365795,0.164218375,2.32550451,2026-02-15T09:29:14.245Z
1129.307007,2059.15178,0.944333136,3.7149322,3.61363959,8.0576458,-1.75235438,2.35293388,1.1964492,7.84174306,49.2236347,1.17686932,21,1771147754256603,4.25788048,-2.75512945,-9.57531792,82.8955841,49.1842766,-0.344074269,841,30,8.33341408,-1.64352846,0.333421615,-0.4881582,5.17374447,1.33045995,5.80222785,0.918781974,0.163787638,2.23205502,2026-02-15T09:29:14.256Z
1129.317017,2059.15718,0.943182051,4.08660698,4.03253651,9.52680016,-0.283200204,2.35454512,1.20142319,7.87031157,49.3843348,1.18015211,21,1771147754268113,-1.49215336,-2.83876216,-8.93366828,85.1104965,49.1842766,-0.344074201,841,30,8.35885811,-1.65317476,0.361364192,-0.501945327,5.20103351,1.44275713,5.92955622,0.908198154,0.163356902,2.13960352,2026-02-15T09:29:14.268Z
1129.327026,2059.16257,0.942031026,3.748739,0.319463193,8.64691067,-1.16308951,2.35615659,1.20639718,7.89888008,49.5450349,1.1834349,21,1771147754279623,-6.90558828,-2.11850505,-8.55026719,87.3254089,49.1842766,-0.344074132,841,30,8.38430119,-1.66282094,0.38612283,-0.459971377,5.22836396,1.55505407,6.06925238,0.897614334,0.162926165,2.05227097,2026-02-15T09:29:14.279Z
1129.337036,2059.16797,0.940880001,3.55149364,0.56058681,8.04981995,-1.76018059,2.35776806,1.21137117,7.9274486,49.705735,1.18671768,21,1771147754291134,-7.44609984,-1.78953957,-9.06842399,89.540329,49.1842766,-0.344074063,841,30,8.40974426,-1.67246711,0.405642417,-0.388280548,5.25573558,1.66735101,6.1956747,0.887030513,0.162495428,1.96426092,2026-02-15T09:29:14.291Z
1129.346924,2059.17336,0.941954613,3.36682105,0.627909005,9.36884117,-0.441159397,2.35930061,1.21634516,7.95601711,49.8664351,1.19000047,21,1771147754302720,-4.7228238,-1.50070159,-9.75906254,90.9126129,49.1842766,-0.344073972,841,30,8.43518829,-1.68211341,0.422277987,-0.326755398,5.28314817,1.79453313,6.31541475,0.876446693,0.162064691,1.86906665,2026-02-15T09:29:14.302Z
1129.356934,2059.17876,0.945786238,3.27700567,0.733282983,9.44828224,-0.361717969,2.36073589,1.22131915,7.98458562,50.0271353,1.19328326,21,1771147754314399,-3.41446817,-0.967152654,-10.3028729,91.2411118,49.1842766,-0.344073851,841,30,8.46063137,-1.69175959,0.434607834,-0.286102348,5.31060139,1.94015419,6.42619344,0.865862873,0.161633954,1.76885747,2026-02-15T09:29:14.314Z
1129.366943,2059.18415,0.950469553,3.35365534,2.52225423,9.25759792,-0.552402198,2.36214089,1.22629314,8.01315413,50.1878354,1.19656605,21,1771147754326108,-1.30201622,-1.22145276,-10.6367286,91.2472,49.1842766,-0.344073722,841,30,8.4860754,-1.70140576,0.445538961,-0.262532661,5.33809509,2.09147048,6.53290354,0.855279052,0.161203217,1.66426324,2026-02-15T09:29:14.326Z
1129.376953,2059.18955,0.955152869,2.95689702,1.43604231,10.2067232,0.396722913,2.36354589,1.23126713,8.04172265,50.3485355,1.19984884,21,1771147754337816,-0.419294527,-1.66103041,-10.5769079,91.2532883,49.1842766,-0.344073593,841,30,8.51151848,-1.71105206,0.459935175,-0.253930231,5.36562955,2.24278998,6.64159561,0.844695232,0.16077248,1.55829824,2026-02-15T09:29:14.337Z
1129.386963,2059.19498,0.959869325,2.72191405,0.697835505,9.70802021,-0.101980217,2.36496091,1.23624112,8.07029116,50.5092356,1.20313163,21,1771147754349607,0.812906866,-1.79682969,-10.7470162,91.2594223,49.1842766,-0.344073463,841,30,8.53696156,-1.72069824,0.47720695,-0.255890372,5.39339859,2.39517641,6.73520173,0.834111412,0.160341744,1.45178346,2026-02-15T09:29:14.349Z
1129.396973,2059.2004,0.964576483,2.65073609,0.352938771,9.14495659,-0.665043473,2.36637306,1.24121511,8.09885967,50.6699357,1.20641442,21,1771147754361375,1.4019216,-2.02670533,-11.3544956,91.2655487,49.1842766,-0.344073333,841,30,8.56240559,-1.73034453,0.496304852,-0.266950843,5.42115383,2.54726696,6.81969315,0.823527591,0.159911007,1.34138667,2026-02-15T09:29:14.361Z
1129.406982,2059.2058,0.969259799,2.7929101,1.83155072,9.49289608,-0.31710422,2.36777782,1.2461891,8.12742818,50.8306358,1.2096972,21,1771147754373083,2.09655896,-1.96438655,-11.954472,91.271637,49.1842766,-0.344073204,841,30,8.58784866,-1.73999071,0.516241056,-0.284423797,5.44880747,2.69858313,6.901051,0.812943771,0.15948027,1.22495759,2026-02-15T09:29:14.373Z
1129.416992,2059.21119,0.973943055,3.12011147,1.90367711,9.3851099,-0.424890667,2.36918283,1.2511631,8.1559967,50.991336,1.21297999,21,1771147754384791,1.42108862,-1.49492179,-12.110286,91.2777252,49.1842766,-0.344073075,841,30,8.61329269,-1.74963689,0.533518433,-0.30199158,5.47650041,2.84989929,6.9869894,0.802359951,0.159049533,1.10475043,2026-02-15T09:29:14.384Z
1129.427002,2059.21659,0.978287578,3.21190262,-0.111820579,9.35596466,-0.454035819,2.37049866,1.25613709,8.18456521,51.1520361,1.21626278,21,1771147754396279,0.837883235,-1.01631779,-12.0915715,91.2436066,49.1842766,-0.344072947,841,30,8.63873577,-1.75928319,0.546060051,-0.313272583,5.5042324,2.99650455,7.08411366,0.79177613,0.158618796,0.983859292,2026-02-15T09:29:14.396Z
1129.437012,2059.22198,0.979994774,3.19048619,-0.616229177,10.3424215,0.532420874,2.37112069,1.26111108,8.21313372,51.3127362,1.21954557,21,1771147754406038,2.81919438,-0.610323846,-12.3428621,90.8964844,49.1842766,-0.344072823,841,30,8.66417885,-1.76892936,0.554183354,-0.331549808,5.53200322,3.10642767,7.18384594,0.78119231,0.158188059,0.86180509,2026-02-15T09:29:14.406Z
1129.447021,2059.22738,0.980000019,2.98914909,0.451410532,9.69082928,-0.11917071,2.37129498,1.26608507,8.24170223,51.4734363,1.22282836,21,1771147754414684,4.6305126,-0.801077563,-12.9577384,90.347374,49.1842766,-0.344072702,841,30,8.68962288,-1.77857566,0.561234419,-0.368770779,5.55981264,3.19267893,7.28208908,0.77060849,0.157757322,0.735422513,2026-02-15T09:29:14.414Z
1129.457031,2059.23277,0.980000019,2.91693425,1.73946011,8.96458721,-0.84541297,2.37146783,1.27105906,8.27027075,51.6341364,1.22611115,21,1771147754423325,3.81814503,-0.982174404,-13.3905263,89.7976303,49.1842766,-0.344072581,841,30,8.71506596,-1.78822184,0.570142856,-0.41096882,5.58766048,3.27885723,7.37238753,0.760024669,0.157326585,0.603807631,2026-02-15T09:29:14.423Z
1129.467041,2059.23817,0.980000019,2.96834922,1.73501599,9.19336128,-0.616638899,2.37164068,1.27603305,8.29883926,51.7948366,1.22939394,21,1771147754431968,0.845420171,-0.793733501,-13.2012818,89.2478943,49.1842766,-0.344072459,841,30,8.74050903,-1.79786801,0.579012804,-0.434249436,5.61554652,3.36503553,7.45946487,0.749440849,0.156895849,0.470979251,2026-02-15T09:29:14.431Z
1129.476929,2059.24356,0.980000019,2.82315254,0.501843214,8.81190681,-0.998093247,2.37181354,1.28100704,8.32740777,51.9555367,1.23267673,21,1771147754440610,-2.25982307,-0.766257515,-12.789903,88.6981506,49.1842766,-0.344072338,841,30,8.76595306,-1.80751431,0.586900426,-0.427109113,5.6434706,3.45121384,7.54884794,0.738857029,0.156465112,0.339563763,2026-02-15T09:29:14.440Z
1129.486938,2059.24896,0.980000019,2.74708223,-1.51799452,8.8169117,-0.99308908,2.37198639,1.28598103,8.35597628,52.1162368,1.23595951,21,1771147754449251,-2.38667304,-0.338375175,-12.8222828,88.1484146,49.1842766,-0.344072217,841,30,8.79139614,-1.81716049,0.592420268,-0.403900099,5.6714325,3.53739238,7.63135025,0.728273209,0.156034375,0.211627907,2026-02-15T09:29:14.449Z
1129.496948,2059.25435,0.980000019,2.43742156,-1.53465652,9.8063879,-0.0036128955,2.372159,1.29095502,8.3845448,52.2769369,1.2392423,21,1771147754457893,2.01506431,0.136580097,-13.3688439,87.5986557,49.1842766,-0.344072096,841,30,8.81684017,-1.82680678,0.593430592,-0.402022646,5.69943273,3.62357283,7.71058002,0.717689388,0.155603638,0.0808026877,2026-02-15T09:29:14.457Z
1129.506958,2059.25978,0.980000019,2.22816539,-0.948081255,10.0738134,0.263813198,2.37233329,1.29592901,8.41311331,52.437637,1.24252509,21,1771147754466597,9.82254187,-0.365118863,-13.8067861,87.0450363,49.1842766,-0.344071974,841,30,8.84228325,-1.83645296,0.594569731,-0.461115027,5.72766825,3.71036029,7.77815744,0.707105568,0.155172901,-0.0549407645,2026-02-15T09:29:14.466Z
1129.516968,2059.26521,0.980000019,1.84870756,-1.00492167,9.8598423,0.0498422161,2.37250686,1.300903,8.44168182,52.5983372,1.24580788,21,1771147754475283,17.874233,-0.675619941,-13.93477,86.492485,49.1842766,-0.344071853,841,30,8.86772633,-1.84609914,0.599766835,-0.599424617,5.75588667,3.79697967,7.83782187,0.696521748,0.154742164,-0.193512597,2026-02-15T09:29:14.475Z
1129.526978,2059.2706,0.980000019,1.73473775,-0.503485143,9.19564629,-0.61435461,2.37267971,1.30587699,8.47025033,52.7590373,1.24909067,21,1771147754483925,25.4677794,-0.792881009,-14.0091507,85.942749,49.1842766,-0.344071732,841,30,8.89317036,-1.85574543,0.607101604,-0.81588623,5.78399896,3.88315797,7.88351555,0.685937927,0.154311427,-0.333095526,2026-02-15T09:29:14.483Z
1129.536987,2059.276,0.980000019,1.97416627,-0.870089114,9.3748579,-0.435142517,2.37285256,1.31085098,8.49881885,52.9197374,1.25237346,21,1771147754492567,30.9678263,-0.598081618,-13.9811031,85.393013,49.1842766,-0.344071611,841,30,8.91861343,-1.86539161,0.61404935,-1.09779693,5.81214847,3.96933603,7.92492759,0.675354107,0.15388069,-0.472910217,2026-02-15T09:29:14.492Z
1129.546997,2059.28139,0.980000019,1.87530577,0.653446615,9.60896873,-0.201031908,2.37238503,1.31582497,8.52738736,53.0804375,1.25565625,21,1771147754502005,35.9265245,-0.300298728,-14.1421379,85.0679932,49.1842766,-0.344071463,841,30,8.94405746,-1.87503779,0.618535418,-1.43196652,5.84033508,4.05768681,7.97482105,0.664770287,0.153449954,-0.613390021,2026-02-15T09:29:14.502Z
1129.557007,2059.28679,0.980000019,2.32524991,3.13947916,9.84285545,0.032854747,2.37096834,1.32079896,8.55595587,53.2411376,1.25893903,21,1771147754512626,38.1201799,-0.191470387,-14.3261543,85.0759277,49.1842766,-0.344071277,841,30,8.96950054,-1.88468409,0.620991338,-1.80184947,5.86855873,4.14925623,8.02094216,0.654186466,0.153019217,-0.755593508,2026-02-15T09:29:14.512Z
1129.567017,2059.29218,0.980000019,2.54673886,3.34902024,9.91409779,0.104097761,2.36919975,1.32577295,8.58452438,53.4018377,1.26222182,21,1771147754523685,35.5963055,-0.389820191,-14.1287704,85.2073898,49.1842766,-0.344071076,841,30,8.99494362,-1.89433026,0.623895926,-2.17005993,5.89681936,4.24202013,8.08306662,0.643602646,0.15258848,-0.897728359,2026-02-15T09:29:14.523Z
1129.577026,2059.29758,0.980000019,2.23578405,3.44990277,9.90545368,0.0954527855,2.36743045,1.33074694,8.6130929,53.5625379,1.26550461,21,1771147754534744,29.5633631,-1.08993293,-13.5604961,85.3391876,49.1842766,-0.344070875,841,30,9.02038765,-1.90397656,0.631290881,-2.49551108,5.92511692,4.33478689,8.1528186,0.633018826,0.152157743,-1.03603686,2026-02-15T09:29:14.534Z
1129.587036,2059.30297,0.980000019,1.98557031,2.33314037,9.40251923,-0.407481194,2.36566091,1.33572093,8.64166141,53.723238,1.2687874,21,1771147754545804,21.1454831,-1.30239438,-13.0408515,85.4709702,49.1842766,-0.344070674,841,30,9.04583073,-1.91362274,0.643241853,-2.74876716,5.95345141,4.42755413,8.21097307,0.622435005,0.151727006,-1.16891132,2026-02-15T09:29:14.545Z
1129.596924,2059.30836,0.980000019,1.52603257,2.09540367,8.89416409,-0.915836275,2.3638916,1.34069492,8.67022992,53.8839381,1.27207019,21,1771147754556863,12.2056029,-1.33465898,-12.7606215,85.6027603,49.1842766,-0.344070473,841,30,9.0712738,-1.92326891,0.656575125,-2.91738541,5.98182285,4.52032089,8.26033167,0.611851185,0.151296269,-1.29936568,2026-02-15T09:29:14.556Z
1129.606934,2059.31376,0.980000019,1.087762,2.52278233,9.49834061,-0.311659634,2.36212182,1.34566891,8.69879843,54.0446382,1.27535298,21,1771147754567923,2.04200853,-1.4051708,-12.6832083,85.7345428,49.1842766,-0.344070271,841,30,9.09671783,-1.93291521,0.670260563,-2.98860332,6.01023119,4.61308765,8.29246775,0.601267365,0.150865532,-1.42646107,2026-02-15T09:29:14.567Z
1129.616943,2059.31915,0.980000019,0.660205424,1.94745636,10.1077642,0.297763854,2.36035228,1.35064291,8.72736694,54.2053383,1.27863577,21,1771147754578982,-2.83687811,-1.36260869,-12.3771935,85.866333,49.1842766,-0.34407007,841,30,9.12216091,-1.94256139,0.684086174,-2.98465648,6.03867652,4.70585442,8.30880379,0.590683544,0.150434795,-1.55164232,2026-02-15T09:29:14.578Z
1129.626953,2059.32455,0.980000019,0.790134788,1.23011911,10.3128309,0.502830565,2.35858464,1.3556169,8.75593546,54.3660385,1.28191855,21,1771147754590040,-7.36800152,-1.55657249,-12.051168,85.9981232,49.1842766,-0.344069869,841,30,9.14760494,-1.95220768,0.698666889,-2.93370384,6.06715946,4.798594,8.30986401,0.580099724,0.150004059,-1.67366655,2026-02-15T09:29:14.590Z
1129.636963,2059.32998,0.980000019,0.485446781,1.57785785,10.3136454,0.503645301,2.35749531,1.35025078,8.85434596,54.8068387,1.28376267,21,1771147754600694,-11.8627719,-1.40181577,-11.8483572,86.1334305,49.1842766,-0.34406967,841,30,9.13708019,-1.95635343,0.713445145,-2.83766561,6.09588081,4.88152742,8.31588642,0.57778203,0.150443594,-1.79304858,2026-02-15T09:29:14.600Z
1129.646973,2059.3354,0.980000019,0.269675791,2.35607696,9.62354946,-0.186451405,2.35753083,1.34478631,8.95342079,55.2503032,1.28559311,21,1771147754610546,-17.5947129,-0.849609807,-11.7153905,86.2726517,49.1842766,-0.344069478,841,30,9.12621307,-1.96044683,0.724693975,-2.69054977,6.12458399,4.94730854,8.31117431,0.575542963,0.150891407,-1.91075302,2026-02-15T09:29:14.610Z
1129.656982,2059.3408,0.980000019,0.400603503,3.45086813,9.71132278,-0.098677963,2.35800552,1.33932184,9.05249562,55.6937678,1.28742354,21,1771147754620040,-25.8232828,0.195769767,-11.5876125,86.4128113,49.1842766,-0.344069288,841,30,9.11534595,-1.96454024,0.727963571,-2.47369981,6.1531786,5.00609636,8.29902434,0.573303896,0.151339221,-2.0271548,2026-02-15T09:29:14.620Z
1129.666992,2059.34619,0.980000019,0.641120136,4.6880765,10.274437,0.464436233,2.35848022,1.33385737,9.15157045,56.1372323,1.28925397,21,1771147754629534,-37.8255517,1.45579424,-11.1861594,86.5529633,49.1842766,-0.344069098,841,30,9.10447979,-1.96863365,0.719707663,-2.15570759,6.18181076,5.06488466,8.29199448,0.571064829,0.151787034,-2.14091061,2026-02-15T09:29:14.629Z
1129.677002,2059.35159,0.980000019,0.747254193,4.79070616,10.6623917,0.852391183,2.35895491,1.3283929,9.25064529,56.5806968,1.2910844,21,1771147754639029,-53.2235446,2.65168955,-10.3609776,86.6931229,49.1842766,-0.344068909,841,30,9.09361267,-1.97272706,0.699184461,-1.70083127,6.21048063,5.12367296,8.29397102,0.568825762,0.152234848,-2.24853716,2026-02-15T09:29:14.639Z
1129.687012,2059.35698,0.980000019,0.182432175,3.55902719,10.6956778,0.885677397,2.3594296,1.32292842,9.34972012,57.0241613,1.29291484,21,1771147754648522,-70.2364449,3.48913715,-9.4063232,86.8332901,49.1842766,-0.344068719,841,30,9.08274555,-1.97682047,0.668506222,-1.08405089,6.23918838,5.18246126,8.30003135,0.566586695,0.152682661,-2.3472726,2026-02-15T09:29:14.648Z
1129.697021,2059.36238,0.980000019,-0.795614779,1.46580696,10.2054911,0.395490795,2.35990429,1.31746395,9.44879495,57.4676259,1.29474527,21,1771147754658016,-83.9481652,3.7789594,-8.60660377,86.9734421,49.1842766,-0.34406853,841,30,9.07187939,-1.980914,0.632199804,-0.313813582,6.26793424,5.24124956,8.28600423,0.564347628,0.153130474,-2.43724549,2026-02-15T09:29:14.658Z
1129.707031,2059.36777,0.980000019,-1.7746166,-1.1672653,9.87338829,0.0633882731,2.36037898,1.31199948,9.54786978,57.9110904,1.2965757,21,1771147754667511,-91.3749365,3.86798225,-8.01607514,87.1136017,49.1842766,-0.34406834,841,30,9.06101227,-1.98500741,0.594001975,0.561982378,6.29671845,5.30003738,8.23722917,0.562108561,0.153578288,-2.52027495,2026-02-15T09:29:14.667Z
1129.717041,2059.37317,0.980000019,-1.95126224,-3.18057323,9.40981579,-0.40018478,2.36085367,1.30653501,9.64694461,58.3545549,1.29840614,21,1771147754677005,-91.0256701,4.1198644,-7.63490246,87.2537613,49.1842766,-0.344068151,841,30,9.05014515,-1.98910081,0.554100483,1.47309359,6.32554126,5.35882568,8.1540193,0.559869494,0.154026101,-2.59845167,2026-02-15T09:29:14.677Z
1129.726929,2059.37856,0.980000019,-0.970901906,-3.80243683,9.05960178,-0.750398397,2.36132812,1.30107054,9.74601945,58.7980194,1.30023657,21,1771147754686499,-84.3224776,4.72443369,-7.3811391,87.3938904,49.1842766,-0.344067961,841,30,9.03927898,-1.99319422,0.509385246,2.35969942,6.35440298,5.41761303,8.064685,0.557630427,0.154473915,-2.6743752,2026-02-15T09:29:14.686Z
1129.736938,2059.38408,0.980000019,0.0837011114,-4.10699272,9.72400475,-0.0859958678,2.36179709,1.29560607,9.84509428,59.241484,1.302067,21,1771147754695993,-74.8788122,5.22925121,-6.97851946,87.5278702,49.1842766,-0.344067771,841,30,9.02841187,-1.99728763,0.459667818,3.15497497,6.38330385,5.47616529,8.01264273,0.55539136,0.154921728,-2.74610538,2026-02-15T09:29:14.695Z
1129.746948,2059.39937,0.980000019,0.482325971,-4.27013397,10.7999496,0.989949107,2.36177993,1.2901416,9.94416911,59.6849485,1.30389743,21,1771147754705438,-65.8537714,5.72533751,-6.39942441,87.1577911,49.1842766,-0.344067578,841,30,9.01754475,-2.00138116,0.404950737,3.8579951,6.41224493,5.51546001,7.99936113,0.553152293,0.155369541,-2.81293264,2026-02-15T09:29:14.705Z
1129.756958,2059.42205,0.980000019,0.513397455,-5.09826231,11.0982895,1.28828931,2.36140084,1.28467713,10.0432439,60.128413,1.30572787,21,1771147754714910,-55.9615741,5.53939758,-5.62399877,86.4099045,49.1842766,-0.34406738,841,30,9.00667858,-2.00547457,0.34868112,4.46652544,6.44143027,5.5406971,8.00085085,0.550913225,0.155817355,-2.87299489,2026-02-15T09:29:14.714Z
1129.766968,2059.44468,0.980000019,0.11908111,-5.6172719,11.6483469,1.83834612,2.36102271,1.27921266,10.1423188,60.5718775,1.3075583,21,1771147754724365,-37.0958941,4.83695727,-5.68114564,85.663475,49.1842766,-0.344067183,841,30,8.99581146,-2.00956798,0.296846534,4.93145073,6.47059955,5.56588507,8.00374972,0.548674158,0.156265168,-2.92946519,2026-02-15T09:29:14.724Z
1129.776978,2059.4672,0.980000019,-0.234730393,-4.83163071,11.3353395,1.52533901,2.36064625,1.27374819,10.2413936,61.0153421,1.30938873,21,1771147754733772,-26.8125846,4.95060132,-5.66357532,84.920845,49.1842766,-0.344066987,841,30,8.98494434,-2.01366138,0.247957038,5.25073151,6.49966126,5.59094524,7.99272794,0.546435091,0.156712982,-2.98613354,2026-02-15T09:29:14.733Z
1129.786987,2059.48972,0.980000019,-0.758789361,-3.37605548,11.3489046,1.53890419,2.36027026,1.26828372,10.3404684,61.4588066,1.31121917,21,1771147754743179,-18.2849294,5.61226912,-5.4812854,84.1782074,49.1842766,-0.344066791,841,30,8.97407818,-2.01775479,0.195193254,5.47598675,6.52876407,5.61600542,7.96937608,0.544196024,0.157160795,-3.04180321,2026-02-15T09:29:14.743Z
1129.796997,2059.51223,0.980000019,-1.40266216,-2.88948178,10.911478,1.1014775,2.35989404,1.26281924,10.4395433,61.9022711,1.3130496,21,1771147754752585,-12.4022884,6.60741575,-4.83592208,83.4355774,49.1842766,-0.344066594,841,30,8.96321106,-2.0218482,0.134149587,5.6292445,6.55790843,5.64106512,7.92769426,0.541956957,0.157608609,-3.09333577,2026-02-15T09:29:14.752Z
1129.807007,2059.53475,0.980000019,-1.87321126,-2.82294631,11.8281212,2.018121,2.35951757,1.25735477,10.5386181,62.3457356,1.31488003,21,1771147754761992,-7.16956484,6.90032407,-4.10036068,82.6929398,49.1842766,-0.344066398,841,30,8.95234394,-2.02594161,0.0666753662,5.72698286,6.58709478,5.6661253,7.86356322,0.53971789,0.158056422,-3.13797002,2026-02-15T09:29:14.761Z
1129.817017,2059.55727,0.980000019,-1.6337868,-3.09805679,12.6126089,2.80260897,2.35914159,1.2518903,10.6376929,62.7892002,1.31671047,21,1771147754771399,-0.935795261,7.29248109,-3.90232841,81.9503098,49.1842766,-0.344066202,841,30,8.94147778,-2.03003502,-0.00422133201,5.76743984,6.61632361,5.69118547,7.78344122,0.537478823,0.158504235,-3.17794348,2026-02-15T09:29:14.771Z
1129.827026,2059.57979,0.980000019,-1.24346197,-2.64273429,11.580019,1.77001858,2.35876513,1.24642583,10.7367678,63.2326647,1.3185409,21,1771147754780807,7.41864011,7.2532652,-3.96970613,81.2076721,49.1842766,-0.344066006,841,30,8.93061066,-2.03412843,-0.0768789036,5.73501671,6.64559543,5.7162447,7.71302245,0.535239756,0.158952049,-3.21726559,2026-02-15T09:29:14.780Z
1129.837036,2059.60231,0.980000019,-0.777146399,-1.11103594,11.7930698,1.98306918,2.3583889,1.24096136,10.8358426,63.6761292,1.32037133,21,1771147754790214,15.3237417,6.6295856,-4.07942345,80.4650345,49.1842766,-0.344065809,841,30,8.91974354,-2.03822184,-0.146222396,5.62137754,6.67491077,5.74130535,7.65763757,0.533000689,0.159399862,-3.2574725,2026-02-15T09:29:14.790Z
1129.846924,2059.62482,0.98025012,-0.497803986,0.286477774,11.880146,2.07014608,2.35812306,1.23549689,10.9349174,64.1195938,1.32220176,21,1771147754799989,20.2595528,6.00594107,-3.83768043,80.0779648,49.1842766,-0.34406561,841,30,8.90887737,-2.04231548,-0.21010819,5.4414579,6.7042702,5.74411726,7.61947044,0.530761622,0.159847676,-3.29750213,2026-02-15T09:29:14.799Z
1129.856934,2059.64734,0.981066287,-0.304214418,1.61786914,11.1462317,1.33623099,2.35810661,1.23003242,11.0339923,64.5630583,1.3240322,21,1771147754810596,21.0289006,5.55837289,-3.27356115,80.4956818,49.1842766,-0.344065403,841,30,8.89801025,-2.04640889,-0.267875534,5.23522084,6.7336742,5.69657183,7.59241652,0.528522555,0.160295489,-3.33302638,2026-02-15T09:29:14.810Z
1129.866943,2059.66986,0.982169271,-0.556624413,1.62187779,11.0437574,1.23375714,2.358217,1.22456795,11.1330671,65.0065228,1.32586263,21,1771147754821626,19.9904178,5.60247856,-2.74288486,81.321167,49.1842766,-0.344065193,841,30,8.88714314,-2.0505023,-0.323625118,5.03031931,6.76312342,5.62351179,7.5729049,0.526283488,0.160743302,-3.36308184,2026-02-15T09:29:14.821Z
1129.876953,2059.69238,0.983272195,-0.00259812758,2.08785725,11.2140989,1.40409899,2.35832715,1.21910348,11.2321419,65.4499873,1.32769306,21,1771147754832656,18.9396409,5.20840129,-2.67893542,82.1466751,49.1842766,-0.344064982,841,30,8.87627697,-2.05459571,-0.377628703,4.83585383,6.79261906,5.55044937,7.54477614,0.524044421,0.161191116,-3.39016481,2026-02-15T09:29:14.832Z
1129.886963,2059.71506,0.984382987,1.04602921,2.51916742,10.3650932,0.555092454,2.35843849,1.21363901,11.3312168,65.8934519,1.3295235,21,1771147754843764,17.7536215,5.1924617,-2.80972963,82.9780045,49.1842766,-0.344064771,841,30,8.86540985,-2.05868912,-0.429582353,4.65256079,6.82236965,5.47687292,7.53713139,0.521805354,0.161638929,-3.41758073,2026-02-15T09:29:14.843Z
1129.896973,2059.73769,0.985491574,3.00176549,3.06850624,10.9188662,1.10886586,2.35854912,1.20817454,11.4302916,66.3369164,1.33135393,21,1771147754854850,13.9666703,4.81382693,-2.87097029,83.8077087,49.1842766,-0.344064559,841,30,8.85454273,-2.06278253,-0.479566825,4.49409564,6.85211005,5.40343857,7.56754244,0.519566287,0.162086743,-3.44595622,2026-02-15T09:29:14.854Z
1129.906982,2059.76021,0.986594558,5.16623688,3.74901462,11.0405102,1.23050928,2.35865951,1.20271007,11.5293664,66.7803809,1.33318436,21,1771147754865879,7.31354592,3.84493291,-2.85585551,84.633194,49.1842766,-0.344064349,841,30,8.84367657,-2.06687593,-0.522821709,4.38777555,6.88174702,5.33037758,7.66828908,0.51732722,0.162534556,-3.47456246,2026-02-15T09:29:14.865Z
1129.916992,2059.78273,0.987697482,7.54374027,3.52066231,10.7957582,0.985757709,2.35876966,1.19724559,11.6284413,67.2238454,1.33501479,21,1771147754876909,0.431256734,2.99560821,-2.6582234,85.4586868,49.1842766,-0.344064138,841,30,8.83280945,-2.07096934,-0.556986905,4.34912288,6.91143249,5.25731754,7.8462344,0.515088153,0.162982369,-3.502105,2026-02-15T09:29:14.876Z
1129.927002,2059.80524,0.988800466,9.14448738,3.07217455,11.3816156,1.57161522,2.35888004,1.19178112,11.7275161,67.66731,1.33684523,21,1771147754887938,-6.03312238,1.89351499,-2.78323982,86.2841721,49.1842766,-0.344063928,841,30,8.82194233,-2.07506275,-0.581403304,4.37713634,6.94116711,5.18425655,8.10820511,0.512849086,0.163430183,-3.52928638,2026-02-15T09:29:14.887Z
1129.937012,2059.82776,0.990011156,8.54199409,3.38953018,10.4554157,0.645415604,2.35942841,1.18631665,11.8265909,68.1107745,1.33867566,21,1771147754897909,-18.4592475,1.08886554,-2.70941967,86.9890137,49.1842766,-0.344063739,841,30,8.81107616,-2.07915616,-0.596296756,4.4995392,6.97095158,5.12452126,8.42542639,0.510610018,0.163877996,-3.55672252,2026-02-15T09:29:14.897Z
1129.947021,2059.85028,0.991516411,6.74074173,-0.659820437,9.62507153,-0.184928894,2.36117506,1.18085218,11.9256657,68.554239,1.34050609,21,1771147754904980,-21.9668518,0.952574167,-2.64159539,87.3637619,49.1842766,-0.344063609,841,30,8.80020905,-2.08324957,-0.606493356,4.70148923,7.00078663,5.10124016,8.71810769,0.508370951,0.16432581,-3.58345117,2026-02-15T09:29:14.904Z
1129.957031,2059.8728,0.993176877,5.86875391,-2.02305961,9.51781368,-0.292186767,2.36355352,1.17538771,12.0247406,68.9977035,1.34233653,21,1771147754910524,-20.5182149,0.884800384,-2.70689839,87.5644913,49.1842766,-0.34406351,841,30,8.78934193,-2.08734322,-0.615670941,4.91370011,7.03067299,5.09717512,8.94338145,0.506131884,0.164773623,-3.61016787,2026-02-15T09:29:14.910Z
1129.967041,2059.89531,0.994838059,4.84724236,-3.72489142,8.64678192,-1.16321814,2.36593437,1.16992324,12.1238154,69.4411681,1.34416696,21,1771147754916060,-15.8868643,0.784545642,-2.75505847,87.764534,49.1842766,-0.344063411,841,30,8.77847576,-2.09143662,-0.624009042,5.0955254,7.06061141,5.09318829,9.13534221,0.503892817,0.165221437,-3.63745124,2026-02-15T09:29:14.916Z
1129.976929,2059.91783,0.99649924,4.44148111,-4.01747942,8.88920879,-0.920791566,2.36831546,1.16445877,12.2228902,69.8846326,1.34599739,21,1771147754921599,-10.2884612,-0.0607438913,-2.38696632,87.9645691,49.1842766,-0.344063312,841,30,8.76760864,-2.09553003,-0.627672161,5.2278921,7.09060266,5.08920145,9.29073759,0.50165375,0.16566925,-3.66345144,2026-02-15T09:29:14.921Z
1129.986938,2059.94035,0.998160362,3.32959557,-4.64081573,8.0421648,-1.76783538,2.37069631,1.1589943,12.3219651,70.3280971,1.34782783,21,1771147754927135,-4.37802056,-1.00745142,-1.74534803,88.1645966,49.1842766,-0.344063213,841,30,8.75674152,-2.09962344,-0.622340938,5.30118158,7.12064743,5.08521461,9.42853511,0.499414683,0.166117063,-3.68409595,2026-02-15T09:29:14.927Z
1129.996948,2059.96287,0.999821603,3.15639377,-4.68536901,9.3795557,-0.430444658,2.37307763,1.15352983,12.4210399,70.7715616,1.34965826,21,1771147754932673,0.932049994,-2.82156065,-0.918657595,88.3646393,49.1842766,-0.344063114,842,30,8.74587536,-2.10371685,-0.603223347,5.31842041,7.15074726,5.08122778,9.52523415,0.497175616,0.166564877,-3.697407,2026-02-15T09:29:14.932Z
1130.006958,2059.98555,1.00149453,4.70990753,-1.96587467,9.76169968,-0.0483012013,2.37547541,1.14806536,12.5201147,71.2150262,1.35148869,21,1771147754938249,4.55025946,-4.63269755,-0.409212051,88.5661011,49.1842766,-0.344063014,842,30,8.73500824,-2.10781026,-0.565997215,5.29105329,7.18111496,5.07721281,9.61497795,0.494936549,0.16701269,-3.70404233,2026-02-15T09:29:14.938Z
1130.016968,2060.00818,1.00316417,6.79383707,-0.973812222,7.16797686,-2.64202356,2.37786841,1.14260089,12.6191896,71.6584907,1.35331912,21,1771147754943815,2.80521721,-6.32484975,0.515662707,88.7671509,49.1842766,-0.344062915,842,30,8.72414112,-2.11190367,-0.51127118,5.25430337,7.21148014,5.07320595,9.75998224,0.492697482,0.167460504,-3.7035151,2026-02-15T09:29:14.943Z
1130.026978,2060.0307,1.00482535,6.84513235,1.00977254,7.02438736,-2.78561306,2.3802495,1.13713641,12.7182644,72.1019552,1.35514956,21,1771147754949352,-3.961096,-6.68961692,1.77337564,88.967186,49.1842766,-0.344062816,842,30,8.713274,-2.11599708,-0.446264114,5.26004414,7.2417478,5.06921911,9.97886165,0.490458415,0.167908317,-3.6920872,2026-02-15T09:29:14.949Z
1130.036987,2060.05322,1.00648642,6.46518517,-0.478715539,7.58105183,-2.22894883,2.38263059,1.13167194,12.8173392,72.5454198,1.35697999,21,1771147754954889,-10.2880825,-5.73185319,2.95108812,89.1672211,49.1842766,-0.344062717,842,30,8.70240784,-2.12009048,-0.384218743,5.33122968,7.27207304,5.06523228,10.1977069,0.488219348,0.16835613,-3.66848622,2026-02-15T09:29:14.954Z
1130.046997,2060.07573,1.00814772,5.53933048,0.453382581,7.71415329,-2.09584737,2.38501167,1.12620747,12.9164141,72.9888843,1.35881042,21,1771147754960427,-13.7718974,-5.38724794,3.7989841,89.3672562,49.1842766,-0.344062618,842,30,8.69154072,-2.12418389,-0.328679152,5.45142917,7.30245665,5.06124544,10.4009987,0.485980281,0.168803944,-3.63476466,2026-02-15T09:29:14.960Z
1130.057007,2060.09825,1.00980878,4.10279512,-0.668443203,6.7183218,-3.09167838,2.38739252,1.120743,13.0154889,73.4323488,1.36064086,21,1771147754965964,-14.8971343,-5.24655218,4.83501163,89.5672913,49.1842766,-0.344062519,842,30,8.6806736,-2.1282773,-0.275562705,5.59463992,7.33289942,5.05725861,10.5692649,0.483741214,0.169251757,-3.59163176,2026-02-15T09:29:14.965Z
1130.067017,2060.12077,1.01146996,2.47339797,-1.8360647,8.35875893,-1.45124173,2.38977337,1.11527853,13.1145637,73.8758133,1.36247129,21,1771147754971501,-13.4871818,-5.12053202,5.81387279,89.767334,49.1842766,-0.34406242,842,30,8.66980743,-2.13237071,-0.223778466,5.73641613,7.36340214,5.05327177,10.6844895,0.481502147,0.169699571,-3.53843453,2026-02-15T09:29:14.971Z
1130.077026,2060.14329,1.01313114,0.79972142,-1.80631721,8.26972198,-1.54027808,2.39215469,1.10981406,13.2136386,74.3192779,1.36430172,21,1771147754977038,-7.72106427,-5.7651034,6.72148131,89.9673615,49.1842766,-0.344062321,842,30,8.65894032,-2.13646436,-0.169400241,5.84232583,7.39396563,5.04928493,10.7402667,0.47926308,0.170147384,-3.47581452,2026-02-15T09:29:14.977Z
1130.087036,2060.16581,1.01479232,0.689138532,-4.72702837,7.50583029,-2.30417013,2.39453554,1.10434959,13.3127134,74.7627424,1.36613215,21,1771147754982576,0.823959887,-7.42569979,7.4870781,90.1673965,49.1842766,-0.344062222,842,30,8.6480732,-2.14055777,-0.103502499,5.87673628,7.42459067,5.0452981,10.7355985,0.477024013,0.170595197,-3.40483734,2026-02-15T09:29:14.982Z
1130.096924,2060.18832,1.0164535,1.94643009,-4.17938709,8.58718204,-1.22281861,2.39691663,1.09888512,13.4117882,75.2062069,1.36796259,21,1771147754988113,11.3916611,-8.5999912,7.98363967,90.3674393,49.1842766,-0.344062122,842,30,8.63720703,-2.14465117,-0.0224733623,5.81496289,7.45527811,5.04131174,10.7274637,0.474784946,0.171043011,-3.3266153,2026-02-15T09:29:14.988Z
1130.106934,2060.21084,1.01811469,2.81925726,-2.42364407,6.505054,-3.30494642,2.39929199,1.09342065,13.5108631,75.6496714,1.36979302,21,1771147754993659,20.7532521,-8.56307812,8.42827594,90.5675812,49.1842766,-0.344062023,842,29.9999371,8.62633991,-2.14874458,0.0632583681,5.65444036,7.48602859,5.03757429,10.7647464,0.472545879,0.171490824,-3.24463787,2026-02-15T09:29:14.993Z
1130.116943,2060.23336,1.01976418,3.40412164,-2.72614408,8.13811874,-1.67188156,2.40048957,1.08795618,13.6099379,76.093136,1.37162345,21,1771147755000933,30.1419577,-6.9663506,9.94587143,90.7918015,49.1842766,-0.344061859,842,29.9866257,8.61547279,-2.15283799,0.140837511,5.40025823,7.51684298,5.08682489,10.8333653,0.470306811,0.171938638,-3.15286415,2026-02-15T09:29:15.000Z
1130.126953,2060.25588,1.02137733,3.43833327,-2.15058231,8.64798069,-1.16201949,2.39793682,1.08249171,13.7090127,76.5366005,1.37345389,21,1771147755013708,34.0291879,-5.98727484,10.4347219,91.0926514,49.1842766,-0.34406149,842,29.9311314,8.60460663,-2.1569314,0.205547201,5.07973443,7.54772266,5.30477524,10.9226605,0.468067744,0.172386451,-3.05106298,2026-02-15T09:29:15.013Z
1130.136963,2060.27856,1.02298081,2.45199585,-1.69663191,8.95464516,-0.855355501,2.3932066,1.07702723,13.8080876,76.980065,1.37528432,21,1771147755029744,36.6447339,-5.07902869,10.8547936,91.4397354,49.1842766,-0.344061001,842,29.850956,8.59373951,-2.16102481,0.260829154,4.72672232,7.57888622,5.62139845,11.0126385,0.465828677,0.172834265,-2.94472129,2026-02-15T09:29:15.029Z
1130.146973,2060.30119,1.02458119,2.25108194,0.529242337,10.2528887,0.442888141,2.38848543,1.07156276,13.9071624,77.4235295,1.37711475,21,1771147755045747,36.9341434,-4.30540965,11.2843605,91.7861404,49.1842766,-0.344060512,842,29.7709389,8.58287239,-2.16511822,0.307709334,4.3591883,7.61005612,5.93740606,11.0665275,0.46358961,0.173282078,-2.8341356,2026-02-15T09:29:15.045Z
1130.156982,2060.32371,1.02617335,1.42782438,1.63914979,8.82727432,-0.982726395,2.38378835,1.06609829,14.0062372,77.8669941,1.37894519,21,1771147755061668,33.1343071,-3.32342938,12.4010275,92.1307831,49.1842766,-0.344060025,842,29.691328,8.57200623,-2.16921163,0.345819683,4.00917481,7.64113453,6.25180531,11.1129811,0.461350543,0.173729891,-2.71582803,2026-02-15T09:29:15.061Z
1130.166992,2060.34622,1.02776563,0.854360878,0.140866682,9.0917387,-0.718262017,2.37909126,1.06063382,14.1053121,78.3104586,1.38077562,21,1771147755077591,27.3145609,-2.1956927,13.3748573,92.4754333,49.1842766,-0.344059539,842,29.6117172,8.56113911,-2.17330503,0.373382871,3.70725373,7.6722806,6.5662055,11.1296481,0.459111476,0.174177705,-2.58706959,2026-02-15T09:29:15.077Z
1130.177002,2060.36874,1.02935779,1.40081668,0.9288311,9.61555481,-0.19444564,2.37439418,1.05516935,14.2043869,78.7539231,1.38260605,21,1771147755093512,19.814951,-0.375006694,13.9337256,92.8200836,49.1842766,-0.344059053,842,29.5321064,8.55027199,-2.17739844,0.386214959,3.47187259,7.70349496,6.88060522,11.1258351,0.456872409,0.174625518,-2.45065718,2026-02-15T09:29:15.093Z
1130.187012,2060.39126,1.03095007,1.95917463,1.44183087,8.83846474,-0.971535504,2.36969733,1.04970488,14.3034617,79.1973876,1.38443648,21,1771147755109435,10.0264944,1.71549358,14.4254948,93.1647339,49.1842766,-0.344058566,842,29.4524937,8.53940582,-2.18149185,0.379508903,3.32285853,7.73477828,7.19500446,11.1420253,0.454633342,0.175073332,-2.30899703,2026-02-15T09:29:15.109Z
1130.197021,2060.41378,1.03254223,2.12696433,0.527792096,9.63705921,-0.172941312,2.36500025,1.04424041,14.4025365,79.6408522,1.38626692,21,1771147755125357,-0.787771684,3.04116339,15.1918737,93.5093842,49.1842766,-0.34405808,842,29.3728828,8.5285387,-2.1855855,0.355742418,3.27676244,7.76613119,7.50940418,11.1784475,0.452394275,0.175521145,-2.16105093,2026-02-15T09:29:15.125Z
1130.207031,2060.4363,1.03413451,2.10716486,0.0640226901,9.79712009,-0.0128803672,2.36030316,1.03877594,14.5016114,80.0843167,1.38809735,21,1771147755141279,-9.84440722,3.59882675,15.8179112,93.8540344,49.1842766,-0.344057593,842,29.2932739,8.51767159,-2.18967891,0.322572189,3.32991522,7.7975543,7.8238039,11.2208536,0.450155208,0.175968958,-2.00615025,2026-02-15T09:29:15.141Z
1130.217041,2060.45881,1.03572679,1.90147221,-1.488778,9.36420345,-0.445796549,2.35560608,1.03331147,14.6006862,80.5277812,1.38992778,21,1771147755157201,-13.9680883,3.25274632,16.0265452,94.1986771,49.1842766,-0.344057107,842,29.2136631,8.50680542,-2.19377232,0.288349462,3.44888121,7.82904817,8.13820362,11.2624379,0.447916141,0.176416772,-1.84708232,2026-02-15T09:29:15.157Z
1130.226929,2060.48133,1.03731894,1.67504859,-2.36056685,9.20194244,-0.608058393,2.35090899,1.027847,14.699761,80.9712458,1.39175822,21,1771147755173123,-13.8989443,2.34479632,15.8133484,94.5433273,49.1842766,-0.344056621,842,29.1340523,8.4959383,-2.19786572,0.260044243,3.5897821,7.86061337,8.45260334,11.2968973,0.445677074,0.176864585,-1.68609568,2026-02-15T09:29:15.173Z
1130.236938,2060.50385,1.03890443,1.17984974,-1.57250416,8.43121529,-1.37878561,2.34622192,1.02238253,14.7988359,81.4147103,1.39358865,21,1771147755189036,-11.3043729,2.00259964,15.3261438,94.8881989,49.1842766,-0.344056134,842,29.0547829,8.48507118,-2.20195913,0.23832679,3.71568823,7.89225032,8.76650238,11.3228282,0.443438007,0.177312399,-1.53054775,2026-02-15T09:29:15.189Z
1130.246948,2060.52637,1.03888476,0.630008042,-1.94871306,7.66015291,-2.14984751,2.34384966,1.01691806,14.8979107,81.8581748,1.39541908,21,1771147755202859,-7.24023232,2.24524825,15.1434201,95.2843781,49.1842766,-0.344055696,842,29.0557594,8.47420502,-2.20605254,0.21710943,3.8083404,7.9239603,8.96265221,11.331008,0.44119894,0.177760212,-1.3783477,2026-02-15T09:29:15.202Z
1130.256958,2060.54905,1.03709269,0.058714658,-2.53497529,8.43016338,-1.37983727,2.34401751,1.01145358,14.9969855,82.3016393,1.39724951,21,1771147755214469,-0.372513676,3.04254955,14.1242499,95.7400208,49.1842766,-0.344055308,842,29.1453629,8.4633379,-2.21014595,0.190700115,3.84640008,7.95596724,9.03014374,11.3196486,0.438959873,0.178208025,-1.23214717,2026-02-15T09:29:15.214Z
1130.266968,2060.57168,1.03488445,-0.237659916,-2.37487268,8.01390266,-1.79609728,2.34479046,1.00598911,15.0960604,82.7451039,1.39907995,21,1771147755225510,17.8830733,3.48746817,13.3417678,96.2081985,49.1842766,-0.344054933,842,29.2557774,8.45247078,-2.21423936,0.158084052,3.75902161,7.98798585,9.06671333,11.2881661,0.436720806,0.178655839,-1.09494725,2026-02-15T09:29:15.225Z
1130.276978,2060.5942,1.03268743,-0.174694195,-2.01092148,9.15103245,-0.658967793,2.34555936,1.00052464,15.1951352,83.1885684,1.40091038,21,1771147755236495,29.4731198,3.37463993,12.4677012,96.6739883,49.1842766,-0.344054559,842,29.3656311,8.44160461,-2.21833277,0.123806436,3.52252815,8.01991528,9.10309696,11.2466461,0.434481739,0.179103652,-0.966021547,2026-02-15T09:29:15.236Z
1130.286987,2060.61672,1.0304904,-0.153394625,-1.24184251,8.91267872,-0.897321463,2.34632826,0.995060172,15.29421,83.6320329,1.40274081,21,1771147755247481,39.4249146,2.93534365,11.7317302,97.1397781,49.1842766,-0.344054186,842,29.4754829,8.4307375,-2.22242618,0.0922879346,3.17835965,8.0519185,9.13947964,11.2081269,0.432242672,0.179551466,-0.845143502,2026-02-15T09:29:15.247Z
1130.296997,2060.63923,1.02829325,-0.332337081,-1.42392433,8.55375385,-1.25624657,2.3470974,0.989595701,15.3932849,84.0754974,1.40457125,21,1771147755258466,48.9496802,2.15918987,11.2048559,97.6055756,49.1842766,-0.344053813,842,29.5853348,8.41987038,-2.22651958,0.0668439018,2.73687137,8.08399574,9.17586231,11.1710788,0.430003604,0.179999279,-0.730575023,2026-02-15T09:29:15.258Z
1130.307007,2060.66175,1.02609622,-0.270646393,-1.47278917,9.32920742,-0.480792999,2.3478663,0.997592282,15.3602473,84.3878934,1.40585472,21,1771147755269451,58.7824722,1.26527201,10.4829772,98.0713654,49.1842766,-0.34405344,842,29.6951866,8.40276623,-2.23130631,0.0497426455,2.19868832,8.11614715,9.21224499,11.1282856,0.428975942,0.180170676,-0.622245165,2026-02-15T09:29:15.269Z
1130.317017,2060.68427,1.0238992,-0.360578328,-1.24423945,9.20293045,-0.607070446,2.34863544,1.00561057,15.3269968,84.7000779,1.40713731,21,1771147755280436,68.9302642,0.416727476,9.42457639,98.5371552,49.1842766,-0.344053067,842,29.8050404,8.38565159,-2.236094,0.0413449696,1.56069837,8.14837285,9.24862862,11.0884599,0.427950232,0.180341628,-0.522809652,2026-02-15T09:29:15.280Z
1130.327026,2060.70679,1.02170217,-0.423791081,-1.11352575,9.02530575,-0.784694374,2.3494041,1.01362885,15.2937463,85.0122625,1.4084199,21,1771147755291422,79.7018709,-0.419632,8.53464322,99.0029526,49.1842766,-0.344052693,842,29.9148922,8.36853695,-2.24088168,0.0413635284,0.818210541,8.18067291,9.28501225,11.0461195,0.426924523,0.18051258,-0.433105464,2026-02-15T09:29:15.291Z
1130.337036,2060.7293,1.01859272,-0.541401148,-1.0219934,9.68952942,-0.120471075,2.34971023,1.02164714,15.2604957,85.3244471,1.4097025,21,1771147755302623,89.6757576,-0.670039385,7.61515754,99.1628876,49.1842766,-0.344052304,842,29.9399891,8.35142231,-2.24566936,0.0468077543,-0.0278995446,8.21304733,9.32164001,11.0022514,0.425898813,0.180683531,-0.352439686,2026-02-15T09:29:15.302Z
1130.346924,2060.75182,1.01433468,-0.883300304,-0.464270264,9.45773888,-0.352261454,2.34943342,1.02966543,15.2272452,85.6366317,1.41098509,21,1771147755314096,100.45659,-0.75492567,6.58639307,98.9377441,49.1842766,-0.344051893,842,29.8583698,8.33430767,-2.25045705,0.0540127172,-0.989237717,8.24549607,9.35857773,10.9542718,0.424873104,0.180854483,-0.280636203,2026-02-15T09:29:15.314Z
1130.356934,2060.77434,1.00971103,-1.13027656,0.77012074,9.12003994,-0.689960837,2.34897089,1.03768371,15.1939946,85.9488163,1.41226768,21,1771147755325655,110.365357,-0.626523411,5.4965563,98.5899887,49.1842766,-0.344051477,842,29.742775,8.31719303,-2.25524473,0.0609138224,-2.042271,8.27801886,9.39561462,10.8954505,0.423847394,0.181025434,-0.220275129,2026-02-15T09:29:15.325Z
1130.366943,2060.79686,1.00508726,-1.22693181,2.52069283,8.90464973,-0.905350685,2.3485086,1.045702,15.1607441,86.2610009,1.41355027,21,1771147755337215,116.454914,-0.023097676,4.46877488,98.2422409,49.1842766,-0.34405106,842,29.627182,8.30007839,-2.26003242,0.0641616615,-3.1752362,8.31061559,9.43265057,10.8286539,0.422821685,0.181196386,-0.1704921,2026-02-15T09:29:15.337Z
1130.376953,2060.81938,1.00046349,-1.26960433,4.34376717,9.29446316,-0.515536785,2.3480463,1.05372029,15.1274936,86.5731854,1.41483286,21,1771147755348774,116.259866,1.09146144,3.67996531,97.8944778,49.1842766,-0.344050643,842,29.5115871,8.28296375,-2.2648201,0.058830465,-4.3376757,8.34328665,9.46968746,10.7593721,0.421795975,0.181367337,-0.129784316,2026-02-15T09:29:15.348Z
1130.386963,2060.84205,0.995806992,-1.35995626,5.3730855,9.99492455,0.184924185,2.34758067,1.06173857,15.094243,86.88537,1.41611546,21,1771147755360416,110.374029,2.05051552,3.12856283,97.5442657,49.1842766,-0.344050223,842,29.3951759,8.26584911,-2.26960778,0.0431405781,-5.46976819,8.37626222,9.50698566,10.6895758,0.420770266,0.181538289,-0.0957722074,2026-02-15T09:29:15.360Z
1130.396973,2060.86469,0.991159618,-1.85603476,5.61968851,10.856288,1.04628742,2.34711576,1.06975686,15.0609925,87.1975546,1.41739805,21,1771147755372033,100.892502,2.45647703,2.5902015,97.1947403,49.1842766,-0.344049804,842,29.2789917,8.24873447,-2.27439547,0.0206295859,-6.52511644,8.40924746,9.54421043,10.617571,0.419744556,0.181709241,-0.0672036613,2026-02-15T09:29:15.372Z
1130.406982,2060.88721,0.986535907,-2.22647262,5.80161619,11.133687,1.32368648,2.34665346,1.07777514,15.0277419,87.5097392,1.41868064,21,1771147755383593,89.7157788,1.85631036,1.93239163,96.8469925,49.1842766,-0.344049387,842,29.1633987,8.23161888,-2.27918315,-0.000915371597,-7.47726638,8.44213759,9.58124733,10.5287673,0.418718847,0.181880192,-0.0446105009,2026-02-15T09:29:15.383Z
1130.416992,2060.90972,0.981919229,-1.04112792,7.51742554,11.3436737,1.53367341,2.3461864,1.08579343,14.9944914,87.8219238,1.41996323,21,1771147755395148,68.2215896,-0.120906349,1.03952163,96.5004807,49.1842766,-0.344048971,842,29.0479813,8.21450424,-2.28397083,-0.00957428218,-8.26607796,8.47509979,9.61815834,10.4278465,0.417693137,0.182051144,-0.0297697862,2026-02-15T09:29:15.395Z
1130.427002,2060.93224,0.980004013,0.168248475,8.10036659,10.9239273,1.11392689,2.34391284,1.09381172,14.9612409,88.1341083,1.42124582,21,1771147755405014,48.0395111,-0.613778344,0.723655617,96.6312485,49.1842764,-0.344048625,842,29.0001011,8.1973896,-2.28875852,-0.00590205992,-8.84671812,8.50813344,9.60698986,10.370894,0.416667427,0.182222095,-0.0209640319,2026-02-15T09:29:15.405Z
1130.437012,2060.95476,0.980000019,0.882512271,7.89620686,10.6239395,0.813939393,2.34036112,1.10183,14.9279903,88.4462929,1.42252842,21,1771147755413686,30.2549841,0.422184009,0.719168209,97.099678,49.1842761,-0.344048331,842,29,8.18027496,-2.2935462,-0.00495008638,-9.23772233,8.54123794,9.56180573,10.3583355,0.415641718,0.182393047,-0.0137569664,2026-02-15T09:29:15.413Z
1130.447021,2060.97728,0.980000019,0.910195351,6.68987131,11.048378,1.23837805,2.33680654,1.10984829,14.8947398,88.7584775,1.42381101,21,1771147755422356,13.3387095,2.03458973,0.667865093,97.5688095,49.1842757,-0.344048036,842,29,8.16316032,-2.29833388,-0.017229805,-9.45539617,8.57441264,9.51655102,10.3719216,0.414616008,0.182563999,-0.00682881603,2026-02-15T09:29:15.422Z
1130.457031,2060.9998,0.980000019,0.708697021,6.19680643,11.6652031,1.85520267,2.33325219,1.11786657,14.8614892,89.0706621,1.4250936,21,1771147755431025,-1.14855604,3.59367801,0.546764451,98.037941,49.1842754,-0.344047742,842,29,8.14604568,-2.30312157,-0.0453512303,-9.51621747,8.60765685,9.47129631,10.3866992,0.413590299,0.18273495,-0.000762182033,2026-02-15T09:29:15.431Z
1130.467041,2061.02231,0.980000019,0.310652494,5.48587561,12.0322628,2.22226238,2.32969761,1.12588486,14.8282387,89.3828467,1.42637619,21,1771147755439695,-13.7207614,4.59214885,0.450000646,98.5070724,49.1842751,-0.344047447,842,29,8.12893105,-2.30790925,-0.0862452278,-9.4418828,8.64096983,9.4260416,10.3944143,0.412564589,0.182905902,0.00421631512,2026-02-15T09:29:15.439Z
1130.476929,2061.04483,0.980000019,0.0525327027,4.54984236,12.1346397,2.32463956,2.32614303,1.13390315,14.7949882,89.6950313,1.42765879,21,1771147755448365,-25.5721466,4.94365614,0.51750658,98.9762039,49.1842747,-0.344047153,842,29,8.11181641,-2.31269693,-0.134458168,-9.24325834,8.6743508,9.38078594,10.3879454,0.41153888,0.183076853,0.00910780482,2026-02-15T09:29:15.448Z
1130.486938,2061.06735,0.980000019,-0.21061331,3.35542774,12.3072653,2.4972651,2.32258868,1.14192143,14.7617376,90.0072158,1.42894138,21,1771147755457034,-35.7213505,4.98845319,0.605011006,99.4453354,49.1842744,-0.344046858,842,29,8.09470177,-2.31748462,-0.184070025,-8.93713905,8.70779887,9.33553123,10.3727243,0.41051317,0.183247805,0.014714489,2026-02-15T09:29:15.457Z
1130.496948,2061.08987,0.980000019,-0.202336833,2.1753943,11.9597044,2.14970398,2.3190341,1.14993972,14.7284871,90.3194004,1.43022397,21,1771147755465704,-42.903084,4.47055661,0.575184097,99.9144897,49.1842741,-0.344046564,842,29,8.07758713,-2.3222723,-0.23132143,-8.54443535,8.74131405,9.29027653,10.3485158,0.409487461,0.183418757,0.0206098446,2026-02-15T09:29:15.465Z
1130.506958,2061.11255,0.980000019,0.147949561,0.414921463,12.2317505,2.42174959,2.31545448,1.157958,14.6952365,90.631585,1.43150656,21,1771147755474435,-46.005959,3.56244257,0.311950422,100.386932,49.1842737,-0.344046267,842,29,8.06047249,-2.32705998,-0.271451647,-8.10033903,8.77513155,9.24470043,10.3251696,0.408461751,0.183589708,0.0250424648,2026-02-15T09:29:15.474Z
1130.516968,2061.13518,0.980000019,0.918360054,-0.540956318,12.2120438,2.4020431,2.31188178,1.16597629,14.661986,90.9437696,1.43278915,21,1771147755483148,-43.3099299,2.53916136,-0.089253428,100.858459,49.1842734,-0.344045971,842,29,8.04335785,-2.33184767,-0.301934881,-7.65418221,8.8089485,9.19921494,10.3149779,0.407436042,0.18376066,0.0261568156,2026-02-15T09:29:15.483Z
1130.526978,2061.1577,0.980000019,2.07278872,-0.876420021,11.8585978,2.04859757,2.30832767,1.17399458,14.6287355,91.2559542,1.43407175,21,1771147755491817,-36.6619429,1.49317,-0.466496597,101.327454,49.1842731,-0.344045676,842,29.0000076,8.02624321,-2.33663535,-0.322081968,-7.25468055,8.84265721,9.15396309,10.3329203,0.406410332,0.183931611,0.023382616,2026-02-15T09:29:15.491Z
