T,D,PDOP,acc_x,acc_y,acc_z,acc_z_,altitude,amp_pitch,amp_roll,cadence,d_stroke,gpsTimeAccuracyNs,gpstimeUs,gyro_x,gyro_y,gyro_z,heading,latitude,longitude,motif_id,nSat,pic_acc,pic_down,pitch,roll,speed,speed_gps,speed_i,t_acc,t_down,yaw,time
1158.005859,2343.48625,1.57000005,0.487085164,0.835033417,10.0413218,0.231321603,5.08192492,1.0482266,9.3961863,59.2488467,0.790712796,23,1771147871677773,-6.10752778,-0.49142688,1.96846102,52.9579506,49.1843338,-0.3440738,987,15,7.99544716,-1.92651391,-0.452384337,-2.73457624,3.79302015,0.754113376,3.83542527,1.36681222,0.0909269181,2.46709485,2026-02-15T09:31:11.677Z
1158.015869,2343.4911,1.57000041,0.425525934,0.75151217,10.0545301,0.24452965,5.08069038,1.05357204,9.45183668,59.2964694,0.794782951,23,1771147871687267,-7.34047273,-0.55947025,2.03578289,53.9832077,49.1843338,-0.344073763,987,15,8.02491379,-1.95312917,-0.447135309,-2.66740783,3.81689724,0.764017582,3.85252168,1.35595873,0.0921556157,2.48709621,2026-02-15T09:31:11.687Z
1158.025879,2343.49594,1.57015443,0.357931048,0.801151454,10.0084457,0.198445171,5.07943296,1.05891747,9.50748707,59.3440921,0.798853105,23,1771147871696762,-7.89685173,-0.583731756,2.15307355,54.9255409,49.1843338,-0.344073728,987,15,8.05438137,-1.97974443,-0.441424994,-2.59129826,3.8408587,0.770991802,3.86747206,1.34510523,0.0933843133,2.50801949,2026-02-15T09:31:11.696Z
1158.035889,2343.50082,1.57120788,0.350081205,0.690983593,10.064806,0.254805356,5.07803392,1.06426291,9.56313745,59.3917147,0.802923259,23,1771147871706309,-7.78777807,-0.553326195,2.15560697,55.3878403,49.1843338,-0.3440737,987,15,8.083848,-2.00635958,-0.435745103,-2.51295109,3.86503769,0.760860145,3.8800793,1.33425174,0.0946130109,2.52954186,2026-02-15T09:31:11.706Z
1158.045898,2343.5057,1.57311928,0.366512388,0.646293938,10.0632296,0.253229529,5.07650471,1.06960834,9.61878784,59.4393374,0.806993413,23,1771147871715865,-7.02155167,-0.621464944,2.12743703,55.3878403,49.1843338,-0.34407368,987,15,8.11331558,-2.03297496,-0.429877041,-2.43897484,3.88932603,0.734367907,3.89251914,1.32339824,0.0958417085,2.55093625,2026-02-15T09:31:11.715Z
1158.055908,2343.51055,1.57501805,0.377405256,0.63693589,10.0551071,0.245107114,5.0749855,1.07495377,9.67443822,59.4869601,0.811063568,23,1771147871725360,-6.0655057,-0.670071716,2.12986741,55.3878403,49.1843338,-0.34407366,987,15,8.14278221,-2.0595901,-0.423425421,-2.37360806,3.91353715,0.708049893,3.90566881,1.31254475,0.0970704061,2.57220202,2026-02-15T09:31:11.725Z
1158.065918,2343.51539,1.57691693,0.397052139,0.668656349,10.1490755,0.339074939,5.0734663,1.08029921,9.73008861,59.5345827,0.815133722,23,1771147871734854,-5.08660798,-0.687831273,2.10133941,55.3878403,49.1843338,-0.344073641,987,15,8.17224979,-2.08620548,-0.416642444,-2.31790665,3.93782984,0.681731939,3.91932075,1.30169125,0.0982991037,2.59333728,2026-02-15T09:31:11.734Z
1158.075928,2343.52024,1.5788157,0.433114141,0.802790105,10.1238508,0.313850343,5.07194757,1.08564464,9.78573899,59.5822054,0.819203876,23,1771147871744348,-4.46364229,-0.736486624,2.14228162,55.3878403,49.1843338,-0.344073621,987,15,8.20171642,-2.11282063,-0.409527565,-2.27020501,3.96220344,0.655413985,3.93378559,1.29083775,0.0995278013,2.61453488,2026-02-15T09:31:11.744Z
1158.085938,2343.52509,1.5807147,0.477411121,0.726909876,10.1295471,0.319546461,5.07042837,1.09099008,9.84138938,59.6298281,0.82327403,23,1771147871753842,-4.05130139,-0.715629517,2.21428804,55.3878403,49.1843338,-0.344073601,987,15,8.23118305,-2.13943577,-0.402274171,-2.22767382,3.98665721,0.629096031,3.94964639,1.27998426,0.100756499,2.63629683,2026-02-15T09:31:11.753Z
1158.095947,2343.52994,1.58261347,0.493700713,0.515132427,10.1681232,0.358122557,5.06890917,1.09633551,9.89703976,59.6774507,0.827344185,23,1771147871763337,-3.25139436,-0.644214584,2.25510245,55.3878403,49.1843338,-0.344073581,987,15,8.26065063,-2.16605115,-0.395481932,-2.19119985,4.01119041,0.602778077,3.96718616,1.26913076,0.101985197,2.65862217,2026-02-15T09:31:11.763Z
1158.105835,2343.53479,1.58451223,0.417060077,0.308264226,10.1892414,0.379240543,5.06739044,1.10168095,9.95269015,59.7250734,0.831414339,23,1771147871772832,-2.58856961,-0.571707796,2.30795488,55.3878403,49.1843338,-0.344073561,987,15,8.29011726,-2.19266629,-0.389334453,-2.16167543,4.03580223,0.576460183,3.98558748,1.25827727,0.103213894,2.68169371,2026-02-15T09:31:11.772Z
1158.115845,2343.53963,1.58641112,0.323296845,0.386692405,10.1627598,0.352759689,5.06587124,1.10702638,10.0083405,59.772696,0.835484493,23,1771147871782325,-1.49339693,-0.500165671,2.27871016,55.3878403,49.1843338,-0.344073542,987,15,8.31958485,-2.21928167,-0.383979968,-2.14128022,4.06049189,0.550142229,4.00109184,1.24742377,0.104442592,2.70460481,2026-02-15T09:31:11.782Z
1158.125854,2343.54448,1.58830774,0.236413121,0.498235792,10.1993093,0.38930881,5.06435633,1.11237182,10.0639909,59.8203187,0.839554647,23,1771147871791821,-0.374228146,-0.447859936,2.31888871,55.3878136,49.1843338,-0.344073522,987,15,8.34905148,-2.24589682,-0.379244208,-2.13194578,4.08525864,0.523886204,4.01331551,1.23657028,0.105671289,2.72757018,2026-02-15T09:31:11.791Z
1158.135864,2343.54933,1.58964193,0.146685079,0.588410735,10.1459932,0.335992545,5.06381941,1.11771725,10.1196413,59.8679414,0.843624801,23,1771147871801612,0.466155293,-0.465154086,2.39051308,55.3809242,49.1843338,-0.344073501,987,15,8.37851906,-2.2725122,-0.374683675,-2.13240089,4.11010165,0.512583971,4.0225398,1.22571678,0.106899987,2.75109387,2026-02-15T09:31:11.801Z
1158.145874,2343.55418,1.59000003,0.143587276,0.66779238,10.1153955,0.305395395,5.06497955,1.12306268,10.1752917,59.915564,0.847694956,23,1771147871811916,1.06602163,-0.514192288,2.43015202,55.3621368,49.1843338,-0.34407348,987,15,8.40798569,-2.29912734,-0.36979196,-2.14005139,4.13502011,0.52723223,4.02869001,1.21486329,0.108128685,2.77517349,2026-02-15T09:31:11.811Z
1158.155884,2343.55903,1.59000003,0.183190808,0.526846766,10.164938,0.354937583,5.06676388,1.12840812,10.2309421,59.9631867,0.85176511,23,1771147871822408,1.6963149,-0.512363992,2.48276048,55.3389778,49.1843338,-0.344073458,987,15,8.43745327,-2.32574248,-0.364664177,-2.15384653,4.16001335,0.551406682,4.0349148,1.20400979,0.109357382,2.79971383,2026-02-15T09:31:11.822Z
1158.165894,2343.5639,1.59000003,0.169977888,0.561252773,10.0928764,0.282875806,5.06855726,1.13375355,10.2865925,60.0108094,0.855835264,23,1771147871832959,2.70205187,-0.491764532,2.45206365,55.3156891,49.1843338,-0.344073436,987,15,8.4669199,-2.35235786,-0.359648332,-2.17581201,4.18522007,0.575715661,4.04275329,1.1931563,0.11058608,2.82436403,2026-02-15T09:31:11.832Z
1158.175903,2343.56878,1.59000003,0.111703478,0.517394781,10.1078901,0.297890097,5.07035255,1.13909899,10.3422428,60.058432,0.859905418,23,1771147871843521,3.74015431,-0.438791679,2.43486782,55.2923698,49.1843338,-0.344073414,987,15,8.49638748,-2.37897301,-0.355000222,-2.20799418,4.21052713,0.600050092,4.05029026,1.1823028,0.111814777,2.8487748,2026-02-15T09:31:11.843Z
1158.185913,2343.57363,1.59000003,0.0677383691,0.560666502,10.0973635,0.287362993,5.0721364,1.14444442,10.3978932,60.1060547,0.863975573,23,1771147871854013,4.76439815,-0.418297967,2.35253829,55.2692108,49.1843338,-0.344073392,987,15,8.52585411,-2.40558839,-0.350719054,-2.25048045,4.23574008,0.624224544,4.05590847,1.1714493,0.113043475,2.87268808,2026-02-15T09:31:11.854Z
1158.195923,2343.57848,1.59000003,0.0431515574,0.603235126,9.98939991,0.179399416,5.07392025,1.14978986,10.4535436,60.1536774,0.868045727,23,1771147871864505,5.79818341,-0.346687584,2.3537215,55.2460518,49.1843338,-0.34407337,987,15,8.55532169,-2.43220353,-0.346898207,-2.30324686,4.26102414,0.648398817,4.06014124,1.16059581,0.114272173,2.89619643,2026-02-15T09:31:11.864Z
1158.205933,2343.58332,1.59000003,0.0506588407,0.526032269,10.026535,0.216534376,5.07570362,1.15513529,10.509194,60.2013,0.872115881,23,1771147871874998,6.68696327,-0.274982259,2.32218764,55.2228928,49.1843338,-0.344073348,987,15,8.58478832,-2.45881891,-0.343793238,-2.365616,4.2863786,0.67257309,4.06370005,1.14974231,0.11550087,2.91955301,2026-02-15T09:31:11.874Z
1158.215942,2343.58817,1.59000003,0.0943252742,0.679474533,10.0006132,0.190613106,5.07748747,1.16048073,10.5648444,60.2489227,0.876186035,23,1771147871885490,7.71703087,-0.240010084,2.30482622,55.1997337,49.1843338,-0.344073326,987,15,8.61425591,-2.48543406,-0.341220957,-2.4375707,4.31180262,0.696747422,4.0677466,1.13888882,0.116729568,2.94266543,2026-02-15T09:31:11.885Z
1158.225952,2343.59302,1.59000003,0.210702389,0.871094108,9.84170532,0.031704843,5.07916594,1.16582616,10.6204948,60.2965454,0.880256189,23,1771147871895893,8.12301897,-0.324533404,2.20390333,55.188179,49.1843338,-0.344073304,987,15,8.64372253,-2.5120492,-0.338400579,-2.51669561,4.33729534,0.719427824,4.07357717,1.12803532,0.117958265,2.96518659,2026-02-15T09:31:11.895Z
1158.235840,2343.59787,1.59000003,0.465459257,0.762381732,9.92688847,0.116888478,5.08005333,1.1711716,10.6761452,60.344168,0.884326344,23,1771147871905624,8.066737,-0.427834218,2.15409543,55.2644539,49.1843338,-0.34407328,987,15,8.67318916,-2.53866458,-0.334596521,-2.59855269,4.36285588,0.730799973,4.08396611,1.11718183,0.119186963,2.98722105,2026-02-15T09:31:11.905Z
1158.245850,2343.60272,1.59000003,1.016711,0.598666072,9.75671196,-0.0532886237,5.08014393,1.17651703,10.7317955,60.3917907,0.888396498,23,1771147871914678,8.18117969,-0.457814897,2.07128309,55.4290543,49.1843338,-0.344073253,987,15,8.70265675,-2.56527972,-0.330172736,-2.67971249,4.38848347,0.730799973,4.10347323,1.10632833,0.120415661,3.00832773,2026-02-15T09:31:11.914Z
1158.255859,2343.60756,1.59000003,2.13732052,0.817789316,9.55880165,-0.251198351,5.080235,1.18186246,10.7874459,60.4394134,0.892466652,23,1771147871923731,8.94918681,-0.595663624,1.84923735,55.5936584,49.1843338,-0.344073226,987,15,8.73212337,-2.5918951,-0.32491115,-2.76527703,4.41417731,0.730799973,4.14284741,1.09547484,0.121644358,3.02791228,2026-02-15T09:31:11.923Z
1158.265869,2343.61241,1.59000003,3.65611005,1.98402476,9.4918251,-0.318174839,5.0803256,1.1872079,10.8430963,60.487036,0.896536806,23,1771147871932783,9.19384653,-0.734127537,1.59707198,55.7582626,49.1843338,-0.344073199,987,15,8.76159096,-2.61851025,-0.318269347,-2.85590239,4.43993658,0.730799973,4.22237386,1.08462134,0.122873056,3.04512824,2026-02-15T09:31:11.932Z
1158.275879,2343.61726,1.59000003,5.14464521,2.57139277,9.5837698,-0.226230755,5.08041573,1.19255333,10.8987467,60.5346587,0.900606961,23,1771147871941836,4.98438549,-1.10516653,1.63109184,55.9228668,49.1843338,-0.344073172,987,15,8.79105759,-2.64512563,-0.309083641,-2.92674475,4.46576072,0.730799973,4.35598772,1.07376784,0.124101753,3.06125315,2026-02-15T09:31:11.941Z
1158.285889,2343.62214,1.59000003,5.81414938,3.07041073,9.89630222,0.0863015726,5.0805068,1.19789877,10.9543971,60.5822814,0.904677115,23,1771147871950939,-5.05550397,-2.15202874,1.68829776,56.0883904,49.1843338,-0.344073145,987,15,8.82052517,-2.67174077,-0.292818655,-2.92643844,4.49179289,0.730799973,4.54208894,1.06291435,0.125330451,3.07783363,2026-02-15T09:31:11.950Z
1158.295898,2343.62702,1.59000003,4.91502476,2.20765471,10.1643114,0.354311287,5.08059788,1.2032442,11.0100475,60.629904,0.908747269,23,1771147871960052,-11.0909169,-2.78569715,1.49857254,56.2540817,49.1843338,-0.344073117,987,15,8.8499918,-2.69835591,-0.268155634,-2.84579959,4.51791621,0.730799973,4.75071654,1.05206085,0.126559149,3.09375289,2026-02-15T09:31:11.960Z
1158.305908,2343.63186,1.59000003,5.04006195,0.435031235,10.6298323,0.819832027,5.08068848,1.20858964,11.0656979,60.6775267,0.912817423,23,1771147871969106,-12.978843,-3.46301749,0.711180945,56.4186859,49.1843338,-0.34407309,987,15,8.87945938,-2.72497129,-0.23693924,-2.72555901,4.54393019,0.730799973,4.92515907,1.04120736,0.127787846,3.10478704,2026-02-15T09:31:11.969Z
1158.315918,2343.63671,1.59000003,4.56180048,0.740228176,10.3326044,0.522604167,5.08077908,1.21393507,11.1213482,60.7251494,0.916887578,23,1771147871978159,-13.0240538,-3.45897838,-0.276126004,56.5832901,49.1843338,-0.344073063,987,15,8.90892601,-2.75158644,-0.202363054,-2.59567117,4.57000569,0.730799973,5.10261572,1.03035386,0.129016544,3.10695538,2026-02-15T09:31:11.978Z
1158.325928,2343.64156,1.59000003,5.42401934,-0.669565022,10.9603338,1.15033305,5.0808692,1.21928051,11.1769986,60.772772,0.920957732,23,1771147871987212,-12.8240884,-3.79405565,-0.775368286,56.7478943,49.1843338,-0.344073036,987,15,8.93839359,-2.77820182,-0.16613163,-2.46655752,4.59614202,0.730799973,5.26135945,1.01950037,0.130245242,3.10170063,2026-02-15T09:31:11.987Z
1158.335938,2343.64641,1.59004331,5.78471518,-0.564100981,11.5134125,1.70341194,5.0808692,1.22462594,11.232649,60.8203947,0.925027886,23,1771147871996285,-9.76302666,-3.56925617,-1.87389474,56.9701843,49.1843338,-0.344073006,987,15,8.96786022,-2.80481696,-0.129352096,-2.35374705,4.62233845,0.736713111,5.44978788,1.00864687,0.131473939,3.08846189,2026-02-15T09:31:11.996Z
1158.345947,2343.65126,1.59053183,5.51289082,1.44548154,10.5225687,0.712568641,5.07993603,1.22997138,11.2882994,60.8680173,0.92909804,23,1771147872005565,-5.6970956,-3.31794701,-2.91480922,57.7849312,49.1843338,-0.344072939,987,15,8.9973278,-2.83143234,-0.0949508934,-2.27654157,4.64859431,0.803358614,5.64956798,0.997793375,0.132702637,3.0645367,2026-02-15T09:31:12.005Z
1158.355835,2343.6561,1.59147894,4.8476181,0.0289216638,9.47408485,-0.335915595,5.07804203,1.23531681,11.3439498,60.91564,0.933168194,23,1771147872015059,-3.21297723,-3.29734975,-3.82326054,59.2100906,49.1843338,-0.344072834,988,15,9.02679443,-2.85804749,-0.0615036561,-2.23150371,4.67490887,0.93257618,5.83998208,0.98693988,0.133931334,3.03046407,2026-02-15T09:31:12.015Z
1158.365845,2343.66095,1.59242833,3.66022944,0.462209851,10.9443884,1.13438773,5.07614326,1.24066224,11.3996002,60.9632627,0.937238349,23,1771147872024553,-1.21107116,-3.79018658,-4.84225073,60.6383858,49.1843338,-0.34407273,988,15,9.05626202,-2.88466263,-0.0261029143,-2.20939519,4.70128149,1.06211507,6.00272969,0.976086384,0.135160032,2.98718373,2026-02-15T09:31:12.024Z
1158.375854,2343.6658,1.59337771,3.4456954,1.58732319,9.57252502,-0.237475038,5.07424402,1.24600768,11.4552506,61.0108853,0.941308503,23,1771147872034047,-3.09179106,-4.54097181,-5.21064105,62.0666809,49.1843338,-0.344072625,988,15,9.08572865,-2.91127801,0.0155085965,-2.18791093,4.72771155,1.19165409,6.121376,0.965232889,0.13638873,2.9369701,2026-02-15T09:31:12.034Z
1158.385864,2343.67065,1.59432709,3.14248157,0.756347299,10.324028,0.514027953,5.07234526,1.25135311,11.5109009,61.058508,0.945378657,23,1771147872043542,-5.95331612,-5.05936779,-5.44691168,63.494976,49.1843338,-0.34407252,988,15,9.11519527,-2.93789315,0.063460935,-2.14274346,4.75419843,1.3211931,6.23138834,0.954379393,0.137617427,2.88373545,2026-02-15T09:31:12.043Z
1158.395874,2343.6755,1.59527647,2.34018397,2.35758686,8.99377346,-0.816226542,5.07044649,1.25669855,11.5665513,61.1061307,0.949448811,23,1771147872053035,-6.20679468,-5.06497028,-6.44131301,64.9232712,49.1843338,-0.344072416,988,15,9.14466286,-2.96450853,0.114033219,-2.08200343,4.78074154,1.45073211,6.32967866,0.943525898,0.138846125,2.82435716,2026-02-15T09:31:12.053Z
1158.405884,2343.68034,1.59622598,1.78616583,0.627271533,9.6960907,-0.113909952,5.06854773,1.26204398,11.6222017,61.1537533,0.953518966,23,1771147872062530,-7.75568768,-5.43166749,-6.84790229,66.3515701,49.1843338,-0.344072311,988,15,9.17412949,-2.99112368,0.166463414,-2.01226668,4.80734046,1.58027196,6.3983887,0.932672402,0.140074822,2.75797788,2026-02-15T09:31:12.062Z
1158.415894,2343.68522,1.59718072,1.73978019,-0.783089519,10.0022373,0.192236573,5.06663847,1.26738942,11.6778521,61.201376,0.95758912,23,1771147872072077,-7.75546914,-5.26916405,-7.51621335,67.7878189,49.1843338,-0.344072206,988,15,9.20359707,-3.01773906,0.219916166,-1.93478656,4.83414294,1.71053267,6.44673482,0.921818906,0.14130352,2.68623063,2026-02-15T09:31:12.072Z
1158.425903,2343.6901,1.59813643,2.14292574,1.48182881,9.92943287,0.119432643,5.06472731,1.27273485,11.7335025,61.2489987,0.961659274,23,1771147872081634,-8.71529223,-5.58047971,-7.95608315,69.2255783,49.1843338,-0.3440721,988,15,9.2330637,-3.0443542,0.274112231,-1.85251072,4.86102878,1.84092975,6.49319218,0.910965411,0.142532218,2.60894353,2026-02-15T09:31:12.081Z
1158.435913,2343.69495,1.59908581,2.63962436,-0.491449088,9.92551327,0.115512796,5.06282854,1.27808029,11.7891529,61.2966213,0.965729428,23,1771147872091128,-8.88042249,-5.09407289,-8.00463992,70.6538773,49.1843338,-0.344071996,988,15,9.26253128,-3.07096934,0.327430548,-1.76461718,4.88779201,1.97046959,6.55395652,0.900111915,0.143760915,2.52921754,2026-02-15T09:31:12.091Z
1158.445923,2343.70277,1.59978211,3.14187574,-0.290971518,10.2282763,0.418275565,5.06057262,1.28342572,11.8448032,61.344244,0.969799582,23,1771147872101412,-4.13131342,-5.04668717,-9.06267645,71.9456177,49.1843338,-0.344071869,988,15,9.29199791,-3.09758472,0.378084658,-1.69964514,4.91460865,2.09978509,6.63224487,0.88925842,0.144989613,2.44395906,2026-02-15T09:31:12.101Z
1158.455933,2343.71623,1.59999919,3.63006854,1.27003109,9.55315685,-0.256843269,5.05764008,1.28877116,11.9004536,61.3918667,0.973869737,23,1771147872113191,-0.74449793,-4.52840941,-9.77180256,72.9788589,49.1843338,-0.344071702,988,15,9.32146549,-3.12419987,0.425910906,-1.67530627,4.94147834,2.22867846,6.7280824,0.878404924,0.14621831,2.3498751,2026-02-15T09:31:12.113Z
1158.465942,2343.73223,1.60000002,3.60682344,0.699925303,11.3257799,1.5157795,5.05440235,1.29411659,11.956104,61.4394893,0.977939891,23,1771147872125646,-2.13694662,-3.81328808,-9.90098776,73.8954163,49.1843338,-0.344071517,988,15,9.35093212,-3.15081525,0.467575232,-1.66090619,4.96840064,2.35738111,6.84078871,0.867551429,0.147447008,2.25160651,2026-02-15T09:31:12.125Z
1158.475952,2343.74824,1.60000002,3.16081738,1.24569094,10.1330471,0.323046982,5.0511632,1.29946202,12.0117544,61.487112,0.982010045,23,1771147872138102,-5.37403892,-2.84909156,-10.4140937,74.8115311,49.1843338,-0.344071331,988,15,9.3803997,-3.17743039,0.50084996,-1.62337217,4.99537512,2.48608327,6.95180207,0.856697933,0.148675706,2.15012771,2026-02-15T09:31:12.138Z
1158.485840,2343.76424,1.60000002,2.53985453,0.843315303,10.1553183,0.345317662,5.047925,1.30480746,12.0674048,61.5347347,0.986080199,23,1771147872150559,-7.05979884,-2.32384991,-10.4061217,75.7276535,49.1843338,-0.344071146,988,15,9.40986633,-3.20404553,0.527004617,-1.56050383,5.02240132,2.61478496,7.04695477,0.845844438,0.149904403,2.04485866,2026-02-15T09:31:12.150Z
1158.495850,2343.78025,1.60000002,2.49508023,0.344753832,9.78385067,-0.0261502005,5.04468632,1.31015289,12.1230552,61.5823573,0.990150354,23,1771147872163015,-4.86606357,-2.18111923,-10.8939688,76.6437759,49.1843338,-0.34407096,988,15,9.43933392,-3.23066092,0.549508168,-1.50092214,5.04947891,2.74348688,7.11807655,0.834990942,0.151133101,1.93846448,2026-02-15T09:31:12.163Z
1158.505859,2343.79626,1.60000002,2.48064351,-0.306117326,9.46790504,-0.342095017,5.04144716,1.31549833,12.1787056,61.62998,0.994220508,23,1771147872175472,-1.44795123,-1.83030866,-11.1315692,77.5598907,49.1843338,-0.344070774,988,15,9.46880054,-3.25727606,0.569547447,-1.46936632,5.07660754,2.87218881,7.18714697,0.824137447,0.152361798,1.82844538,2026-02-15T09:31:12.175Z
1158.515869,2343.81227,1.59999835,2.80464029,0.196135715,9.76600838,-0.0439921655,5.03821135,1.32084376,12.2343559,61.6776027,0.998290662,23,1771147872187926,2.16467025,-1.73045355,-11.2996006,78.4754333,49.1843338,-0.344070589,988,15,9.49826717,-3.28389144,0.58733437,-1.47292889,5.10378686,3.00082588,7.25526727,0.813283951,0.153590496,1.71639976,2026-02-15T09:31:12.187Z
1158.525879,2343.82828,1.59937048,3.28709555,0.928589344,9.592906,-0.217094138,5.03612375,1.3261892,12.2900063,61.7252253,1.00236082,23,1771147872199339,5.42929229,-1.53258328,-11.6077618,79.1723785,49.1843338,-0.344070419,988,15,9.52773476,-3.31050658,0.603634599,-1.51084576,5.13101682,3.10524631,7.3346256,0.802430456,0.154819194,1.6019762,2026-02-15T09:31:12.199Z
1158.535889,2343.84438,1.5974704,3.78436112,2.12707496,9.49651527,-0.313485384,5.03634882,1.33153463,12.3456567,61.772848,1.00643097,23,1771147872208702,7.02863173,-1.3495784,-11.7493083,79.4302902,49.1843338,-0.344070279,988,15,9.55720139,-3.33712196,0.618032239,-1.57306679,5.15844873,3.1611836,7.43081421,0.79157696,0.156047891,1.48530547,2026-02-15T09:31:12.208Z
1158.545898,2343.86049,1.59496129,4.12605953,1.89896309,9.67159081,-0.138409153,5.03768682,1.33688007,12.4013071,61.8204707,1.01050112,23,1771147872217066,5.60041894,-1.01180524,-11.6938146,79.4765549,49.1843338,-0.344070154,988,15,9.58666897,-3.36373711,0.629828449,-1.63615387,5.18595982,3.19370151,7.54420849,0.780723464,0.157276589,1.36820408,2026-02-15T09:31:12.217Z
1158.555908,2343.8765,1.59246874,4.15770912,2.31624031,10.5081625,0.698161721,5.03901672,1.3422255,12.4569575,61.8680933,1.01457128,23,1771147872225374,3.51905501,-0.784472057,-11.7374392,79.5225296,49.1843338,-0.344070031,988,15,9.6161356,-3.39035225,0.638799965,-1.68169661,5.21333965,3.22600579,7.66904224,0.769869969,0.158505287,1.2511619,2026-02-15T09:31:12.225Z
1158.565918,2343.89251,1.58997619,3.89442587,2.25665188,9.87226772,0.0622671247,5.04034615,1.34757094,12.5126079,61.915716,1.01864143,23,1771147872233683,0.71524514,-0.782098963,-11.7250849,79.5684891,49.1843338,-0.344069907,988,15,9.64560318,-3.41696763,0.646625169,-1.7028338,5.24076874,3.2583096,7.79404067,0.759016473,0.159733984,1.13396379,2026-02-15T09:31:12.233Z
1158.575928,2343.90852,1.58748353,3.46554852,1.93601418,10.0577898,0.247789189,5.04167509,1.35291637,12.5682583,61.9633387,1.02271159,23,1771147872241991,-1.31538089,-0.766601167,-11.7664696,79.6144485,49.1843338,-0.344069783,988,15,9.67506981,-3.44358277,0.65436104,-1.6998262,5.26824694,3.29061365,7.90859543,0.748162978,0.160962682,1.01662041,2026-02-15T09:31:12.241Z
1158.585938,2343.92453,1.58499098,2.88571668,2.17546535,10.563323,0.753323078,5.04300451,1.3582618,12.6239086,62.0109613,1.02678174,23,1771147872250300,-2.1259295,-0.761368839,-12.0199376,79.660408,49.1843338,-0.344069659,988,15,9.70453739,-3.47019815,0.661993411,-1.68263255,5.29577404,3.32291746,8.00685579,0.737309482,0.162191379,0.897803169,2026-02-15T09:31:12.250Z
1158.595947,2343.94054,1.58249831,2.42244196,1.49956179,10.3158178,0.505816936,5.04433441,1.36360724,12.679559,62.058584,1.0308519,23,1771147872258609,-2.20792615,-0.958142036,-12.2312745,79.7063675,49.1843338,-0.344069535,988,15,9.73400402,-3.4968133,0.670583538,-1.66098404,5.32334987,3.35522151,8.08355596,0.726455987,0.163420077,0.776664387,2026-02-15T09:31:12.258Z
1158.605835,2343.95655,1.58000576,2.00749493,1.18514764,10.0220842,0.212084025,5.04566336,1.36895267,12.7352094,62.1062066,1.03492205,23,1771147872266917,-0.766669317,-0.829958262,-12.5158852,79.7523346,49.1843338,-0.344069412,988,15,9.7634716,-3.52342868,0.679623806,-1.6459504,5.35097426,3.38752532,8.14373744,0.715602491,0.164648775,0.651539026,2026-02-15T09:31:12.266Z
1158.615845,2343.97256,1.57751322,1.75769699,0.985029519,10.3886442,0.57864362,5.04699278,1.37429811,12.7908598,62.1538293,1.0389922,23,1771147872275226,1.25922077,-0.758097514,-12.8539596,79.7983017,49.1843338,-0.344069288,988,15,9.79293823,-3.55004382,0.687556686,-1.64840102,5.37864706,3.41982961,8.18804528,0.704748996,0.165877472,0.52481519,2026-02-15T09:31:12.275Z
1158.625854,2343.98856,1.57502055,1.68428838,0.851569831,10.3062639,0.496263623,5.04832268,1.37964354,12.8465102,62.201452,1.04306236,23,1771147872283534,4.10356038,-0.7126772,-13.1921661,79.8442612,49.1843338,-0.344069164,988,15,9.82240582,-3.57665896,0.694903609,-1.67517498,5.40636818,3.45213342,8.22319673,0.6938955,0.16710617,0.394713252,2026-02-15T09:31:12.283Z
1158.635864,2344.00457,1.57252991,1.77459788,1.34377909,9.67568493,-0.134315431,5.04964972,1.38498898,12.9021606,62.2490746,1.04713251,23,1771147872291846,6.50474677,-0.767365987,-13.5042903,79.8898697,49.1843338,-0.34406904,988,15,9.85187244,-3.60327435,0.70229634,-1.72815307,5.43413751,3.48455143,8.25562807,0.683042005,0.168334867,0.261362713,2026-02-15T09:31:12.291Z
1158.645874,2344.02058,1.5706389,2.14327693,1.75772369,10.0651541,0.255153388,5.05043221,1.39033441,12.957811,62.2966973,1.05120267,23,1771147872300979,7.00636039,-0.817553124,-13.6902332,79.8244171,49.1843338,-0.344068884,988,15,9.88134003,-3.62988949,0.710212966,-1.79564021,5.46195497,3.55296421,8.29125103,0.672188509,0.169563565,0.125523657,2026-02-15T09:31:12.300Z
1158.655884,2344.03659,1.57000005,2.30935884,1.88066161,9.98001957,0.17001909,5.05007601,1.39567985,13.0134613,62.34432,1.05527282,23,1771147872311829,5.08283325,-1.12078939,-13.79377,79.5270233,49.1843338,-0.34406866,988,15,9.91080666,-3.65650487,0.71989375,-1.85603655,5.48982066,3.69654298,8.34006273,0.661335013,0.170792263,-0.0117617858,2026-02-15T09:31:12.311Z
1158.665894,2344.05269,1.57000005,2.09154344,1.68539357,9.35322952,-0.45677045,5.04913282,1.40102528,13.0691117,62.3919426,1.05934298,23,1771147872323619,1.08337801,-1.57626809,-13.7709108,79.1090164,49.1843338,-0.3440684,988,15,9.94027328,-3.68312001,0.73336366,-1.88685702,5.51788981,3.87948084,8.39465183,0.650481518,0.17202096,-0.14945084,2026-02-15T09:31:12.323Z
1158.675903,2344.0688,1.57000005,1.79188335,0.835180283,9.64475822,-0.165242255,5.04818821,1.40637072,13.1247621,62.4395653,1.06341313,23,1771147872335422,-4.97175346,-2.17738652,-13.6912555,78.6905518,49.1843338,-0.344068139,988,15,9.96974087,-3.70973539,0.752115112,-1.86741911,5.54603695,4.06261015,8.44113702,0.639628022,0.173249658,-0.286627512,2026-02-15T09:31:12.335Z
1158.685913,2344.08481,1.57000005,1.56162429,0.309079707,9.4473772,-0.362623066,5.04725027,1.41171615,13.1804125,62.487188,1.06748328,23,1771147872347147,-6.98725999,-2.5756936,-13.6118432,78.2748489,49.1843338,-0.344067881,988,15,9.9992075,-3.73635054,0.775859265,-1.80767259,5.57404706,4.24453545,8.47665913,0.628774527,0.174478355,-0.423009433,2026-02-15T09:31:12.347Z
1158.695923,2344.10082,1.57000005,1.36193335,-0.333547026,9.45743942,-0.352561355,5.04631233,1.41706158,13.2360629,62.5348106,1.07155344,23,1771147872358872,-7.70210218,-2.56161208,-13.5578451,77.8591537,49.1843338,-0.344067622,988,15,10.0286751,-3.76296568,0.801520658,-1.73429398,5.60210491,4.42645931,8.50382497,0.617921031,0.175707053,-0.558725078,2026-02-15T09:31:12.358Z
1158.705933,2344.11683,1.57000005,1.36981332,-0.275761217,9.55641174,-0.253589034,5.04537439,1.42240702,13.2917133,62.5824333,1.07562359,23,1771147872370597,-6.917531,-2.48971182,-13.6183449,77.4434509,49.1843338,-0.344067364,988,15,10.0581417,-3.78958106,0.826752287,-1.66127098,5.63021064,4.60838318,8.52381786,0.607067536,0.176935751,-0.694473758,2026-02-15T09:31:12.370Z
1158.715942,2344.13284,1.57000005,1.59648442,-0.351752669,9.8290987,0.0190987103,5.04443645,1.42775245,13.3473637,62.630056,1.07969375,23,1771147872382322,-6.08427527,-2.41765111,-13.6669781,77.0277481,49.1843338,-0.344067105,988,15,10.0876093,-3.8161962,0.851264814,-1.59632941,5.65836423,4.79030752,8.54417519,0.59621404,0.178164448,-0.830767508,2026-02-15T09:31:12.382Z
1158.725952,2344.14885,1.57000005,1.73818576,-0.113845676,9.33058548,-0.479414523,5.0434947,1.43309789,13.403014,62.6776786,1.0837639,23,1771147872394035,-5.41998325,-2.35792635,-13.6229656,76.6153717,49.1843338,-0.344066847,988,15,10.1170759,-3.84281158,0.875119118,-1.53886743,5.68656568,4.97135305,8.57276257,0.585360545,0.179393146,-0.967083888,2026-02-15T09:31:12.394Z
1158.735840,2344.16486,1.57000005,1.79880679,0.0517166778,9.7849369,-0.0250634924,5.04224396,1.43583119,13.4765859,62.8235263,1.0881017,23,1771147872404721,-5.33380428,-2.3556387,-13.4098053,76.4803085,49.1843338,-0.344066615,988,15,10.1092033,-3.85197878,0.898951329,-1.48449555,5.71481496,5.07905149,8.60686563,0.579073447,0.18021382,-1.10376427,2026-02-15T09:31:12.404Z
1158.745850,2344.18087,1.57000005,1.76797342,0.178853139,10.0588903,0.248890042,5.04063129,1.43601534,13.5676472,63.0652312,1.0927007,23,1771147872414204,-5.67665755,-2.40311747,-13.202051,76.669838,49.1843338,-0.344066414,988,15,10.0648918,-3.84411907,0.922721679,-1.42949858,5.74311214,5.10090017,8.64266843,0.577242675,0.180636306,-1.23669475,2026-02-15T09:31:12.414Z
1158.755859,2344.19688,1.57000005,2.18051672,0.559948683,9.85681343,0.0468126759,5.03901958,1.43619948,13.6587086,63.3069362,1.0972997,23,1771147872423687,-6.6362254,-2.70089202,-13.0347678,76.859375,49.1843338,-0.344066214,988,15,10.0205793,-3.83625913,0.948215375,-1.36799882,5.77145723,5.12274981,8.6772717,0.575411903,0.181058792,-1.36775166,2026-02-15T09:31:12.423Z
1158.765869,2344.21288,1.57000005,2.36626172,1.16868806,10.0346251,0.224625051,5.0374074,1.43638362,13.7497699,63.5486412,1.10189869,23,1771147872433170,-9.14594067,-2.6889328,-12.7379736,77.0489044,49.1843338,-0.344066013,988,15,9.97626686,-3.82839918,0.975138264,-1.28917709,5.79985025,5.14459896,8.7266576,0.573581131,0.181481277,-1.49649109,2026-02-15T09:31:12.433Z
1158.775879,2344.22889,1.57000005,2.30361986,1.76860774,10.2546196,0.444619358,5.03579521,1.43656776,13.8408313,63.7903461,1.10649769,23,1771147872442653,-14.1752283,-2.6168341,-12.3621152,77.2384338,49.1843338,-0.344065812,988,15,9.93195534,-3.82053924,1.00164157,-1.17270941,5.8282915,5.16644907,8.78252284,0.571750359,0.181903763,-1.62187092,2026-02-15T09:31:12.442Z
1158.785889,2344.24499,1.57000005,1.99576175,2.12081552,10.3043842,0.494383723,5.03417397,1.4367519,13.9318926,64.0320511,1.11109669,23,1771147872452189,-21.637264,-2.54483087,-11.8481097,77.4290161,49.1843338,-0.344065611,988,15,9.88764286,-3.81267929,1.02742506,-0.993857982,5.85693932,5.18841982,8.83586981,0.569919588,0.182326249,-1.74280645,2026-02-15T09:31:12.452Z
1158.795898,2344.26111,1.57000005,1.66324008,1.70639455,10.187788,0.377787888,5.03255129,1.43693604,14.022954,64.273756,1.11569568,23,1771147872461735,-30.3408389,-2.45643667,-11.2447242,77.6198044,49.1843338,-0.344065409,988,15,9.84333038,-3.80481935,1.05240722,-0.734241916,5.88566578,5.21041393,8.8778957,0.568088816,0.182748735,-1.85815942,2026-02-15T09:31:12.461Z
1158.805908,2344.27712,1.57000005,1.21352172,1.14046955,9.95462132,0.144621298,5.0309391,1.43712019,14.1140153,64.515461,1.12029468,23,1771147872471218,-38.6307421,-2.26150404,-10.8189506,77.8093338,49.1843338,-0.344065208,988,15,9.79901886,-3.7969594,1.07597296,-0.38968004,5.91425144,5.23226357,8.90782082,0.566258044,0.183171221,-1.96836809,2026-02-15T09:31:12.471Z
1158.815918,2344.29312,1.57000005,0.552283168,0.912236154,10.2618732,0.451873153,5.02932644,1.43730433,14.2050767,64.757166,1.12489367,23,1771147872480702,-46.8313602,-2.2059585,-10.3767467,77.9988556,49.1843338,-0.344065007,988,15,9.75470638,-3.78909945,1.09828821,0.0372534873,5.94288509,5.25411272,8.92155851,0.564427272,0.183593706,-2.07424103,2026-02-15T09:31:12.480Z
1158.825928,2344.30913,1.57000005,0.125656456,0.746443212,10.3270206,0.517019928,5.02771473,1.43748847,14.296138,64.9988709,1.12949267,23,1771147872490184,-55.2939186,-2.24013326,-9.81206841,78.1883926,49.1843338,-0.344064807,988,15,9.71039391,-3.78123951,1.12049715,0.547422814,5.97156678,5.2759614,8.91166369,0.5625965,0.184016192,-2.17508388,2026-02-15T09:31:12.490Z
1158.835938,2344.32514,1.57104659,-0.507438183,0.652237475,9.90953064,0.0995304883,5.02654123,1.43767261,14.3871994,65.2405759,1.13409167,23,1771147872499670,-63.9373139,-2.02084144,-9.23916239,78.3336105,49.1843338,-0.344064609,988,15,9.66608238,-3.77337956,1.14178016,1.14303926,6.00029652,5.29231644,8.88681067,0.560765728,0.184438678,-2.27024432,2026-02-15T09:31:12.499Z
1158.845947,2344.34115,1.57445228,-1.03054416,0.201304927,10.4727554,0.662754834,5.0263586,1.43785675,14.4782607,65.4822808,1.13869066,23,1771147872509161,-72.8807582,-1.73122933,-8.60511531,78.3789368,49.1843338,-0.344064416,988,15,9.62176991,-3.76551962,1.16052081,1.82650549,6.02907429,5.29628372,8.83972382,0.558934956,0.184861164,-2.35937559,2026-02-15T09:31:12.509Z
1158.855835,2344.35716,1.57919252,-1.40943623,-0.397340983,10.8470221,1.03702199,5.02673578,1.43804089,14.5693221,65.7239858,1.14328966,23,1771147872518656,-81.4897886,-1.33312097,-7.88689884,78.3677444,49.1843338,-0.344064226,988,15,9.57745743,-3.75765991,1.17601271,2.60705775,6.05790006,5.29324293,8.77370922,0.557104184,0.18528365,-2.44275763,2026-02-15T09:31:12.518Z
1158.865845,2344.37317,1.58393967,-2.09463,-1.26227582,11.0560942,1.24609351,5.02711535,1.43822503,14.6603834,65.9656907,1.14788866,23,1771147872528150,-93.0271697,-0.657001593,-6.69113802,78.3562622,49.1843338,-0.344064037,988,15,9.5331459,-3.74979997,1.18595689,3.47873518,6.08677379,5.29016733,8.69591044,0.555273413,0.185706136,-2.5155825,2026-02-15T09:31:12.528Z
1158.875854,2344.38918,1.5886867,-2.21529198,-1.87830615,10.657279,0.847278178,5.02749491,1.43840918,14.7514448,66.2073957,1.15248765,23,1771147872537644,-97.2517978,-0.116264953,-5.98783742,78.3447876,49.1843338,-0.344063847,988,15,9.48883343,-3.74194002,1.18982205,4.4291813,6.11569545,5.28709078,8.59451434,0.553442641,0.186128621,-2.57891893,2026-02-15T09:31:12.537Z
1158.885864,2344.40519,1.59343386,-2.50814486,-2.72989416,11.2745485,1.46454787,5.02787495,1.43859332,14.8425061,66.4491007,1.15708665,23,1771147872547139,-99.3088743,0.81037427,-5.30902393,78.3333054,49.1843338,-0.344063657,988,15,9.44452095,-3.73408008,1.18635938,5.41101576,6.14466499,5.28401518,8.49008656,0.551611869,0.186551107,-2.63535143,2026-02-15T09:31:12.547Z
1158.895874,2344.4212,1.59818089,-2.96702385,-3.50068259,11.2625313,1.45253038,5.02825499,1.43877746,14.9335675,66.6908056,1.16168565,23,1771147872556632,-98.0968385,1.8367909,-4.83167213,78.3218307,49.1843338,-0.344063468,988,15,9.40020943,-3.72622013,1.17314145,6.39708718,6.17368232,5.2809391,8.3764648,0.549781097,0.186973593,-2.68600776,2026-02-15T09:31:12.556Z
1158.905884,2344.43721,1.60292804,-3.47801185,-4.41036797,11.1609592,1.35095882,5.02863455,1.4389616,15.0246288,66.9325106,1.16628464,23,1771147872566127,-93.693038,2.70090852,-4.48622268,78.3103561,49.1843338,-0.344063278,988,15,9.35589695,-3.71836019,1.1504793,7.3551224,6.20274754,5.27786255,8.2477662,0.547950325,0.187396079,-2.73255346,2026-02-15T09:31:12.566Z
1158.915894,2344.4533,1.60770166,-3.77651262,-5.11190701,11.36238,1.55237949,5.02901602,1.43914574,15.1156901,67.1742155,1.17088364,23,1771147872575674,-86.1982387,3.69723497,-4.2261461,78.2988205,49.1843338,-0.344063088,988,15,9.31158447,-3.71050024,1.11852465,8.2537378,6.23202245,5.27476931,8.10225848,0.546119553,0.187818565,-2.77607408,2026-02-15T09:31:12.575Z
1158.925903,2344.46942,1.61248004,-3.85589838,-5.52254438,11.4015808,1.59158015,5.02939844,1.43932988,15.2067515,67.4159205,1.17548264,23,1771147872585231,-75.5611166,4.28133953,-4.14517314,78.287262,49.1843338,-0.344062897,988,15,9.26727295,-3.7026403,1.07866925,9.06171915,6.26137611,5.27167273,7.94775279,0.544288781,0.18824105,-2.81788964,2026-02-15T09:31:12.585Z
1158.935913,2344.48543,1.61722732,-3.5764153,-5.77344704,11.8204851,2.01048493,5.02977848,1.43951403,15.2978128,67.6576255,1.18008163,23,1771147872594725,-63.0432251,5.03933237,-4.01032775,78.2757874,49.1843338,-0.344062707,988,15,9.22296047,-3.69478035,1.03210766,9.75400376,6.29058413,5.26859665,7.79222856,0.542458009,0.188663536,-2.8586267,2026-02-15T09:31:12.594Z
1158.945923,2344.50144,1.61987758,-3.34830141,-5.68307066,11.165946,1.35594559,5.03121328,1.43969817,15.3888742,67.8993304,1.18468063,23,1771147872604918,-49.8576394,5.70392791,-3.93961262,78.2643738,49.1843338,-0.344062533,988,15,9.17864799,-3.6869204,0.978440537,10.3178932,6.31983907,5.20788717,7.64860141,0.540627238,0.189086022,-2.89833728,2026-02-15T09:31:12.604Z
1158.955933,2344.51745,1.61999953,-2.97009254,-5.41749716,11.5848732,1.77487326,5.03392029,1.43988231,15.4799355,68.1410354,1.18927963,23,1771147872615952,-35.7997377,6.68121194,-3.7996579,78.2530518,49.1843338,-0.344062377,988,15,9.13433647,-3.6790607,0.916570503,10.745694,6.34914082,5.07768297,7.51490547,0.538796466,0.189508508,-2.9369952,2026-02-15T09:31:12.615Z
1158.965942,2344.53345,1.62,-2.70344925,-5.33163643,11.7501135,1.94011331,5.0366888,1.44006645,15.5709969,68.3827403,1.19387862,23,1771147872627026,-21.4319255,7.58312772,-3.72931099,78.241745,49.1843338,-0.344062222,988,15,9.09002399,-3.67120075,0.845314022,11.0315036,6.37848914,4.9441371,7.39644013,0.536965694,0.189930994,-2.97460298,2026-02-15T09:31:12.627Z
1158.975952,2344.54946,1.62,-2.61325622,-5.10197306,11.4239769,1.6139766,5.03945684,1.44025059,15.6620582,68.6244453,1.19847762,23,1771147872638100,-7.98557429,8.21550648,-3.72679068,78.230423,49.1843338,-0.344062067,988,15,9.04571152,-3.66334081,0.766394874,11.1783827,6.40788374,4.8105793,7.28904128,0.535134922,0.19035348,-3.01184711,2026-02-15T09:31:12.638Z
1158.985840,2344.56547,1.62,-2.25497031,-4.10099506,11.9745436,2.16454291,5.04222584,1.44043473,15.7531196,68.8661502,1.20307662,23,1771147872649175,4.03137129,8.84188069,-3.72231449,78.2191086,49.1843338,-0.344061912,988,15,9.00139999,-3.65548086,0.680150973,11.1983747,6.43732427,4.6770215,7.18507724,0.53330415,0.190775965,-3.04951053,2026-02-15T09:31:12.649Z
1158.995850,2344.58148,1.62,-1.57265735,-3.5353303,10.9864292,1.17642903,5.04499435,1.44061888,15.8441809,69.1078552,1.20767561,23,1771147872660249,13.4149733,9.12365137,-3.64842331,78.2077866,49.1843338,-0.344061756,988,15,8.95708752,-3.64762092,0.590412312,11.1112735,6.46681043,4.54346418,7.09648236,0.531473378,0.191198451,-3.08632862,2026-02-15T09:31:12.660Z
1159.005859,2344.59749,1.62,-0.352690965,-3.58313203,11.394598,1.58459735,5.04776287,1.44080302,15.9352423,69.3495602,1.21227461,23,1771147872671323,21.2521102,9.39439683,-3.50946125,78.1964798,49.1843338,-0.344061601,988,15,8.91277504,-3.63976097,0.497913727,10.9381451,6.49634187,4.40990591,7.03358783,0.529642606,0.191620937,-3.1220838,2026-02-15T09:31:12.671Z
1159.015869,2344.6135,1.62,1.37032151,-2.94312763,11.5437346,1.73373437,5.05053186,1.44098716,16.0263036,69.5912651,1.21687361,23,1771147872682397,29.2778538,9.31861511,-3.43635872,78.1851578,49.1843338,-0.344061446,988,15,8.86846352,-3.63190103,0.404439589,10.6857807,6.52591821,4.27634859,7.01547536,0.527811834,0.192043423,-3.15677937,2026-02-15T09:31:12.682Z
1159.025879,2344.62951,1.62,3.69898796,-3.83735299,10.6619587,0.851958632,5.053298,1.4411713,16.117365,69.8329701,1.2214726,23,1771147872693471,36.9050035,8.97554518,-3.30348768,78.1740646,49.1843338,-0.344061291,988,15,8.82415104,-3.62404108,0.313056358,10.3552263,6.55553932,4.14287663,7.0597866,0.525981063,0.192465909,-3.19044638,2026-02-15T09:31:12.693Z
1159.035889,2344.64561,1.62,7.56548738,-3.39532709,10.868803,1.05880249,5.05486155,1.44135544,16.2084263,70.074675,1.2260716,23,1771147872703744,47.4764665,8.76111645,-3.45516984,78.2972336,49.1843338,-0.344061147,988,15,8.77983856,-3.61618114,0.224458527,9.93378199,6.58536964,4.05975151,7.18764791,0.524150291,0.192888394,-3.22420596,2026-02-15T09:31:12.703Z
1159.045898,2344.66172,1.62,10.1309938,-1.91483426,11.426199,1.61619866,5.05487347,1.44153958,16.2994877,70.31638,1.2306706,23,1771147872712929,68.7655482,8.27952513,-4.06494941,78.5917358,49.1843338,-0.344061019,988,15,8.73552704,-3.60832119,0.139337288,9.35319007,6.6152754,4.04166079,7.45365733,0.522319519,0.19331088,-3.26176841,2026-02-15T09:31:12.712Z
1159.055908,2344.67773,1.62,9.22922611,1.43823469,9.51710701,-0.29289335,5.05478239,1.44172372,16.390549,70.5580849,1.23526959,23,1771147872721983,71.9426837,7.99917403,-3.91390368,78.8955536,49.1843338,-0.344060892,988,15,8.69121456,-3.60046124,0.0580245668,8.65031984,6.64502775,4.02797127,7.80964163,0.520488747,0.193733366,-3.30162302,2026-02-15T09:31:12.721Z
1159.065918,2344.69374,1.62,8.9581213,3.56804037,12.023963,2.21396232,5.05469179,1.44190787,16.4816104,70.7997899,1.23986859,23,1771147872731036,67.1141208,7.57790812,-3.2842531,79.199379,49.1843338,-0.344060765,988,15,8.64690208,-3.59260154,-0.0197828066,7.95573774,6.67482275,4.0142827,8.12993488,0.518657975,0.194155852,-3.33757562,2026-02-15T09:31:12.731Z
1159.075928,2344.70975,1.62,9.18050766,5.96350574,11.5124636,1.70246267,5.05460167,1.44209201,16.5726717,71.0414949,1.24446759,23,1771147872740089,54.970709,6.93422525,-2.5742636,79.5032043,49.1843338,-0.344060638,988,15,8.60259056,-3.58474159,-0.0922695517,7.34596826,6.70465999,4.00059462,8.43757572,0.516827203,0.194578338,-3.36683617,2026-02-15T09:31:12.740Z
1159.085938,2344.72576,1.62,8.70101357,6.62597752,9.0001564,-0.809843719,5.05451107,1.44227615,16.663733,71.2831998,1.24906658,23,1771147872749142,36.0089648,5.48621537,-1.32046126,79.8070297,49.1843338,-0.344060511,988,15,8.55827808,-3.57688165,-0.154304124,6.89160581,6.73453896,3.98690653,8.75043931,0.514996431,0.195000824,-3.3862847,2026-02-15T09:31:12.749Z
1159.095947,2344.74177,1.62,8.48332405,3.29136705,10.3405752,0.530574739,5.05442047,1.44246029,16.7547944,71.5249048,1.25366558,23,1771147872758195,17.8345589,4.70655246,-0.144072172,80.1108551,49.1843338,-0.344060384,988,15,8.51396656,-3.5690217,-0.205214498,6.62273873,6.76445916,3.9732182,9.04323096,0.513165659,0.195423309,-3.39359454,2026-02-15T09:31:12.758Z
1159.105835,2344.75777,1.62,7.92837811,1.71919644,10.6205769,0.810576618,5.05432987,1.44264443,16.8458557,71.7666097,1.25826458,23,1771147872767249,6.15108589,3.37687997,0.495733824,80.4146805,49.1843338,-0.344060258,988,15,8.46965408,-3.56116176,-0.246078834,6.50152434,6.79442005,3.9595294,9.32887744,0.511334888,0.195845795,-3.39181335,2026-02-15T09:31:12.767Z
1159.115845,2344.77378,1.62,6.98241138,-1.36472011,7.31058121,-2.49941945,5.05423927,1.44282857,16.9369171,72.0083147,1.26286357,23,1771147872776302,0.939372791,2.43237316,1.18208544,80.7184982,49.1843338,-0.344060131,989,15,8.42534161,-3.55330181,-0.27510139,6.46608112,6.82442113,3.94584131,9.58873612,0.509504116,0.196268281,-3.38343578,2026-02-15T09:31:12.776Z
1159.125854,2344.78979,1.62,6.45798731,-2.85742188,10.4518242,0.641823828,5.05414867,1.44301272,17.0279784,72.2500197,1.26746257,23,1771147872785355,2.88214591,2.83261584,1.39009352,81.0223236,49.1843338,-0.344060004,989,15,8.38103008,-3.54544187,-0.301398675,6.44700146,6.85446186,3.93215299,9.81226175,0.507673344,0.196690767,-3.37058844,2026-02-15T09:31:12.785Z
1159.135864,2344.8058,1.62,5.98328686,-3.51831007,9.31907558,-0.490924418,5.05405807,1.44319686,17.1190398,72.4917246,1.27206157,23,1771147872794413,7.31036181,2.2204992,1.60172293,81.3267365,49.1843338,-0.344059877,989,15,8.33671761,-3.53758192,-0.326642591,6.39611007,6.88454171,3.91896582,10.0149916,0.505842572,0.197113253,-3.35564497,2026-02-15T09:31:12.794Z
1159.145874,2344.82181,1.62,5.16279507,-3.50415111,6.73784256,-3.07215762,5.0539031,1.443381,17.2101011,72.7334296,1.27666056,23,1771147872804850,12.8777102,2.36607537,2.02111692,81.8148041,49.1843338,-0.344059645,989,15,8.29240513,-3.52972198,-0.349552387,6.29529526,6.91466015,4.06384468,10.198936,0.5040118,0.197535738,-3.33755048,2026-02-15T09:31:12.804Z
1159.155884,2344.83782,1.62,4.14469147,-3.76982665,10.5186386,0.70863837,5.05366278,1.44356514,17.3011625,72.9751345,1.28125956,23,1771147872817117,16.8840826,2.69026726,2.5735963,82.5465469,49.1843338,-0.344059273,989,15,8.24809361,-3.52186203,-0.374807836,6.14665096,6.94481682,4.41842031,10.3518416,0.502181028,0.197958224,-3.31460202,2026-02-15T09:31:12.817Z
1159.165894,2344.85392,1.62,3.74443579,-2.93312335,7.04252911,-2.76747131,5.05341244,1.44374928,17.3922238,73.2168395,1.28585856,23,1771147872829643,22.175348,1.17520797,2.84957789,83.3076782,49.1843338,-0.344058885,989,15,8.20378113,-3.51400208,-0.394123746,5.95157014,6.97517909,4.79675627,10.4668828,0.500350256,0.19838071,-3.28751395,2026-02-15T09:31:12.829Z
1159.175903,2344.87003,1.62,3.43007803,-1.31903601,7.84212542,-1.96787477,5.05316162,1.44393342,17.4832852,73.4585444,1.29045755,23,1771147872842182,25.6242538,1.17524941,3.06114311,84.0696106,49.1843338,-0.344058496,989,15,8.15946865,-3.50614238,-0.405864568,5.71279676,7.00561059,5.17548847,10.5666709,0.498519484,0.198803196,-3.25798865,2026-02-15T09:31:12.842Z
1159.185913,2344.88604,1.62,3.20428157,-0.591763079,9.55804634,-0.251954079,5.05291271,1.44411757,17.5743465,73.7002494,1.29505655,23,1771147872854639,24.8333595,0.964597876,3.68506532,84.8265305,49.1843338,-0.34405811,989,15,8.11515713,-3.49828243,-0.416552338,5.46075871,7.03587845,5.55173063,10.6544573,0.496688713,0.199225682,-3.22428747,2026-02-15T09:31:12.854Z
1159.195923,2344.90205,1.62,3.31986761,1.04906547,6.49359417,-3.31640625,5.05266333,1.44430171,17.6654079,73.9419544,1.29965555,23,1771147872867095,21.1925153,0.418028542,4.17367854,85.5834427,49.1843338,-0.344057724,989,15,8.07084465,-3.49042249,-0.423456063,5.2308716,7.06618196,5.92797089,10.7335485,0.494857941,0.199648168,-3.18502972,2026-02-15T09:31:12.867Z
1159.205933,2344.91806,1.62,3.59040642,0.582837105,7.82673264,-1.98326755,5.05241442,1.44448585,17.7564692,74.1836593,1.30425454,23,1771147872879552,15.7738115,0.828134514,4.93429506,86.3403625,49.1843338,-0.344057338,989,15,8.02653217,-3.48256254,-0.429682815,5.04624663,7.09652071,6.30421114,10.8163092,0.493027169,0.200070653,-3.13953058,2026-02-15T09:31:12.879Z
1159.215942,2344.93407,1.62,3.69732213,0.23603943,7.78027773,-2.02972269,5.05216503,1.44466999,17.8475306,74.4253643,1.30885354,23,1771147872892009,12.8396579,0.204129287,5.28077489,87.0972748,49.1843338,-0.344056952,989,15,7.98222017,-3.4747026,-0.434836039,4.90333298,7.12689414,6.68045139,10.9082761,0.491196397,0.200493139,-3.0885034,2026-02-15T09:31:12.892Z
1159.225952,2344.95008,1.62,3.33603382,-0.413956463,5.98522568,-3.82477498,5.05282497,1.44485413,17.9385919,74.6670692,1.31345254,23,1771147872903264,10.5631416,-0.620748316,5.55314854,87.6852951,49.1843338,-0.344056606,989,15,7.93790817,-3.46684265,-0.432750981,4.78644411,7.1573017,6.94189024,11.0034729,0.489365625,0.200915625,-3.03438532,2026-02-15T09:31:12.903Z
1159.235840,2344.96609,1.62,2.49815917,-1.03609848,7.79423475,-2.01576543,5.05466509,1.44503827,18.0296533,74.9087742,1.31805153,23,1771147872912962,10.3338849,-1.95079601,6.04064416,88.0540009,49.1843338,-0.344056314,989,15,7.89359617,-3.45898271,-0.419748904,4.68078746,7.18774279,7.05427217,11.0858532,0.487534853,0.201338111,-2.97576601,2026-02-15T09:31:12.912Z
1159.245850,2344.9821,1.62,1.38402486,-1.27261722,6.66303444,-3.14696598,5.05665874,1.44522241,18.1207146,75.1504792,1.32265053,23,1771147872922457,10.4747417,-2.30213519,6.38602386,88.3941498,49.1843338,-0.344056028,989,15,7.8492837,-3.45112276,-0.398506711,4.57684652,7.21821689,7.14723969,11.1367955,0.485704081,0.201760597,-2.91369496,2026-02-15T09:31:12.922Z
1159.255859,2344.9981,1.62,1.72237074,-1.48073936,8.69227123,-1.11772907,5.0586524,1.44540656,18.211776,75.3921841,1.32724952,23,1771147872931950,10.4775025,-2.23422662,6.66072557,88.7342911,49.1843338,-0.344055742,989,15,7.80497169,-3.44326282,-0.375846689,4.47218754,7.24872346,7.24020624,11.1474122,0.483873309,0.202183082,-2.84852619,2026-02-15T09:31:12.931Z
1159.265869,2345.01411,1.62,2.25137758,-1.06761193,7.8973918,-1.91260874,5.06064653,1.4455907,18.3028373,75.6338891,1.33184852,23,1771147872941445,9.853544,-2.50785351,6.79700487,89.0744324,49.1843338,-0.344055456,989,15,7.76065969,-3.43540287,-0.352160752,4.3706285,7.27926194,7.33317423,11.1703896,0.482042537,0.202605568,-2.78130384,2026-02-15T09:31:12.941Z
1159.275879,2345.03012,1.62,2.85672426,-1.37572575,7.94373894,-1.86626172,5.06264019,1.44577484,18.3938986,75.875594,1.33644752,23,1771147872950939,7.56876226,-2.64631036,7.06976597,89.4145737,49.1843338,-0.344055171,989,15,7.71634722,-3.42754316,-0.326415749,4.28359084,7.30983209,7.42614174,11.2124656,0.480211766,0.203028054,-2.71203896,2026-02-15T09:31:12.950Z
1159.285889,2345.04622,1.62,3.0379622,-1.55380201,9.22880745,-0.581192613,5.06464529,1.44595898,18.48496,76.117299,1.34104651,23,1771147872960487,5.82035552,-2.71492657,7.27455759,89.7566147,49.1843338,-0.344054883,989,15,7.67203522,-3.41968322,-0.299636046,4.21670204,7.34060335,7.51962757,11.2762131,0.478380994,0.20345054,-2.64038831,2026-02-15T09:31:12.960Z
1159.295898,2345.06234,1.62,3.1344533,-1.50860012,8.54470634,-1.26529419,5.0666523,1.44614312,18.5760213,76.3590039,1.34564551,23,1771147872970043,4.49179966,-3.47291859,7.40937068,90.0990143,49.1843338,-0.344054596,989,15,7.62772322,-3.41182327,-0.268728825,4.16518838,7.37143752,7.6132102,11.3461531,0.476550222,0.203873026,-2.56704062,2026-02-15T09:31:12.970Z
1159.305908,2345.07834,1.62,2.79130697,-1.97500324,8.82820225,-0.98179847,5.06864595,1.44632726,18.6670827,76.6007089,1.35024451,23,1771147872979537,2.34025707,-3.34223481,7.681101,90.4391556,49.1843338,-0.34405431,989,15,7.58341074,-3.40396333,-0.234686942,4.13107192,7.4020987,7.70617771,11.4191749,0.47471945,0.204295512,-2.49166055,2026-02-15T09:31:12.979Z
1159.315918,2345.09435,1.62,2.18358374,-2.50921535,9.58109474,-0.228905678,5.07063961,1.44651141,18.758144,76.8424139,1.3548435,23,1771147872989032,1.48597239,-3.26886977,7.88553119,90.7793045,49.1843338,-0.344054024,989,15,7.53909874,-3.39610338,-0.201664024,4.11196357,7.43278906,7.79914474,11.4794324,0.472888678,0.204717997,-2.41390233,2026-02-15T09:31:12.989Z
1159.325928,2345.11036,1.61982751,2.11236954,-2.90338159,8.83717823,-0.972822428,5.07120037,1.44669555,18.8492054,77.0841188,1.3594425,23,1771147872998688,3.53660879,-3.33392029,7.95130188,91.0740891,49.1843338,-0.344053729,989,15,7.49478674,-3.38824344,-0.168681964,4.08686515,7.46350814,7.8853755,11.5175378,0.471057906,0.205140483,-2.3347951,2026-02-15T09:31:12.998Z
1159.335938,2345.12637,1.61914313,2.07836795,-2.80747247,8.7761116,-1.03388834,5.06751347,1.44687969,18.9402667,77.3258238,1.3640415,23,1771147873008825,6.18427006,-3.12699974,7.94596089,91.2344055,49.1843338,-0.344053405,989,15,7.45047426,-3.38038349,-0.136409892,4.03829532,7.49425543,7.95163155,11.5530082,0.469227134,0.205562969,-2.25538636,2026-02-15T09:31:13.008Z
1159.345947,2345.14238,1.61809683,2.2648921,-1.61189198,8.76104832,-1.0489521,5.06081963,1.44706383,19.0313281,77.5675287,1.36864049,23,1771147873019302,7.47359494,-3.39397186,7.87066172,91.2995377,49.1843338,-0.344053062,989,15,7.40616226,-3.37252355,-0.103835533,3.97006644,7.52503041,8.00374985,11.5872085,0.467396362,0.205985455,-2.17638077,2026-02-15T09:31:13.019Z
1159.355835,2345.15839,1.61704898,1.98280048,-0.93140173,8.82912922,-0.980871379,5.05411291,1.44724797,19.1223894,77.8092337,1.37323949,23,1771147873029782,6.67293485,-3.88379082,7.99978593,91.3642807,49.1843338,-0.344052718,989,15,7.36185026,-3.3646636,-0.0670363213,3.89854328,7.55583258,8.05580902,11.6285195,0.465565591,0.206407941,-2.09613766,2026-02-15T09:31:13.029Z
1159.365845,2345.1744,1.61600113,2.0334444,-0.943379462,9.25637913,-0.55362159,5.04740667,1.44743211,19.2134508,78.0509387,1.37783849,23,1771147873040260,5.43207529,-4.71187968,8.06324801,91.4290161,49.1843338,-0.344052375,989,15,7.31753778,-3.35680366,-0.0241039103,3.83807123,7.58666146,8.10786819,11.6591417,0.463734819,0.206830426,-2.01590116,2026-02-15T09:31:13.040Z
1159.375854,2345.19041,1.61495328,2.02496028,-1.09116673,9.52867031,-0.281330168,5.04070044,1.44761625,19.3045121,78.2926436,1.38243748,23,1771147873050739,5.34636145,-5.27223048,8.05732681,91.4937515,49.1843338,-0.344052031,989,15,7.27322578,-3.34894371,0.0257652128,3.78423117,7.61751657,8.15992641,11.6915895,0.461904047,0.207252912,-1.93537689,2026-02-15T09:31:13.050Z
1159.385864,2345.20642,1.61390531,1.96309352,-1.7354387,10.1592216,0.349220932,5.03399324,1.4478004,19.3955735,78.5343486,1.38703648,23,1771147873061218,6.24488718,-5.48506911,8.1177924,91.5584946,49.1843338,-0.344051688,989,15,7.22891378,-3.341084,0.0794981917,3.72633575,7.64839744,8.21198559,11.7237182,0.460073275,0.207675398,-1.85458049,2026-02-15T09:31:13.061Z
1159.395874,2345.22242,1.61285746,1.64344597,-2.36543465,10.1182508,0.308250308,5.02728701,1.44798454,19.4866348,78.7760535,1.39163548,23,1771147873071697,9.41645476,-5.28035531,8.11113294,91.6232376,49.1843338,-0.344051344,989,15,7.18460131,-3.33322406,0.133273779,3.6481208,7.6793036,8.26404476,11.7536183,0.458242503,0.208097884,-1.773515,2026-02-15T09:31:13.071Z
1159.405884,2345.23843,1.61180949,1.17383611,-2.44916987,10.7797127,0.969712317,5.02058077,1.44816868,19.5776962,79.0177585,1.39623447,23,1771147873082175,14.410462,-4.38553891,8.03460938,91.6879654,49.1843338,-0.344051001,989,15,7.14028931,-3.32536411,0.181560458,3.52912674,7.71023481,8.31610489,11.7720376,0.456411731,0.20852037,-1.69286467,2026-02-15T09:31:13.082Z
1159.415894,2345.25453,1.61075544,0.798855305,-2.24084163,10.902791,1.09279037,5.01383734,1.44835282,19.6687575,79.2594634,1.40083347,23,1771147873092713,20.604773,-3.81592555,7.9563339,91.7530746,49.1843338,-0.344050655,989,15,7.09597731,-3.31750417,0.222530549,3.35425155,7.74136272,8.36845303,11.773689,0.454580959,0.208942856,-1.61298758,2026-02-15T09:31:13.092Z
1159.425903,2345.27484,1.60837293,0.533466697,-2.1546824,11.0088987,1.19889843,5.00929689,1.44853696,19.7598189,79.5011684,1.40543247,23,1771147873102722,32.4644337,-2.87914066,7.94599973,91.8480835,49.1843338,-0.344050323,989,15,7.05166531,-3.30964422,0.255970901,3.08913502,7.7725475,8.41730499,11.762138,0.452750187,0.209365341,-1.53355351,2026-02-15T09:31:13.102Z
1159.435913,2345.30079,1.60417449,-0.773042917,-2.07782555,10.9796848,1.16968405,5.00783587,1.4487211,19.8508802,79.7428734,1.41003146,23,1771147873111921,39.7661178,-2.6211944,7.8716378,91.9836349,49.1843338,-0.344050012,989,15,7.00735283,-3.30178428,0.283444494,2.72829907,7.8035508,8.46093845,11.7414671,0.450919416,0.209787827,-1.45454284,2026-02-15T09:31:13.111Z
1159.445923,2345.32779,1.59964359,-1.75110126,-2.24725342,11.0979433,1.28794265,5.00692844,1.45100487,19.8877372,79.9906353,1.41330569,23,1771147873120984,47.735901,-2.4743758,7.79270767,92.1266556,49.1843338,-0.344049704,989,15,7.00113535,-3.29088187,0.308896776,2.29117706,7.83457704,8.50368214,11.674324,0.449522113,0.209920352,-1.37629791,2026-02-15T09:31:13.120Z
1159.455933,2345.35479,1.59511197,-1.74277401,-1.69294977,10.5933943,0.7833938,5.00602245,1.45540683,19.8699106,80.2445078,1.41524343,23,1771147873130047,56.8160941,-2.46258869,7.51785159,92.2696915,49.1843338,-0.344049396,989,15,7.03334904,-3.27691031,0.333557462,1.76888301,7.86562594,8.54642391,11.5729859,0.448562113,0.209760352,-1.29982114,2026-02-15T09:31:13.130Z
1159.465942,2345.38179,1.59058034,-1.70663881,-1.0373596,11.0547905,1.24478972,5.00511599,1.45980878,19.852084,80.4983802,1.41718117,23,1771147873139111,65.12382,-1.67879113,7.22894953,92.4127274,49.1843338,-0.344049088,989,15,7.06556273,-3.2629385,0.354240337,1.15973807,7.8966971,8.58916569,11.4732698,0.447602113,0.209600352,-1.22616047,2026-02-15T09:31:13.139Z
1159.475952,2345.4088,1.58604884,-1.3399241,-0.617963493,10.6253729,0.815372169,5.00421,1.46421074,19.8342574,80.7522527,1.41911891,23,1771147873148174,73.3701168,-1.0330757,6.74487446,92.5557632,49.1843338,-0.34404878,989,15,7.09777689,-3.24896669,0.367783328,0.467904115,7.92779013,8.63190746,11.3761599,0.446642113,0.209440352,-1.15636186,2026-02-15T09:31:13.148Z
1159.485840,2345.4358,1.58151734,-0.742353439,0.519761562,10.3529606,0.542959869,5.00330305,1.46861269,19.8164307,81.0061252,1.42105665,23,1771147873157236,80.9108471,-0.0649549277,6.11003971,92.6987991,49.1843338,-0.344048472,989,15,7.12999058,-3.23499513,0.373335261,-0.312156478,7.95890462,8.67464828,11.2926378,0.445682113,0.209280352,-1.09136617,2026-02-15T09:31:13.157Z
1159.495850,2345.4628,1.57698572,-0.306688666,2.38019204,10.3685513,0.558551311,5.00239706,1.47301465,19.7986041,81.2599976,1.42299439,23,1771147873166300,85.1130959,1.04477142,5.73420263,92.8418427,49.1843338,-0.344048164,989,15,7.16220427,-3.22102332,0.368446332,-1.14144588,7.99004022,8.71739101,11.2326182,0.444722113,0.209120352,-1.0322009,2026-02-15T09:31:13.166Z
1159.505859,2345.4898,1.57245409,-0.269759119,2.11611414,10.7139969,0.90399611,5.00149059,1.4774166,19.7807775,81.5138701,1.42493213,23,1771147873175363,86.4292913,1.90380819,5.89431246,92.9848785,49.1843338,-0.344047856,989,15,7.19441795,-3.20705175,0.353721987,-1.99831465,8.02119654,8.76013279,11.189192,0.443762113,0.208960352,-0.974115829,2026-02-15T09:31:13.175Z
1159.515869,2345.51681,1.56792259,-0.54480648,1.91188097,11.1883659,1.37836587,5.0005846,1.48181856,19.7629509,81.7677426,1.42686987,23,1771147873184426,87.7468863,2.4839369,5.83279355,93.1279144,49.1843338,-0.344047548,989,15,7.22663164,-3.19307995,0.331807487,-2.86833954,8.05237323,8.80287361,11.14785,0.442802113,0.208800352,-0.915537212,2026-02-15T09:31:13.184Z
1159.525879,2345.54381,1.5633955,-0.854726255,2.88505769,9.92941093,0.119410515,4.99967957,1.48622051,19.7451243,82.021615,1.42880761,23,1771147873193489,90.1817663,2.78648508,5.55704496,93.2709427,49.1843338,-0.34404724,989,15,7.25884581,-3.17910814,0.305482549,-3.75710304,8.08357023,8.84557152,11.0973416,0.441842113,0.208640352,-0.858642242,2026-02-15T09:31:13.193Z
1159.535889,2345.57096,1.56153667,-1.37829113,1.72951424,10.645483,0.835482657,4.99965477,1.49062247,19.7272976,82.2754875,1.43074535,23,1771147873202761,93.7373956,3.58708764,5.07149117,93.4116287,49.1843338,-0.344046932,989,15,7.29105949,-3.16513658,0.273649679,-4.67578437,8.11496059,8.86205387,11.0365106,0.440882113,0.208480352,-0.805549049,2026-02-15T09:31:13.202Z
1159.545898,2345.59814,1.56360006,-1.98910248,2.60812187,10.8510408,1.04103994,5.00091982,1.49502443,19.709471,82.52936,1.43268308,23,1771147873212270,98.7973495,3.9743922,3.79375559,93.5478973,49.1843338,-0.344046624,989,15,7.32327318,-3.15116477,0.235880095,-5.63750675,8.1464034,8.84001541,10.9577688,0.439922113,0.208320352,-0.761262992,2026-02-15T09:31:13.212Z
1159.555908,2345.62515,1.56644809,-2.92410707,4.59747839,11.0349283,1.22492778,5.00243902,1.49942638,19.6916444,82.7832324,1.43462082,23,1771147873221765,100.085855,4.90866164,2.90803929,93.6823273,49.1843338,-0.344046318,989,15,7.35548687,-3.1371932,0.191503601,-6.63095889,8.17765842,8.8102808,10.8581447,0.438962113,0.208160352,-0.727791027,2026-02-15T09:31:13.221Z
1159.565918,2345.65215,1.56929636,-3.29701781,3.67574859,12.0913601,2.28135991,5.00395823,1.50382834,19.6738178,83.0371049,1.43655856,23,1771147873231259,96.2220146,5.69547317,2.63935931,93.8167572,49.1843338,-0.344046013,989,15,7.38770056,-3.1232214,0.138530828,-7.61152177,8.20893207,8.78054523,10.7262009,0.438002113,0.208000352,-0.700082394,2026-02-15T09:31:13.231Z
1159.575928,2345.67915,1.57214463,-2.71843195,3.8107481,11.4865522,1.6765523,5.00547743,1.50823029,19.6559911,83.2909774,1.4384963,23,1771147873240753,93.5092536,5.95092526,1.96680997,93.9511948,49.1843338,-0.344045707,989,15,7.41991472,-3.10924959,0.080354418,-8.55923945,8.24022409,8.75080967,10.5824759,0.437042113,0.207840352,-0.677077292,2026-02-15T09:31:13.240Z
1159.585938,2345.70615,1.57499301,-1.65939951,4.06288242,11.251524,1.44152319,5.00699615,1.51263225,19.6381645,83.5448498,1.44043404,23,1771147873250247,89.8959429,6.54909088,1.32072052,94.0856323,49.1843338,-0.344045401,989,15,7.45212841,-3.09527802,0.017912403,-9.47535323,8.27153418,8.72107315,10.4613081,0.436082113,0.207680352,-0.660658807,2026-02-15T09:31:13.250Z
1159.595947,2345.73315,1.57784116,-0.714644372,4.46536541,11.6352978,1.82529771,5.00851536,1.5170342,19.6203379,83.7987223,1.44237178,23,1771147873259742,85.1675803,7.05187583,0.872413749,94.2200699,49.1843338,-0.344045096,989,15,7.4843421,-3.08130622,-0.0500285127,-10.349794,8.30286203,8.69133663,10.3797515,0.435122113,0.207520352,-0.649705995,2026-02-15T09:31:13.259Z
1159.605835,2345.76016,1.58068955,-0.383149743,5.49691296,12.52736,2.7173593,5.01003408,1.52143616,19.6025113,84.0525948,1.44430952,23,1771147873269237,78.2607308,7.35329819,0.632210281,94.3544922,49.1843338,-0.34404479,989,15,7.51655579,-3.06733465,-0.12286406,-11.1760724,8.33420735,8.66160202,10.3328126,0.434162113,0.207360352,-0.642099786,2026-02-15T09:31:13.269Z
